     2.11           OBSERVATION DATA    M (Mixed)           RINEX VERSION / TYPE
RTCM3TORINEX on                         2022-01-17 08:59    PGM / RUN BY / DATE
RTCM3TORINEX                                                MARKER NAME
                                                            OBSERVER / AGENCY
                                                            REC # / TYPE / VERS
                                                            ANT # / TYPE
         .0000         .0000         .0000                  APPROX POSITION XYZ
         .0000         .0000         .0000                  ANTENNA: DELTA H/E/N
     1     1                                                WAVELENGTH FACT L1/2
     9    C1    C2    L1    L2    S1    S2    C7    L7    S7# / TYPES OF OBSERV
  2022     1    17     8    59   21.0000000     GPS         TIME OF FIRST OBS
                                                            END OF HEADER
 22  1 17  8 59 21.0000000  0  7E03E05E09E13E15E24E25
  25387376.174                   133411194.918 0                        46.000  
                  25387376.514   102224159.554          51.000  
  23325083.733                   122574140.072 0                        48.000  
                  23325083.715    93920437.521          53.000  
  24120173.557                   126752336.547 0                        44.000  
                  24120174.594    97121914.073          48.000  
  28256583.177                   148489099.68010                        36.000  
                  28256584.624   113777544.190          42.000  
  27763621.327                   145898120.283 0                        38.000  
                  27763623.347   111792054.865          42.000  
  24083101.232                   126557701.150 0                        48.000  
                  24083099.838    96972692.375          52.000  
  25815729.730                   135662587.328 0                        45.000  
                  25815731.321   103949270.072          49.000  
 22  1 17  8 59 22.0000000  0  9G05G07G08G09G13G14G20G27G30
  21472501.501    21472497.320   112838216.70110  87925880.043 0        48.000  
        46.000                                                  
  21408297.262    21408293.063   112501345.746 0  87663359.001 0        47.000  
        44.000                                                  
  24514613.316    24514615.764   128825180.897 0 100383264.951 0        35.000  
        39.000                                                  
  23511438.630    23511437.682   123553418.612 0  96275705.376 0        42.000  
        42.000                                                  
  22374903.583                   117580914.366 0                        47.000  
                                                                
  22007568.505    22007565.307   115651102.764 0  90117294.794 0        45.000  
        47.000                                                  
  20958079.795                   110135425.728 0                        49.000  
                                                                
  24993934.508    24993934.651   131344560.944 0 102346411.136 0        34.000  
        35.000                                                  
  20485542.649    20485540.612   107652251.977 0  83884852.305 0        50.000  
        49.000                                                  
 22  1 17  8 59 21.0000000  0  0
 22  1 17  8 59 22.0000000  0  7E03E05E09E13E15E24E25
  25386975.854                   133409090.598 0                        46.000  
                  25386976.158   102222547.149          51.000  
  23325108.803                   122574272.659 0                        48.000  
                  23325108.946    93920539.113          53.000  
  24120588.976                   126754519.510 0                        44.000  
                  24120589.852    97123586.735          48.000  
  28256567.452                   148489017.49810                        35.000  
                  28256569.096   113777481.201          42.000  
  27763992.485                   145900070.104 0                        37.000  
                  27763994.379   111793548.872          42.000  
  24083037.421                   126557365.843 0                        48.000  
                  24083036.010    96972435.456          52.000  
  25815188.370                   135659742.187 0                        45.000  
                  25815189.907   103947090.038          49.000  
 22  1 17  8 59 23.0000000  0  9G05G07G08G09G13G14G20G27G30
  21472310.571    21472306.372   112837213.27210  87925098.137 0        48.000  
        46.000                                                  
  21408632.467    21408628.411   112503107.738 0  87664731.975 0        47.000  
        44.000                                                  
  24514426.460    24514428.872   128824198.452 0 100382499.419 0        36.000  
        39.000                                                  
  23512011.493    23512010.456   123556428.713 0  96278050.907 0        42.000  
        42.000                                                  
  22374380.360                   117578164.861 0                        47.000  
                                                                
  22007015.673    22007012.457   115648197.387 0  90115030.867 0        45.000  
        47.000                                                  
  20958279.588                   110136475.791 0                        49.000  
                                                                
  24994024.889    24994024.943   131345035.479 0 102346780.879 0        33.000  
        35.000                                                  
  20485609.194    20485607.157   107652601.581 0  83885124.731 0        50.000  
        49.000                                                  
 22  1 17  8 59 22.0000000  0  0
 22  1 17  8 59 23.0000000  0  7E03E05E09E13E15E24E25
  25386575.392                   133406986.576 0                        46.000  
                  25386575.785   102220934.969          51.000  
  23325134.266                   122574405.707 0                        48.000  
                  23325134.195    93920641.057          53.000  
  24121004.306                   126756702.839 0                        44.000  
                  24121005.396    97125259.676          48.000  
  28256551.745                   148488935.98810                        35.000  
                  28256553.604   113777418.729          42.000  
  27764363.660                   145902020.382 0                        37.000  
                  27764365.590   111795043.237          42.000  
  24082973.665                   126557031.181 0                        48.000  
                  24082972.360    96972179.024          52.000  
  25814647.064                   135656897.453 0                        45.000  
                  25814648.583   103944910.311          49.000  
 22  1 17  8 59 24.0000000  0  9G05G07G08G09G13G14G20G27G30
  21472119.658    21472115.405   112836210.39810  87924316.678 0        48.000  
        46.000                                                  
  21408967.869    21408963.651   112504869.922 0  87666105.095 0        47.000  
        44.000                                                  
  24514239.639    24514242.087   128823216.492 0 100381734.268 0        36.000  
        39.000                                                  
  23512584.409    23512583.230   123559438.923 0  96280396.518 0        42.000  
        42.000                                                  
  22373857.137                   117575415.427 0                        47.000  
                                                                
  22006462.877    22006459.625   115645292.324 0  90112767.177 0        45.000  
        47.000                                                  
  20958479.489                   110137526.418 0                        49.000  
                                                                
  24994115.271    24994115.360   131345510.525 0 102347151.034 0        33.000  
        35.000                                                  
  20485675.845    20485673.808   107652951.538 0  83885397.415 0        50.000  
        49.000                                                  
 22  1 17  8 59 23.0000000  0  0
 22  1 17  8 59 24.0000000  0  7E03E05E09E13E15E24E25
  25386175.001                   133404882.582 0                        46.000  
                  25386175.340   102219322.813          51.000  
  23325159.515                   122574538.960 0                        48.000  
                  23325159.676    93920743.153          53.000  
  24121419.832                   126758886.280 0                        44.000  
                  24121420.869    97126932.690          48.000  
  28256536.325                   148488854.83210                        35.000  
                  28256538.040   113777356.566          42.000  
  27764734.818                   145903970.904 0                        37.000  
                  27764736.890   111796537.791          42.000  
  24082910.104                   126556696.915 0                        48.000  
                  24082908.729    96971922.894          52.000  
  25814105.865                   135654052.843 0                        45.000  
                  25814107.330   103942730.680          49.000  
 22  1 17  8 59 25.0000000  0  9G05G07G08G09G13G14G20G27G30
  21471928.888    21471924.725   112835208.08110  87923535.655 0        48.000  
        46.000                                                  
  21409303.199    21409299.142   112506632.260 0  87667478.346 0        47.000  
        44.000                                                  
  24514052.836    24514055.338   128822234.992 0 100380969.477 0        36.000  
        39.000                                                  
  23513157.254    23513156.039   123562449.242 0  96282742.223 0        42.000  
        42.000                                                  
  22373333.968                   117572666.066 0                        47.000  
                                                                
  22005910.117    22005906.847   115642387.573 0  90110503.738 0        45.000  
        47.000                                                  
  20958679.551                   110138577.619 0                        49.000  
                                                                
  24994205.742    24994205.938   131345986.111 0 102347521.643 0        33.000  
        34.000                                                  
  20485742.407    20485740.424   107653301.802 0  83885670.351 0        50.000  
        49.000                                                  
 22  1 17  8 59 24.0000000  0  0
 22  1 17  8 59 25.0000000  0  7E03E05E09E13E15E24E25
  25385774.520                   133402778.615 0                        46.000  
                  25385775.020   102217710.685          51.000  
  23325185.014                   122574672.401 0                        48.000  
                  23325184.961    93920845.409          53.000  
  24121835.287                   126761069.800 0                        44.000  
                  24121836.431    97128605.780          48.000  
  28256520.671                   148488774.10610                        35.000  
                  28256522.601   113777294.701          42.000  
  27765105.779                   145905921.614 0                        37.000  
                  27765108.012   111798032.506          42.000  
  24082846.544                   126556363.013 0                        48.000  
                  24082845.133    96971667.051          52.000  
  25813564.684                   135651208.368 0                        45.000  
                  25813565.970   103940551.151          49.000  
 22  1 17  8 59 26.0000000  0  9G05G07G08G09G13G14G20G27G30
  21471738.137    21471734.045   112834206.16710  87922754.942 0        48.000  
        46.000                                                  
  21409638.439    21409634.526   112508394.593 0  87668851.604 0        47.000  
        44.000                                                  
  24513866.212    24513868.607   128821253.783 0 100380204.887 0        36.000  
        39.000                                                  
  23513730.082    23513728.920   123565459.484 0  96285087.885 0        42.000  
        42.000                                                  
  22372810.673                   117569916.605 0                        47.000  
                                                                
  22005357.446    22005354.104   115639482.965 0  90108240.410 0        45.000  
        47.000                                                  
  20958879.630                   110139629.214 0                        49.000  
                                                                
  24994296.355    24994296.516   131346462.079 0 102347892.552 0        33.000  
        34.000                                                  
  20485809.059    20485807.004   107653652.228 0  83885943.419 0        50.000  
        49.000                                                  
 22  1 17  8 59 25.0000000  0  0
 22  1 17  8 59 26.0000000  0  7E03E05E09E13E15E24E25
  25385374.129                   133400674.509 0                        46.000  
                  25385374.540   102216098.448          51.000  
  23325210.335                   122574805.875 0                        48.000  
                  23325210.299    93920947.679          53.000  
  24122250.778                   126763253.258 0                        44.000  
                  24122251.903    97130278.826          48.000  
  28256505.232                   148488693.57610                        35.000  
                  28256507.466   113777233.001          42.000  
  27765476.757                   145907872.374 0                        37.000  
                  27765479.188   111799527.231          42.000  
  24082782.949                   126556029.325 0                        48.000  
                  24082781.698    96971411.371          52.000  
  25813023.377                   135648363.834 0                        45.000  
                  25813024.735   103938371.582          49.000  
 22  1 17  8 59 27.0000000  0  9G05G07G08G09G13G14G20G27G30
  21471547.689    21471543.597   112833204.94510  87921974.762 0        48.000  
        46.000                                                  
  21409973.841    21409970.017   112510157.211 0  87670225.082 0        47.000  
        44.000                                                  
  24513679.481    24513682.018   128820273.155 0 100379440.771 0        36.000  
        39.000                                                  
  23514302.945    23514301.694   123568469.987 0  96287433.716 0        43.000  
        42.000                                                  
  22372287.594                   117567167.341 0                        47.000  
                                                                
  22004804.739    22004801.558   115636578.770 0  90105977.399 0        45.000  
        47.000                                                  
  20959079.870                   110140681.495 0                        49.000  
                                                                
  24994387.112    24994387.219   131346938.698 0 102348263.923 0        34.000  
        34.000                                                  
  20485875.817    20485873.762   107654003.091 0  83886216.815 0        50.000  
        49.000                                                  
 22  1 17  8 59 26.0000000  0  0
 22  1 17  8 59 27.0000000  0  7E03E05E09E13E15E24E25
  25384973.630                   133398570.533 0                        46.000  
                  25384974.149   102214486.313          51.000  
  23325235.727                   122574939.665 0                        48.000  
                  23325235.852    93921050.194          53.000  
  24122666.322                   126765436.928 0                        44.000  
                  24122667.537    97131952.019          48.000  
  28256489.990                   148488613.56210                        35.000  
                  28256492.188   113777171.683          42.000  
  27765848.022                   145909823.462 0                        37.000  
                  27765850.506   111801022.214          42.000  
  24082719.496                   126555696.148 0                        48.000  
                  24082718.281    96971156.072          52.000  
  25812482.053                   135645519.567 0                        45.000  
                  25812483.411   103936192.206          49.000  
 22  1 17  8 59 28.0000000  0  9G05G07G08G09G13G14G20G27G30
  21471357.276    21471353.256   112832204.81410  87921195.435 0        48.000  
        46.000                                                  
  21410309.421    21410305.561   112511920.533 0  87671599.085 0        47.000  
        44.000                                                  
  24513493.232    24513495.627   128819293.501 0 100378677.404 0        36.000  
        40.000                                                  
  23514875.933    23514874.789   123571481.092 0  96289780.031 0        43.000  
        42.000                                                  
  22371764.567                   117564418.672 0                        47.000  
                                                                
  22004252.247    22004249.048   115633675.427 0  90103715.047 0        45.000  
        47.000                                                  
  20959280.379                   110141734.863 0                        49.000  
                                                                
  24994478.048    24994478.119   131347416.411 0 102348636.185 0        34.000  
        34.000                                                  
  20485942.630    20485940.682   107654354.823 0  83886490.889 0        50.000  
        49.000                                                  
 22  1 17  8 59 27.0000000  0  0
 22  1 17  8 59 28.0000000  0  7E03E05E09E13E15E24E25
  25384573.668                   133396467.138 0                        46.000  
                  25384573.900   102212874.618          51.000  
  23325261.333                   122575074.189 0                        48.000  
                  23325261.404    93921153.270          53.000  
  24123082.063                   126767621.214 0                        44.000  
                  24123083.117    97133625.697          48.000  
  28256475.123                   148488534.45210                        35.000  
                  28256477.107   113777111.086          42.000  
  27766219.394                   145911775.290 0                        37.000  
                  27766221.788   111802517.772          42.000  
  24082656.364                   126555363.862 0                        48.000  
                  24082655.024    96970901.466          52.000  
  25811940.943                   135642675.943 0                        45.000  
                  25811942.284   103934013.334          49.000  
 22  1 17  8 59 29.0000000  0  9G05G07G08G09G13G14G20G27G30
  21471167.150    21471162.951   112831205.25310  87920416.554 0        48.000  
        46.000                                                  
  21410645.019    21410641.106   112513684.036 0  87672973.244 0        47.000  
        45.000                                                  
  24513306.948    24513309.306   128818314.358 0 100377914.389 0        36.000  
        40.000                                                  
  23515449.010    23515447.831   123574492.338 0  96292126.450 0        43.000  
        42.000                                                  
  22371241.577                   117561670.103 0                        47.000  
                                                                
  22003699.808    22003696.663   115630772.401 0  90101452.953 0        45.000  
        47.000                                                  
  20959480.976                   110142788.817 0                        49.000  
                                                                
  24994569.126    24994569.162   131347894.680 0 102349008.844 0        34.000  
        35.000                                                  
  20486009.674    20486007.691   107654706.878 0  83886765.220 0        50.000  
        49.000                                                  
 22  1 17  8 59 28.0000000  0  0
 22  1 17  8 59 29.0000000  0  7E03E05E09E13E15E24E25
  25384173.205                   133394363.767 0                        46.000  
                  25384173.688   102211262.942          51.000  
  23325287.029                   122575208.912 0                        48.000  
                  23325287.011    93921256.500          53.000  
  24123497.839                   126769805.632 0                        44.000  
                  24123498.750    97135299.465          48.000  
  28256460.274                   148488455.79110                        35.000  
                  28256462.257   113777050.802          42.000  
  27766590.837                   145913727.364 0                        37.000  
                  27766593.321   111804013.511          42.000  
  24082593.322                   126555031.985 0                        48.000  
                  24082591.839    96970647.166          52.000  
  25811399.798                   135639832.462 0                        45.000  
                  25811401.156   103931834.575          49.000  
 22  1 17  8 59 30.0000000  0  9G05G07G08G09G13G14G20G27G30
  21470977.041    21470972.949   112830206.07610  87919637.979 0        48.000  
        46.000                                                  
  21410980.653    21410976.615   112515447.517 0  87674347.389 0        47.000  
        45.000                                                  
  24513120.681    24513123.022   128817335.438 0 100377151.631 0        36.000  
        39.000                                                  
  23516022.105    23516020.765   123577503.508 0  96294472.825 0        43.000  
        42.000                                                  
  22370718.515                   117558921.417 0                        47.000  
                                                                
  22003147.351    22003144.260   115627869.495 0  90099190.955 0        45.000  
        47.000                                                  
  20959681.699                   110143843.143 0                        49.000  
                                                                
  24994660.240    24994660.240   131348373.297 0 102349381.813 0        34.000  
        35.000                                                  
  20486076.772    20486074.699   107655059.076 0  83887039.667 0        50.000  
        49.000                                                  
 22  1 17  8 59 29.0000000  0  0
 22  1 17  8 59 30.0000000  0  7E03E05E09E13E15E24E25
  25383772.850                   133392260.237 0                        46.000  
                  25383773.386   102209651.151          51.000  
  23325312.706                   122575343.650 0                        48.000  
                  23325312.724    93921359.745          53.000  
  24123913.615                   126771989.951 0                        44.000  
                  24123914.437    97136973.163          49.000  
  28256445.443                   148488377.31010                        35.000  
                  28256447.355   113776990.667          42.000  
  27766962.209                   145915679.427 0                        37.000  
                  27766964.693   111805509.249          42.000  
  24082530.227                   126554700.295 0                        48.000  
                  24082528.654    96970393.019          52.000  
  25810858.670                   135636988.926 0                        45.000  
                  25810859.993   103929655.766          49.000  
 22  1 17  8 59 31.0000000  0  9G05G07G08G09G13G14G20G27G30
  21470787.040    21470782.912   112829207.68610  87918860.004 0        48.000  
        46.000                                                  
  21411316.341    21411312.195   112517211.369 0  87675721.804 0        47.000  
        45.000                                                  
  24512934.629    24512936.880   128816357.201 0 100376389.367 0        36.000  
        40.000                                                  
  23516595.040    23516593.843   123580514.980 0  96296819.422 0        43.000  
        42.000                                                  
  22370195.524                   117556173.010 0                        47.000  
                                                                
  22002595.020    22002592.018   115624967.117 0  90096929.346 0        45.000  
        47.000                                                  
  20959882.422                   110144898.233 0                        49.000  
                                                                
  24994751.551    24994751.390   131348852.692 0 102349755.324 0        34.000  
        35.000                                                  
  20486143.888    20486141.708   107655411.803 0  83887314.514 0        50.000  
        49.000                                                  
 22  1 17  8 59 30.0000000  0  0
 22  1 17  8 59 31.0000000  0  7E03E05E09E13E15E24E25
  25383372.727                   133390156.953 0                        46.000  
                  25383373.156   102208039.528          51.000  
  23325338.348                   122575478.793 0                        48.000  
                  23325338.456    93921463.294          53.000  
  24124329.213                   126774174.562 0                        44.000  
                  24124330.196    97138647.087          48.000  
  28256430.629                   148488299.45010                        35.000  
                  28256432.595   113776930.984          42.000  
  27767333.778                   145917631.929 0                        37.000  
                  27767336.387   111807005.323          42.000  
  24082466.953                   126554369.196 0                        48.000  
                  24082465.827    96970139.315          52.000  
  25810317.578                   135634145.715 0                        45.000  
                  25810319.079   103927477.204          49.000  
 22  1 17  8 59 32.0000000  0  9G05G07G08G09G13G14G20G27G30
  21470597.235    21470593.161   112828209.95910  87918082.559 0        48.000  
        46.000                                                  
  21411652.117    21411647.740   112518975.492 0  87677096.458 0        47.000  
        45.000                                                  
  24512748.648    24512750.792   128815379.593 0 100375627.571 0        36.000  
        39.000                                                  
  23517168.242    23517166.920   123583526.674 0  96299166.183 0        43.000  
        42.000                                                  
  22369672.408                   117553424.793 0                        47.000  
                                                                
  22002042.742    22002039.758   115622065.138 0  90094668.066 0        45.000  
        47.000                                                  
  20960083.252                   110145953.998 0                        49.000  
                                                                
  24994842.951    24994842.665   131349332.741 0 102350129.384 0        34.000  
        34.000                                                  
  20486211.201    20486208.967   107655764.966 0  83887589.704 0        50.000  
        49.000                                                  
 22  1 17  8 59 31.0000000  0  0
 22  1 17  8 59 32.0000000  0  7E03E05E09E13E15E24E25
  25382972.461                   133388053.784 0                        46.000  
                  25382972.800   102206428.018          51.000  
  23325364.187                   122575614.233 0                        48.000  
                  23325364.258    93921567.068          53.000  
  24124744.990                   126776359.380 0                        44.000  
                  24124745.919    97140321.172          48.000  
  28256416.066                   148488222.07110                        35.000  
                  28256417.853   113776871.705          42.000  
  27767705.561                   145919584.755 0                        37.000  
                  27767708.026   111808501.626          42.000  
  24082404.143                   126554038.566 0                        48.000  
                  24082402.731    96969885.979          52.000  
  25809776.737                   135631302.734 0                        45.000  
                  25809778.023   103925298.829          49.000  
 22  1 17  8 59 33.0000000  0  9G05G07G08G09G13G14G20G27G30
  21470407.466    21470403.374   112827212.75110  87917305.514 0        48.000  
        46.000                                                  
  21411987.859    21411983.498   112520739.733 0  87678471.189 0        47.000  
        45.000                                                  
  24512562.774    24512564.811   128814402.345 0 100374866.116 0        36.000  
        39.000                                                  
  23517741.427    23517740.051   123586538.431 0  96301513.011 0        43.000  
        42.000                                                  
  22369149.418                   117550676.600 0                        46.000  
                                                                
  22001490.518    22001487.587   115619163.424 0  90092406.999 0        45.000  
        47.000                                                  
  20960284.260                   110147010.279 0                        49.000  
                                                                
  24994934.530    24994934.119   131349813.254 0 102350503.814 0        34.000  
        34.000                                                  
  20486278.496    20486276.298   107656118.400 0  83887865.112 0        50.000  
        49.000                                                  
 22  1 17  8 59 32.0000000  0  0
 22  1 17  8 59 33.0000000  0  7E03E05E09E13E15E24E25
  25382572.284                   133385950.601 0                        46.000  
                  25382572.606   102204816.496          51.000  
  23325390.026                   122575749.831 0                        48.000  
                  23325389.990    93921670.970          53.000  
  24125160.873                   126778544.264 0                        44.000  
                  24125161.731    97141995.295          48.000  
  28256401.306                   148488145.02510                        35.000  
                  28256403.039   113776812.669          42.000  
  27768077.075                   145921537.742 0                        37.000  
                  27768079.666   111809998.061          42.000  
  24082341.369                   126553708.282 0                        48.000  
                  24082339.850    96969632.909          52.000  
  25809235.770                   135628459.852 0                        45.000  
                  25809237.056   103923120.517          49.000  
 22  1 17  8 59 34.0000000  0  9G05G07G08G09G13G14G20G27G30
  21470217.822    21470213.587   112826216.26210  87916529.017 0        48.000  
        46.000                                                  
  21412323.689    21412319.204   112522504.290 0  87679846.162 0        47.000  
        45.000                                                  
  24512376.936    24512378.938   128813425.708 0 100374105.088 0        36.000  
        39.000                                                  
  23518314.612    23518313.200   123589550.431 0  96303860.031 0        43.000  
        42.000                                                  
  22368626.552                   117547928.633 0                        46.000  
                                                                
  22000938.454    22000935.434   115616262.170 0  90090146.272 0        45.000  
        47.000                                                  
  20960485.323                   110148067.288 0                        49.000  
                                                                
  24995026.180    24995025.697   131350294.504 0 102350878.775 0        33.000  
        34.000                                                  
  20486345.862    20486343.664   107656472.309 0  83888140.876 0        50.000  
        49.000                                                  
 22  1 17  8 59 33.0000000  0  0
 22  1 17  8 59 34.0000000  0  7E03E05E09E13E15E24E25
  25382171.946                   133383847.599 0                        46.000  
                  25382172.357   102203205.092          51.000  
  23325415.918                   122575885.775 0                        48.000  
                  23325415.936    93921775.131          53.000  
  24125576.703                   126780729.378 0                        44.000  
                  24125577.525    97143669.601          49.000  
  28256386.761                   148488068.55310                        35.000  
                  28256388.530   113776754.056          42.000  
  27768448.840                   145923491.066 0                        37.000  
                  27768451.253   111811494.767          42.000  
  24082278.631                   126553378.517 0                        48.000  
                  24082277.202    96969380.219          52.000  
  25808694.892                   135625617.234 0                        45.000  
                  25808696.072   103920942.405          49.000  
 22  1 17  8 59 35.0000000  0  9G05G07G08G09G13G14G20G27G30
  21470028.357    21470024.122   112825220.64510  87915753.212 0        48.000  
        46.000                                                  
  21412659.519    21412655.088   112524269.328 0  87681221.514 0        47.000  
        45.000                                                  
  24512191.277    24512193.404   128812449.857 0 100373344.676 0        36.000  
        39.000                                                  
  23518887.814    23518886.313   123592562.868 0  96306207.385 0        43.000  
        42.000                                                  
  22368103.740                   117545181.053 0                        46.000  
                                                                
  22000386.444    22000383.514   115613361.541 0  90087886.049 0        45.000  
        47.000                                                  
  20960686.599                   110149125.171 0                        49.000  
                                                                
  24995118.080    24995117.437   131350776.560 0 102351254.424 0        34.000  
        34.000                                                  
  20486413.335    20486411.084   107656826.870 0  83888417.164 0        50.000  
        49.000                                                  
 22  1 17  8 59 34.0000000  0  0
 22  1 17  8 59 35.0000000  0  7E03E05E09E13E15E24E25
  25381771.877                   133381744.946 0                        46.000  
                  25381772.270   102201593.964          51.000  
  23325441.917                   122576022.227 0                        48.000  
                  23325441.864    93921879.685          53.000  
  24125992.587                   126782914.908 0                        44.000  
                  24125993.445    97145344.232          48.000  
  28256372.394                   148487992.78210                        35.000  
                  28256374.110   113776695.991          42.000  
  27768820.588                   145925444.936 0                        37.000  
                  27768823.161   111812991.883          42.000  
  24082215.947                   126553049.454 0                        48.000  
                  24082214.517    96969128.082          52.000  
  25808154.086                   135622775.056 0                        45.000  
                  25808155.302   103918764.642          49.000  
 22  1 17  8 59 36.0000000  0  9G05G07G08G09G13G14G20G27G30
  21469839.035    21469834.675   112824225.49710  87914977.770 0        48.000  
        46.000                                                  
  21412995.403    21412990.972   112526034.431 0  87682596.923 0        47.000  
        44.000                                                  
  24512005.636    24512007.745   128811474.385 0 100372584.561 0        36.000  
        39.000                                                  
  23519461.070    23519459.534   123595575.305 0  96308554.738 0        43.000  
        42.000                                                  
  22367580.929                   117542433.453 0                        46.000  
                                                                
  21999834.506    21999831.665   115610461.120 0  90085625.969 0        45.000  
        47.000                                                  
  20960887.930                   110150183.515 0                        49.000  
                                                                
  24995209.945    24995209.212   131351259.072 0 102351630.384 0        34.000  
        34.000                                                  
  20486480.898    20486478.629   107657181.648 0  83888693.605 0        50.000  
        49.000                                                  
 22  1 17  8 59 35.0000000  0  0
 22  1 17  8 59 36.0000000  0  7E03E05E09E13E15E24E25
  25381371.718                   133379642.211 0                        46.000  
                  25381372.218   102199982.782          51.000  
  23325467.702                   122576158.787 0                        48.000  
                  23325467.827    93921984.322          53.000  
  24126408.292                   126785100.444 0                        44.000  
                  24126409.292    97147018.855          48.000  
  28256358.081                   148487917.30010                        35.000  
                  28256359.725   113776638.140          42.000  
  27769192.496                   145927398.915 0                        37.000  
                  27769194.962   111814489.072          42.000  
  24082153.280                   126552720.687 0                        48.000  
                  24082151.993    96968876.172          52.000  
  25807613.263                   135619932.926 0                        45.000  
                  25807614.442   103916586.903          49.000  
 22  1 17  8 59 37.0000000  0  9G05G07G08G09G13G14G20G27G30
  21469649.784    21469645.478   112823230.92810  87914202.778 0        48.000  
        46.000                                                  
  21413331.305    21413326.927   112527799.713 0  87683972.461 0        47.000  
        45.000                                                  
  24511820.173    24511822.264   128810499.382 0 100371824.830 0        36.000  
        39.000                                                  
  23520034.291    23520032.915   123598587.869 0  96310902.195 0        43.000  
        42.000                                                  
  22367058.063                   117539685.935 0                        46.000  
                                                                
  21999282.675    21999279.727   115607561.043 0  90083366.164 0        45.000  
        47.000                                                  
  20961089.349                   110151242.440 0                        49.000  
                                                                
  24995301.952    24995301.184   131351742.179 0 102352006.851 0        34.000  
        34.000                                                  
  20486548.336    20486546.263   107657536.760 0  83888970.323 0        50.000  
        49.000                                                  
 22  1 17  8 59 36.0000000  0  0
 22  1 17  8 59 37.0000000  0  7E03E05E09E13E15E24E25
  25380971.613                   133377539.529 0                        46.000  
                  25380972.006   102198371.632          51.000  
  23325493.666                   122576295.544 0                        48.000  
                  23325493.880    93922089.116          53.000  
  24126824.318                   126787286.083 0                        44.000  
                  24126825.212    97148693.565          48.000  
  28256343.911                   148487842.23610                        35.000  
                  28256345.376   113776580.595          41.000  
  27769564.421                   145929353.120 0                        37.000  
                  27769566.887   111815986.461          42.000  
  24082090.899                   126552392.290 0                        48.000  
                  24082089.452    96968624.545          52.000  
  25807072.492                   135617090.921 0                        45.000  
                  25807073.618   103914409.270          49.000  
 22  1 17  8 59 38.0000000  0  9G05G07G08G09G13G14G20G27G30
  21469460.605    21469456.352   112822236.99810  87913428.294 0        48.000  
        46.000                                                  
  21413667.296    21413662.865   112529565.227 0  87685348.186 0        47.000  
        45.000                                                  
  24511634.729    24511636.873   128809524.916 0 100371065.490 0        35.000  
        39.000                                                  
  23520607.654    23520606.260   123601600.620 0  96313249.796 0        43.000  
        42.000                                                  
  22366535.073                   117536938.578 0                        46.000  
                                                                
  21998730.790    21998727.949   115604661.332 0  90081106.648 0        45.000  
        47.000                                                  
  20961291.001                   110152302.002 0                        49.000  
                                                                
  24995394.085    24995393.227   131352225.884 0 102352383.751 0        34.000  
        34.000                                                  
  20486615.988    20486613.879   107657892.274 0  83889247.351 0        50.000  
        49.000                                                  
 22  1 17  8 59 37.0000000  0  0
 22  1 17  8 59 38.0000000  0  7E03E05E09E13E15E24E25
  25380571.400                   133375436.938 0                        46.000  
                  25380571.775   102196760.556          51.000  
  23325519.844                   122576432.580 0                        48.000  
                  23325520.005    93922194.122          53.000  
  24127240.256                   126789471.895 0                        44.000  
                  24127241.185    97150368.412          48.000  
  28256329.741                   148487767.59610                        35.000  
                  28256331.295   113776523.434          42.000  
  27769936.490                   145931307.600 0                        37.000  
                  27769938.742   111817484.034          42.000  
  24082028.340                   126552064.377 0                        48.000  
                  24082027.053    96968373.285          52.000  
  25806531.686                   135614249.128 0                        45.000  
                  25806532.723   103912231.801          49.000  
 22  1 17  8 59 39.0000000  0  9G05G07G08G09G13G14G20G27G30
  21469271.693    21469267.369   112821243.90110  87912654.432 0        48.000  
        46.000                                                  
  21414003.323    21413998.874   112531331.163 0  87686724.254 0        47.000  
        45.000                                                  
  24511449.463    24511451.553   128808551.143 0 100370306.731 0        35.000  
        39.000                                                  
  23521181.017    23521179.713   123604613.729 0  96315597.677 0        43.000  
        42.000                                                  
  22366012.368                   117534191.547 0                        46.000  
                                                                
  21998179.066    21998176.225   115601762.180 0  90078847.567 0        45.000  
        47.000                                                  
  20961492.743                   110153362.383 0                        49.000  
                                                                
  24995486.414    24995485.432   131352710.391 0 102352761.298 0        34.000  
        34.000                                                  
  20486683.872    20486681.549   107658248.364 0  83889524.821 0        50.000  
        49.000                                                  
 22  1 17  8 59 38.0000000  0  0
 22  1 17  8 59 39.0000000  0  7E03E05E09E13E15E24E25
  25380171.491                   133373334.626 0                        46.000  
                  25380171.902   102195149.693          51.000  
  23325546.129                   122576570.074 0                        48.000  
                  23325546.058    93922299.466          53.000  
  24127656.354                   126791658.056 0                        44.000  
                  24127657.229    97152043.514          48.000  
  28256315.714                   148487693.62110                        35.000  
                  28256317.143   113776466.746          41.000  
  27770308.523                   145933262.545 0                        37.000  
                  27770310.721   111818981.979          42.000  
  24081966.245                   126551737.072 0                        48.000  
                  24081964.851    96968122.492          52.000  
  25805991.166                   135611407.699 0                        45.000  
                  25805992.113   103910054.604          49.000  
 22  1 17  8 59 40.0000000  0  9G05G07G08G09G13G14G20G27G30
  21469082.889    21469078.529   112820251.44710  87911881.105 0        48.000  
        46.000                                                  
  21414339.440    21414334.973   112533097.361 0  87688100.503 0        47.000  
        45.000                                                  
  24511264.286    24511266.323   128807577.965 0 100369548.388 0        35.000  
        39.000                                                  
  23521754.381    23521753.166   123607627.038 0  96317945.703 0        43.000  
        42.000                                                  
  22365489.663                   117531444.683 0                        46.000  
                                                                
  21997627.485    21997624.501   115598863.438 0  90076588.805 0        45.000  
        47.000                                                  
  20961694.770                   110154423.423 0                        49.000  
                                                                
  24995578.922    24995577.654   131353195.538 0 102353139.337 0        34.000  
        34.000                                                  
  20486751.685    20486749.452   107658604.870 0  83889802.618 0        50.000  
        49.000                                                  
 22  1 17  8 59 39.0000000  0  0
 22  1 17  8 59 40.0000000  0  7E03E05E09E13E15E24E25
  25379771.422                   133371232.443 0                        46.000  
                  25379771.708   102193538.923          51.000  
  23325572.379                   122576707.855 0                        48.000  
                  23325572.379    93922405.034          53.000  
  24128072.470                   126793844.402 0                        44.000  
                  24128073.238    97153718.764          48.000  
  28256301.829                   148487620.12510                        35.000  
                  28256303.223   113776410.424          41.000  
  27770680.717                   145935217.779 0                        37.000  
                  27770682.861   111820480.161          42.000  
  24081903.971                   126551410.248 0                        48.000  
                  24081902.577    96967872.066          52.000  
  25805450.485                   135608566.492 0                        45.000  
                  25805451.468   103907877.589          49.000  
 22  1 17  8 59 41.0000000  0  9G05G07G08G09G13G14G20G27G30
  21468894.067    21468889.779   112819259.51810  87911108.164 0        48.000  
        46.000                                                  
  21414675.520    21414671.017   112534863.670 0  87689476.848 0        47.000  
        45.000                                                  
  24511079.056    24511081.146   128806605.166 0 100368790.369 0        36.000  
        39.000                                                  
  23522327.744    23522326.600   123610640.417 0  96320293.784 0        43.000  
        42.000                                                  
  22364966.959                   117528697.846 0                        46.000  
                                                                
  21997075.940    21997072.992   115595964.945 0  90074330.244 0        45.000  
        47.000                                                  
  20961896.672                   110155484.969 0                        49.000  
                                                                
  24995671.484    24995670.090   131353681.192 0 102353517.757 0        34.000  
        35.000                                                  
  20486819.552    20486817.300   107658961.649 0  83890080.635 0        50.000  
        49.000                                                  
 22  1 17  8 59 40.0000000  0  0
 22  1 17  8 59 41.0000000  0  7E03E05E09E13E15E24E25
  25379371.352                   133369130.222 0                        46.000  
                  25379371.710   102191928.132          51.000  
  23325598.539                   122576845.765 0                        48.000  
                  23325598.629    93922510.721          53.000  
  24128488.586                   126796030.807 0                        44.000  
                  24128489.336    97155394.056          48.000  
  28256287.749                   148487546.95510                        35.000  
                  28256289.375   113776354.376          41.000  
  27771052.625                   145937173.202 0                        37.000  
                  27771054.984   111821978.456          42.000  
  24081841.894                   126551083.743 0                        48.000  
                  24081840.500    96967621.892          52.000  
  25804909.626                   135605725.374 0                        45.000  
                  25804910.895   103905700.626          49.000  
 22  1 17  8 59 42.0000000  0  9G05G07G08G09G13G14G20G27G30
  21468705.460    21468701.171   112818268.22610  87910335.729 0        48.000  
        46.000                                                  
  21415011.601    21415007.044   112536630.220 0  87690853.384 0        47.000  
        45.000                                                  
  24510894.111    24510896.184   128805632.919 0 100368032.767 0        36.000  
        39.000                                                  
  23522901.107    23522900.053   123613653.958 0  96322642.007 0        43.000  
        42.000                                                  
  22364444.254                   117525951.161 0                        46.000  
                                                                
  21996524.484    21996521.643   115593066.843 0  90072071.975 0        45.000  
        47.000                                                  
  20962098.788                   110156547.160 0                        49.000  
                                                                
  24995764.028    24995762.670   131354167.427 0 102353896.635 0        35.000  
        35.000                                                  
  20486887.543    20486885.381   107659318.830 0  83890358.955 0        50.000  
        49.000                                                  
 22  1 17  8 59 41.0000000  0  0
 22  1 17  8 59 42.0000000  0  7E03E05E09E13E15E24E25
  25378971.211                   133367028.109 0                        46.000  
                  25378971.658   102190317.422          50.000  
  23325624.914                   122576983.960 0                        48.000  
                  23325624.825    93922616.599          53.000  
  24128904.666                   126798217.358 0                        44.000  
                  24128905.220    97157069.468          48.000  
  28256274.150                   148487474.28610                        35.000  
                  28256275.687   113776298.672          41.000  
  27771424.908                   145939128.880 0                        37.000  
                  27771427.213   111823476.965          42.000  
  24081779.853                   126550757.700 0                        47.000  
                  24081778.406    96967372.064          52.000  
  25804369.070                   135602884.446 0                        45.000  
                  25804370.285   103903523.823          49.000  
 22  1 17  8 59 43.0000000  0  9G05G07G08G09G13G14G20G27G30
  21468516.995    21468512.689   112817277.77110  87909563.943 0        48.000  
        46.000                                                  
  21415347.789    21415343.411   112538397.198 0  87692230.257 0        47.000  
        45.000                                                  
  24510709.238    24510711.400   128804661.399 0 100367275.764 0        36.000  
        40.000                                                  
  23523474.632    23523473.595   123616667.877 0  96324990.524 0        43.000  
        42.000                                                  
  22363921.621                   117523204.828 0                        46.000  
                                                                
  21995973.189    21995970.223   115590169.327 0  90069814.171 0        45.000  
        47.000                                                  
  20962301.083                   110157610.187 0                        49.000  
                                                                
  24995856.875    24995855.392   131354654.525 0 102354276.214 0        35.000  
        35.000                                                  
  20486955.607    20486953.444   107659676.616 0  83890637.743 0        50.000  
        49.000                                                  
 22  1 17  8 59 42.0000000  0  0
 22  1 17  8 59 43.0000000  0  7E03E05E09E13E15E24E25
  25378571.481                   133364926.296 0                        46.000  
                  25378571.749   102188706.944          50.000  
  23325651.485                   122577122.627 0                        48.000  
                  23325651.306    93922722.853          53.000  
  24129320.853                   126800404.294 0                        44.000  
                  24129321.461    97158745.170          48.000  
  28256260.463                   148487402.28610                        35.000  
                  28256261.910   113776243.495          41.000  
  27771797.102                   145941085.068 0                        37.000  
                  27771799.372   111824975.856          42.000  
  24081718.008                   126550432.310 0                        48.000  
                  24081716.472    96967122.738          52.000  
  25803828.478                   135600043.933 0                        45.000  
                  25803829.676   103901347.330          49.000  
 22  1 17  8 59 44.0000000  0  9G05G07G08G09G13G14G20G27G30
  21468328.602    21468324.313   112816287.88810  87908792.603 0        48.000  
        46.000                                                  
  21415684.084    21415679.634   112540164.355 0  87693607.251 0        47.000  
        45.000                                                  
  24510524.437    24510526.671   128803690.320 0 100366519.081 0        36.000  
        40.000                                                  
  23524048.191    23524047.209   123619681.925 0  96327339.113 0        43.000  
        42.000                                                  
  22363398.952                   117520458.569 0                        46.000  
                                                                
  21995421.858    21995418.856   115587272.117 0  90067556.605 0        45.000  
        47.000                                                  
  20962503.432                   110158673.778 0                        49.000  
                                                                
  24995949.830    24995948.221   131355142.169 0 102354656.116 0        35.000  
        35.000                                                  
  20487023.741    20487021.543   107660034.712 0  83890916.783 0        50.000  
        49.000                                                  
 22  1 17  8 59 43.0000000  0  0
 22  1 17  8 59 44.0000000  0  7E03E05E09E13E15E24E25
  25378171.519                   133362824.518 0                        46.000  
                  25378171.733   102187096.484          50.000  
  23325677.735                   122577261.491 0                        48.000  
                  23325677.699    93922829.251          53.000  
  24129736.933                   126802591.324 0                        44.000  
                  24129737.755    97160420.951          48.000  
  28256246.721                   148487330.65410                        35.000  
                  28256248.419   113776188.601          41.000  
  27772169.457                   145943041.456 0                        37.000  
                  27772171.691   111826474.895          42.000  
  24081656.217                   126550107.291 0                        48.000  
                  24081654.645    96966873.702          52.000  
  25803287.958                   135597203.533 0                        45.000  
                  25803289.066   103899170.929          49.000  
 22  1 17  8 59 45.0000000  0  9G05G07G08G09G13G14G20G27G30
  21468140.405    21468136.153   112815298.70010  87908021.801 0        48.000  
        46.000                                                  
  21416020.468    21416016.072   112541931.794 0  87694984.479 0        47.000  
        45.000                                                  
  24510339.743    24510342.030   128802719.901 0 100365762.887 0        35.000  
        40.000                                                  
  23524621.751    23524620.822   123622696.194 0  96329687.889 0        43.000  
        43.000                                                  
  22362876.479                   117517712.503 0                        46.000  
                                                                
  21994870.688    21994867.615   115584375.341 0  90065299.379 0        45.000  
        47.000                                                  
  20962705.906                   110159738.062 0                        49.000  
                                                                
  24996042.856    24996041.265   131355630.428 0 102355036.638 0        35.000  
        35.000                                                  
  20487091.947    20487089.749   107660393.258 0  83891196.170 0        50.000  
        49.000                                                  
 22  1 17  8 59 44.0000000  0  0
 22  1 17  8 59 45.0000000  0  7E03E05E09E13E15E24E25
  25377771.556                   133360722.883 0                        46.000  
                  25377771.860   102185486.147          50.000  
  23325704.217                   122577400.675 0                        48.000  
                  23325704.163    93922935.901          53.000  
  24130153.228                   126804778.579 0                        44.000  
                  24130153.836    97162096.895          48.000  
  28256233.212                   148487259.54910                        35.000  
                  28256234.910   113776134.127          41.000  
  27772541.794                   145944998.167 0                        37.000  
                  27772544.063   111827974.202          42.000  
  24081594.444                   126549782.782 0                        48.000  
                  24081592.907    96966625.050          52.000  
  25802747.420                   135594363.395 0                        45.000  
                  25802748.618   103896994.724          49.000  
 22  1 17  8 59 46.0000000  0  9G05G07G08G09G13G14G20G27G30
  21467952.298    21467948.081   112814310.09310  87907251.458 0        48.000  
        46.000                                                  
  21416356.745    21416352.439   112543699.415 0  87696361.848 0        47.000  
        45.000                                                  
  24510155.245    24510157.407   128801749.966 0 100365007.101 0        36.000  
        40.000                                                  
  23525195.383    23525194.454   123625710.600 0  96332036.768 0        43.000  
        42.000                                                  
  22362353.918                   117514966.552 0                        46.000  
                                                                
  21994319.554    21994316.373   115581478.894 0  90063042.407 0        45.000  
        47.000                                                  
  20962908.559                   110160802.929 0                        49.000  
                                                                
  24996136.025    24996134.417   131356119.278 0 102355417.546 0        35.000  
        35.000                                                  
  20487160.261    20487158.027   107660752.158 0  83891475.830 0        50.000  
        49.000                                                  
 22  1 17  8 59 45.0000000  0  0
 22  1 17  8 59 46.0000000  0  7E03E05E09E13E15E24E25
  25377371.505                   133358621.308 0                        46.000  
                  25377371.934   102183875.840          50.000  
  23325730.895                   122577540.076 0                        48.000  
                  23325730.698    93923042.717          53.000  
  24130569.415                   126806965.950 0                        44.000  
                  24130570.112    97163772.932          48.000  
  28256219.775                   148487188.85510                        35.000  
                  28256221.508   113776079.939          41.000  
  27772914.184                   145946955.095 0                        37.000  
                  27772916.364   111829473.682          42.000  
  24081532.653                   126549458.672 0                        48.000  
                  24081531.295    96966376.708          52.000  
  25802207.079                   135591523.407 0                        45.000  
                  25802208.276   103894818.631          49.000  
 22  1 17  8 59 47.0000000  0  9G05G07G08G09G13G14G20G27G30
  21467764.352    21467760.063   112813322.17610  87906481.643 0        48.000  
        46.000                                                  
  21416693.201    21416688.823   112545467.314 0  87697739.434 0        48.000  
        45.000                                                  
  24509970.837    24509973.052   128800780.577 0 100364251.760 0        35.000  
        40.000                                                  
  23525768.943    23525768.139   123628725.220 0  96334385.830 0        42.000  
        42.000                                                  
  22361831.445                   117512220.780 0                        46.000  
                                                                
  21993768.420    21993765.364   115578582.883 0  90060785.762 0        45.000  
        47.000                                                  
  20963111.408                   110161868.471 0                        49.000  
                                                                
  24996229.391    24996227.621   131356608.803 0 102355798.987 0        35.000  
        35.000                                                  
  20487228.610    20487226.376   107661111.487 0  83891755.829 0        50.000  
        49.000                                                  
 22  1 17  8 59 46.0000000  0  0
 22  1 17  8 59 47.0000000  0  7E03E05E09E13E15E24E25
  25376971.525                   133356519.867 0                        46.000  
                  25376972.025   102182265.650          50.000  
  23325757.502                   122577679.794 0                        48.000  
                  23325757.305    93923149.780          53.000  
  24130985.639                   126809153.525 0                        44.000  
                  24130986.407    97165449.129          48.000  
  28256206.570                   148487118.64810                        35.000  
                  28256207.928   113776026.162          41.000  
  27773286.664                   145948912.384 0                        37.000  
                  27773288.862   111830973.411          42.000  
  24081471.130                   126549135.070 0                        48.000  
                  24081469.700    96966128.751          52.000  
  25801666.648                   135588683.659 0                        45.000  
                  25801667.935   103892642.727          49.000  
 22  1 17  8 59 48.0000000  0  9G05G07G08G09G13G14G20G27G30
  21467576.531    21467572.313   112812334.98910  87905712.407 0        48.000  
        46.000                                                  
  21417029.675    21417025.458   112547235.548 0  87699117.274 0        47.000  
        45.000                                                  
  24509786.518    24509788.644   128799811.854 0 100363496.895 0        36.000  
        40.000                                                  
  23526342.681    23526341.913   123631740.114 0  96336735.099 0        42.000  
        42.000                                                  
  22361309.027                   117509475.248 0                        46.000  
                                                                
  21993217.428    21993214.319   115575687.340 0  90058529.490 0        46.000  
        47.000                                                  
  20963314.364                   110162934.750 0                        49.000  
                                                                
  24996322.828    24996320.951   131357099.014 0 102356180.968 0        35.000  
        35.000                                                  
  20487296.959    20487294.904   107661471.307 0  83892036.208 0        50.000  
        49.000                                                  
 22  1 17  8 59 47.0000000  0  0
 22  1 17  8 59 48.0000000  0  7E03E05E09E13E15E24E25
  25376571.759                   133354418.617 0                        46.000  
                  25376572.098   102180655.597          50.000  
  23325784.091                   122577819.870 0                        48.000  
                  23325784.038    93923257.102          53.000  
  24131402.183                   126811341.368 0                        44.000  
                  24131402.702    97167125.523          48.000  
  28256193.454                   148487049.03510                        35.000  
                  28256194.722   113775972.794          41.000  
  27773659.376                   145950870.048 0                        37.000  
                  27773661.467   111832473.415          42.000  
  24081409.714                   126548811.990 0                        48.000  
                  24081408.195    96965881.198          52.000  
  25801126.396                   135585844.192 0                        45.000  
                  25801127.433   103890467.041          49.000  
 22  1 17  8 59 49.0000000  0  9G05G07G08G09G13G14G20G27G30
  21467388.799    21467384.582   112811348.49210  87904943.705 0        48.000  
        46.000                                                  
  21417366.238    21417361.914   112549004.076 0  87700495.343 0        48.000  
        45.000                                                  
  24509602.324    24509604.307   128798843.712 0 100362742.508 0        36.000  
        39.000                                                  
  23526916.456    23526915.651   123634755.254 0  96339084.559 0        42.000  
        42.000                                                  
  22360786.519                   117506729.919 0                        46.000  
                                                                
  21992666.544    21992663.506   115572792.234 0  90056273.581 0        46.000  
        47.000                                                  
  20963517.285                   110164001.710 0                        49.000  
                                                                
  24996416.390    24996414.335   131357589.945 0 102356563.520 0        36.000  
        35.000                                                  
  20487365.576    20487363.396   107661831.586 0  83892316.943 0        50.000  
        49.000                                                  
 22  1 17  8 59 48.0000000  0  0
 22  1 17  8 59 49.0000000  0  7E03E05E09E13E15E24E25
  25376172.064                   133352317.534 0                        46.000  
                  25376172.279   102179045.676          50.000  
  23325810.877                   122577960.277 0                        48.000  
                  23325810.627    93923364.689          53.000  
  24131818.550                   126813529.436 0                        44.000  
                  24131819.103    97168802.095          48.000  
  28256180.374                   148486979.92510                        35.000  
                  28256181.410   113775919.854          41.000  
  27774031.981                   145952828.024 0                        37.000  
                  27774033.911   111833973.682          42.000  
  24081348.263                   126548489.436 0                        48.000  
                  24081346.762    96965634.046          52.000  
  25800585.930                   135583005.011 0                        45.000  
                  25800587.145   103888291.564          49.000  
 22  1 17  8 59 50.0000000  0  9G05G07G08G09G13G14G20G27G30
  21467201.156    21467196.939   112810362.35610  87904175.290 0        48.000  
        46.000                                                  
  21417702.819    21417698.405   112550772.571 0  87701873.394 0        47.000  
        45.000                                                  
  24509418.058    24509420.203   128797875.831 0 100361988.308 0        36.000  
        39.000                                                  
  23527490.194    23527489.319   123637770.291 0  96341433.929 0        42.000  
        43.000                                                  
  22360263.993                   117503984.458 0                        46.000  
                                                                
  21992115.803    21992112.569   115569897.239 0  90054017.732 0        46.000  
        47.000                                                  
  20963720.438                   110165069.036 0                        48.000  
                                                                
  24996509.898    24996507.772   131358081.201 0 102356946.285 0        36.000  
        36.000                                                  
  20487434.139    20487431.959   107662191.981 0  83892597.774 0        50.000  
        49.000                                                  
 22  1 17  8 59 49.0000000  0  0
 22  1 17  8 59 50.0000000  0  7E03E05E09E13E15E24E25
  25375772.102                   133350216.264 0                        46.000  
                  25375772.406   102177435.612          50.000  
  23325837.466                   122578100.679 0                        48.000  
                  23325837.341    93923472.267          53.000  
  24132234.862                   126815717.402 0                        44.000  
                  24132235.416    97170478.586          48.000  
  28256167.383                   148486911.00710                        35.000  
                  28256168.312   113775867.046          41.000  
  27774404.782                   145954786.017 0                        37.000  
                  27774406.659   111835473.978          42.000  
  24081286.918                   126548167.054 0                        48.000  
                  24081285.507    96965387.024          52.000  
  25800045.731                   135580165.727 0                        45.000  
                  25800046.911   103886116.020          49.000  
 22  1 17  8 59 51.0000000  0  9G05G07G08G09G13G14G20G27G30
  21467013.781    21467009.404   112809377.17110  87903407.611 0        48.000  
        46.000                                                  
  21418039.489    21418035.058   112552541.621 0  87703251.876 0        47.000  
        45.000                                                  
  24509234.150    24509236.205   128796908.810 0 100361234.780 0        36.000  
        39.000                                                  
  23528063.986    23528063.182   123640785.818 0  96343783.693 0        42.000  
        42.000                                                  
  22359741.663                   117501239.469 0                        46.000  
                                                                
  21991565.080    21991561.756   115567002.943 0  90051762.434 0        46.000  
        47.000                                                  
  20963923.716                   110166137.319 0                        48.000  
                                                                
  24996603.586    24996601.477   131358573.366 0 102357329.781 0        36.000  
        35.000                                                  
  20487502.863    20487500.719   107662553.079 0  83892879.150 0        50.000  
        49.000                                                  
 22  1 17  8 59 50.0000000  0  0
 22  1 17  8 59 51.0000000  0  7E03E05E09E13E15E24E25
  25375372.372                   133348115.428 0                        46.000  
                  25375372.640   102175825.871          50.000  
  23325864.323                   122578241.662 0                        48.000  
                  23325864.287    93923580.295          53.000  
  24132651.300                   126817905.849 0                        44.000  
                  24132651.907    97172155.448          48.000  
  28256154.571                   148486842.89210                        35.000  
                  28256155.160   113775814.832          41.000  
  27774777.691                   145956744.597 0                        38.000  
                  27774779.442   111836974.706          42.000  
  24081225.842                   126547845.442 0                        48.000  
                  24081224.216    96965140.596          52.000  
  25799505.390                   135577326.982 0                        45.000  
                  25799506.694   103883940.878          49.000  
 22  1 17  8 59 52.0010000  0  9G05G07G08G09G13G14G20G27G30
  21466826.264    21466821.797   112808391.34810  87902639.429 0        48.000  
        46.000                                                  
  21418376.356    21418372.049   112554312.370 0  87704631.692 0        47.000  
        45.000                                                  
  24509050.171    24509052.012   128795941.029 0 100360480.642 0        36.000  
        39.000                                                  
  23528638.297    23528637.528   123643804.253 0  96346135.714 0        42.000  
        42.000                                                  
  22359218.708                   117498491.584 0                        46.000  
                                                                
  21991013.767    21991010.425   115564105.844 0  90049504.945 0        46.000  
        47.000                                                  
  20964127.298                   110167206.993 0                        48.000  
                                                                
  24996697.416    24996695.325   131359066.368 0 102357713.957 0        36.000  
        35.000                                                  
  20487571.552    20487569.550   107662914.662 0  83893160.896 0        50.000  
        49.000                                                  
 22  1 17  8 59 51.0000000  0  0
 22  1 17  8 59 52.0010000  0  7E03E05E09E13E15E24E25
  25374972.088                   133346012.267 0                        46.000  
                  25374972.356   102174214.361          50.000  
  23325891.270                   122578382.747 0                        48.000  
                  23325891.091    93923688.402          53.000  
  24133068.148                   126820096.341 0                        44.000  
                  24133068.827    97173833.880          48.000  
  28256141.562                   148486774.80710                        35.000  
                  28256142.313   113775762.684          41.000  
  27775150.814                   145958705.134 0                        38.000  
                  27775152.547   111838476.918          42.000  
  24081164.587                   126547523.650 0                        48.000  
                  24081162.943    96964894.026          52.000  
  25798964.655                   135574485.280 0                        45.000  
                  25798965.924   103881763.474          49.000  
 22  1 17  8 59 53.0010000  0  9G05G07G08G09G13G14G20G27G30
  21466638.997    21466634.565   112807407.41010  87901872.719 0        48.000  
        46.000                                                  
  21418713.080    21418708.738   112556081.877 0  87706010.515 0        47.000  
        45.000                                                  
  24508866.477    24508868.336   128794974.991 0 100359727.908 0        36.000  
        39.000                                                  
  23529212.250    23529211.428   123646820.133 0  96348485.741 0        42.000  
        43.000                                                  
  22358696.361                   117495746.869 0                        46.000  
                                                                
  21990463.133    21990459.756   115561212.287 0  90047250.230 0        46.000  
        47.000                                                  
  20964330.754                   110168276.520 0                        48.000  
                                                                
  24996791.425    24996789.191   131359559.752 0 102358098.387 0        36.000  
        35.000                                                  
  20487640.365    20487638.382   107663276.529 0  83893442.875 0        50.000  
        49.000                                                  
 22  1 17  8 59 52.0000000  0  0
 22  1 17  8 59 53.0010000  0  7E03E05E09E13E15E24E25
  25374572.430                   133343911.590 0                        46.000  
                  25374572.662   102172604.751          50.000  
  23325918.109                   122578524.252 0                        48.000  
                  23325918.019    93923796.823          53.000  
  24133484.514                   126822285.100 0                        44.000  
                  24133485.247    97175510.980          48.000  
  28256129.089                   148486707.60010                        35.000  
                  28256129.554   113775711.171          41.000  
  27775523.669                   145960664.266 0                        38.000  
                  27775525.349   111839978.071          42.000  
  24081103.457                   126547202.915 0                        48.000  
                  24081102.027    96964648.273          52.000  
  25798424.511                   135571646.900 0                        45.000  
                  25798425.869   103879588.616          49.000  
 22  1 17  8 59 54.0010000  0  9G05G07G08G09G13G14G20G27G30
  21466451.997    21466447.423   112806424.28810  87901106.656 0        48.000  
        46.000                                                  
  21419049.893    21419045.461   112557851.781 0  87707389.666 0        47.000  
        45.000                                                  
  24508682.641    24508684.589   128794009.713 0 100358975.744 0        36.000  
        39.000                                                  
  23529786.203    23529785.399   123649836.332 0  96350836.042 0        42.000  
        43.000                                                  
  22358174.121                   117493002.476 0                        46.000  
                                                                
  21989912.552    21989909.139   115558319.282 0  90044995.936 0        46.000  
        47.000                                                  
  20964534.425                   110169346.857 0                        48.000  
                                                                
  24996885.630    24996883.325   131360053.945 0 102358483.468 0        36.000  
        35.000                                                  
  20487709.429    20487707.249   107663638.978 0  83893725.304 0        50.000  
        49.000                                                  
 22  1 17  8 59 53.0000000  0  0
 22  1 17  8 59 54.0010000  0  7E03E05E09E13E15E24E25
  25374172.574                   133341811.188 0                        46.000  
                  25374173.021   102170995.357          50.000  
  23325945.252                   122578666.188 0                        48.000  
                  23325944.984    93923905.584          53.000  
  24133901.023                   126824474.198 0                        44.000  
                  24133901.810    97177188.341          48.000  
  28256116.456                   148486640.99110                        35.000  
                  28256116.903   113775660.137          41.000  
  27775896.613                   145962623.835 0                        38.000  
                  27775898.275   111841479.568          42.000  
  24081042.613                   126546882.802 0                        48.000  
                  24081041.040    96964402.991          52.000  
  25797884.562                   135568808.898 0                        45.000  
                  25797885.742   103877414.043          49.000  
 22  1 17  8 59 55.0010000  0  9G05G07G08G09G13G14G20G27G30
  21466264.944    21466260.459   112805441.70810  87900341.005 0        48.000  
        46.000                                                  
  21419386.724    21419382.275   112559621.823 0  87708768.905 0        47.000  
        44.000                                                  
  24508499.073    24508500.931   128793044.860 0 100358223.901 0        36.000  
        39.000                                                  
  23530360.174    23530359.352   123652852.619 0  96353186.391 0        42.000  
        43.000                                                  
  22357651.988                   117490258.124 0                        46.000  
                                                                
  21989362.097    21989358.756   115555426.561 0  90042741.868 0        46.000  
        47.000                                                  
  20964738.186                   110170417.720 0                        48.000  
                                                                
  24996979.854    24996977.459   131360548.637 0 102358868.940 0        36.000  
        35.000                                                  
  20487778.404    20487776.241   107664001.708 0  83894007.956 0        50.000  
        49.000                                                  
 22  1 17  8 59 54.0000000  0  0
 22  1 17  8 59 55.0010000  0  7E03E05E09E13E15E24E25
  25373773.023                   133339710.774 0                        46.000  
                  25373773.309   102169385.944          50.000  
  23325972.252                   122578808.286 0                        48.000  
                  23325972.091    93924014.464          53.000  
  24134317.622                   126826663.361 0                        44.000  
                  24134318.319    97178865.750          48.000  
  28256103.948                   148486574.75410                        35.000  
                  28256104.126   113775609.371          41.000  
  27776269.737                   145964583.588 0                        38.000  
                  27776271.220   111842981.191          42.000  
  24080981.715                   126546563.032 0                        48.000  
                  24080980.232    96964157.973          52.000  
  25797344.453                   135565970.969 0                        45.000  
                  25797345.776   103875239.538          49.000  
 22  1 17  8 59 56.0010000  0  9G05G07G08G09G13G14G20G27G30
  21466078.034    21466073.621   112804459.67510  87899575.778 0        48.000  
        46.000                                                  
  21419723.555    21419719.177   112561392.014 0  87710148.284 0        47.000  
        44.000                                                  
  24508315.611    24508317.309   128792080.421 0 100357472.416 0        36.000  
        39.000                                                  
  23530934.162    23530933.287   123655869.006 0  96355536.827 0        42.000  
        43.000                                                  
  22357129.730                   117487513.827 0                        46.000  
                                                                
  21988811.731    21988808.336   115552534.134 0  90040488.024 0        46.000  
        47.000                                                  
  20964942.018                   110171489.143 0                        48.000  
                                                                
  24997074.184    24997071.665   131361043.846 0 102359254.806 0        36.000  
        35.000                                                  
  20487847.521    20487845.270   107664364.746 0  83894290.845 0        50.000  
        49.000                                                  
 22  1 17  8 59 55.0000000  0  0
 22  1 17  8 59 56.0010000  0  7E03E05E09E13E15E24E25
  25373373.329                   133337610.381 0                        46.000  
                  25373373.561   102167776.557          50.000  
  23325999.341                   122578950.575 0                        48.000  
                  23325999.091    93924123.486          53.000  
  24134734.131                   126828852.601 0                        44.000  
                  24134735.006    97180543.219          48.000  
  28256091.350                   148486508.87310                        35.000  
                  28256091.600   113775558.913          41.000  
  27776642.842                   145966543.562 0                        38.000  
                  27776644.361   111844482.969          42.000  
  24080921.104                   126546243.632 0                        48.000  
                  24080919.388    96963913.238          52.000  
  25796804.451                   135563133.176 0                        45.000  
                  25796805.631   103873065.133          49.000  
 22  1 17  8 59 57.0010000  0  9G05G07G08G09G13G14G20G27G30
  21465891.303    21465886.961   112803478.41910  87898811.158 0        48.000  
        46.000                                                  
  21420060.458    21420056.115   112563162.581 0  87711527.942 0        47.000  
        44.000                                                  
  24508132.257    24508133.937   128791116.713 0 100356721.474 0        36.000  
        39.000                                                  
  23531508.205    23531507.329   123658885.722 0  96357887.503 0        42.000  
        42.000                                                  
  22356607.579                   117484769.834 0                        46.000  
                                                                
  21988261.365    21988258.060   115549642.232 0  90038234.589 0        46.000  
        47.000                                                  
  20965146.100                   110172561.322 0                        48.000  
                                                                
  24997168.676    24997165.960   131361539.821 0 102359641.304 0        35.000  
        35.000                                                  
  20487916.656    20487914.548   107664728.336 0  83894574.157 0        50.000  
        49.000                                                  
 22  1 17  8 59 56.0000000  0  0
 22  1 17  8 59 57.0010000  0  7E03E05E09E13E15E24E25
  25372973.527                   133335510.226 0                        46.000  
                  25372973.813   102166167.338          50.000  
  23326026.431                   122579093.274 0                        48.000  
                  23326026.306    93924232.829          53.000  
  24135150.819                   126831042.151 0                        44.000  
                  24135151.587    97182220.922          48.000  
  28256078.842                   148486443.60510                        36.000  
                  28256079.181   113775508.889          41.000  
  27777016.036                   145968503.923 0                        38.000  
                  27777017.376   111845985.063          42.000  
  24080860.242                   126545924.816 0                        48.000  
                  24080858.759    96963668.955          52.000  
  25796264.271                   135560295.711 0                        45.000  
                  25796265.736   103870890.976          49.000  
 22  1 17  8 59 58.0010000  0  9G05G07G08G09G13G14G20G27G30
  21465704.607    21465700.301   112802497.48510  87898046.797 0        48.000  
        46.000                                                  
  21420397.271    21420393.000   112564933.063 0  87712907.543 0        47.000  
        44.000                                                  
  24507948.903    24507950.547   128790153.243 0 100355970.675 0        36.000  
        39.000                                                  
  23532082.229    23532081.407   123661902.291 0  96360238.056 0        42.000  
        42.000                                                  
  22356085.393                   117482025.664 0                        46.000  
                                                                
  21987710.999    21987707.712   115546750.392 0  90035981.212 0        46.000  
        47.000                                                  
  20965350.093                   110173633.834 0                        48.000  
                                                                
  24997263.239    24997260.487   131362036.100 0 102360028.014 0        36.000  
        35.000                                                  
  20487985.845    20487983.772   107665091.988 0  83894857.524 0        50.000  
        49.000                                                  
 22  1 17  8 59 57.0000000  0  0
 22  1 17  8 59 58.0010000  0  7E03E05E09E13E15E24E25
  25372573.887                   133333409.844 0                        46.000  
                  25372574.226   102164557.957          50.000  
  23326053.610                   122579235.923 0                        48.000  
                  23326053.413    93924342.127          53.000  
  24135567.274                   126833231.543 0                        44.000  
                  24135568.293    97183898.503          48.000  
  28256066.584                   148486378.49310                        35.000  
                  28256066.619   113775458.987          41.000  
  27777389.052                   145970464.249 0                        38.000  
                  27777390.339   111847487.140          42.000  
  24080799.719                   126545606.138 0                        48.000  
                  24080798.093    96963424.766          52.000  
  25795724.394                   135557458.128 0                        45.000  
                  25795725.663   103868716.727          49.000  
 22  1 17  8 59 59.0010000  0  9G05G07G08G09G13G14G20G27G30
  21465518.198    21465513.891   112801517.50010  87897283.167 0        48.000  
        46.000                                                  
  21420734.352    21420729.992   112566704.079 0  87714287.560 0        47.000  
        44.000                                                  
  24507765.692    24507767.336   128789190.565 0 100355220.543 0        36.000  
        39.000                                                  
  23532656.468    23532655.557   123664919.306 0  96362588.979 0        42.000  
        42.000                                                  
  22355563.242                   117479281.931 0                        46.000  
                                                                
  21987160.884    21987157.489   115543859.230 0  90033728.351 0        46.000  
        47.000                                                  
  20965554.443                   110174707.261 0                        48.000  
                                                                
  24997357.891    24997355.175   131362533.296 0 102360415.416 0        36.000  
        35.000                                                  
  20488055.213    20488053.140   107665456.332 0  83895141.429 0        50.000  
        49.000                                                  
 22  1 17  8 59 58.0000000  0  0
 22  1 17  8 59 59.0010000  0  7E03E05E09E13E15E24E25
  25372174.299                   133331309.868 0                        46.000  
                  25372174.657   102162948.879          50.000  
  23326080.878                   122579379.130 0                        48.000  
                  23326080.681    93924451.860          53.000  
  24135984.248                   126835421.402 0                        44.000  
                  24135984.945    97185576.456          48.000  
  28256054.433                   148486314.12810                        36.000  
                  28256054.433   113775409.678          41.000  
  27777762.247                   145972425.136 0                        38.000  
                  27777763.676   111848989.647          42.000  
  24080739.376                   126545288.205 0                        48.000  
                  24080737.499    96963181.162          52.000  
  25795184.499                   135554621.042 0                        45.000  
                  25795185.893   103866542.865          49.000  
 22  1 17  9  0  0.0010000  0  9G05G07G08G09G13G14G20G27G30
  21465331.895    21465327.643   112800538.26010  87896520.116 0        48.000  
        46.000                                                  
  21421071.469    21421067.038   112568475.459 0  87715667.849 0        47.000  
        44.000                                                  
  24507582.767    24507584.214   128788228.538 0 100354470.926 0        36.000  
        39.000                                                  
  23533230.636    23533229.706   123667936.647 0  96364940.176 0        42.000  
        42.000                                                  
  22355041.252                   117476538.477 0                        46.000  
                                                                
  21986610.839    21986607.391   115540968.575 0  90031475.900 0        46.000  
        47.000                                                  
  20965758.900                   110175781.451 0                        48.000  
                                                                
  24997452.740    24997449.845   131363031.216 0 102360803.408 0        36.000  
        35.000                                                  
  20488124.562    20488122.543   107665821.189 0  83895425.736 0        50.000  
        49.000                                                  
 22  1 17  8 59 59.0000000  0  0
 22  1 17  9  0  0.0010000  0  7E03E05E09E13E15E24E25
  25371774.784                   133329210.109 0                        46.000  
                  25371775.034   102161339.973          50.000  
  23326108.110                   122579522.730 0                        48.000  
                  23326108.057    93924561.891          53.000  
  24136401.007                   126837611.556 0                        44.000  
                  24136401.668    97187254.620          48.000  
  28256042.371                   148486250.36610                        36.000  
                  28256042.282   113775360.818          41.000  
  27778135.513                   145974386.462 0                        38.000  
                  27778136.835   111850492.475          42.000  
  24080678.889                   126544970.847 0                        48.000  
                  24080677.191    96962937.987          52.000  
  25794644.605                   135551784.278 0                        45.000  
                  25794646.106   103864369.252          49.000  
 22  1 17  9  0  1.0010000  0  9G05G07G08G09G13G14G20G27G30
  21465145.664    21465141.555   112799559.61510  87895757.538 0        48.000  
        46.000                                                  
  21421408.640    21421404.172   112570247.035 0  87717048.303 0        47.000  
        44.000                                                  
  24507399.877    24507401.289   128787267.025 0 100353721.704 0        36.000  
        39.000                                                  
  23533804.839    23533803.856   123670954.134 0  96367291.438 0        42.000  
        42.000                                                  
  22354519.280                   117473795.117 0                        46.000  
                                                                
  21986060.849    21986057.400   115538078.266 0  90029223.709 0        46.000  
        47.000                                                  
  20965963.501                   110176856.240 0                        48.000  
                                                                
  24997547.696    24997544.765   131363529.723 0 102361191.857 0        36.000  
        35.000                                                  
  20488194.055    20488192.018   107666186.414 0  83895710.326 0        50.000  
        49.000                                                  
 22  1 17  9  0  0.0000000  0  0
 22  1 17  9  0  1.0010000  0  7E03E05E09E13E15E24E25
  25371375.286                   133327110.414 0                        46.000  
                  25371375.536   102159731.118          50.000  
  23326135.611                   122579666.565 0                        48.000  
                  23326135.521    93924672.104          53.000  
  24136817.695                   126839801.849 0                        44.000  
                  24136818.409    97188932.896          48.000  
  28256030.274                   148486187.01110                        36.000  
                  28256030.327   113775312.283          41.000  
  27778508.725                   145976348.009 0                        38.000  
                  27778510.226   111851995.480          43.000  
  24080618.420                   126544653.912 0                        48.000  
                  24080616.919    96962695.138          52.000  
  25794104.835                   135548947.694 0                        45.000  
                  25794106.283   103862195.756          49.000  
 22  1 17  9  0  2.0010000  0  9G05G07G08G09G13G14G20G27G30
  21464959.541    21464955.502   112798581.63410  87894995.482 0        48.000  
        46.000                                                  
  21421745.828    21421741.289   112572018.864 0  87718428.940 0        47.000  
        44.000                                                  
  24507217.095    24507218.328   128786306.075 0 100352972.882 0        36.000  
        39.000                                                  
  23534379.078    23534378.149   123673971.801 0  96369642.871 0        42.000  
        42.000                                                  
  22353997.344                   117471051.947 0                        46.000  
                                                                
  21985510.947    21985507.534   115535188.351 0  90026971.832 0        46.000  
        47.000                                                  
  20966168.190                   110177931.680 0                        48.000  
                                                                
  24997642.723    24997639.828   131364028.873 0 102361580.791 0        36.000  
        35.000                                                  
  20488263.655    20488261.636   107666552.046 0  83895995.237 0        50.000  
        49.000                                                  
 22  1 17  9  0  1.0000000  0  0
 22  1 17  9  0  2.0010000  0  7E03E05E09E13E15E24E25
  25370975.842                   133325010.822 0                        46.000  
                  25370976.038   102158122.345          50.000  
  23326163.165                   122579810.682 0                        48.000  
                  23326162.879    93924782.529          53.000  
  24137234.615                   126841992.309 0                        44.000  
                  24137235.222    97190611.296          48.000  
  28256018.427                   148486124.13710                        36.000  
                  28256018.248   113775264.098          41.000  
  27778882.080                   145978309.864 0                        38.000  
                  27778883.528   111853498.709          42.000  
  24080558.327                   126544337.429 0                        48.000  
                  24080556.683    96962452.638          52.000  
  25793565.137                   135546111.303 0                        45.000  
                  25793566.549   103860022.431          49.000  
 22  1 17  9  0  3.0010000  0  9G05G07G08G09G13G14G20G27G30
  21464773.506    21464769.396   112797603.95510  87894233.647 0        48.000  
        46.000                                                  
  21422082.999    21422078.549   112573790.581 0  87719809.508 0        47.000  
        44.000                                                  
  24507034.349    24507035.492   128785345.311 0 100352224.257 0        36.000  
        39.000                                                  
  23534953.352    23534952.334   123676989.314 0  96371994.175 0        42.000  
        42.000                                                  
  22353475.408                   117468308.570 0                        46.000  
                                                                
  21984960.903    21984957.597   115532298.486 0  90024719.984 0        46.000  
        46.000                                                  
  20966372.916                   110179007.408 0                        48.000  
                                                                
  24997737.733    24997734.838   131364528.260 0 102361969.910 0        36.000  
        35.000                                                  
  20488333.273    20488331.218   107666917.731 0  83896280.182 0        50.000  
        49.000                                                  
 22  1 17  9  0  2.0000000  0  0
 22  1 17  9  0  3.0010000  0  7E03E05E09E13E15E24E25
  25370576.219                   133322911.007 0                        46.000  
                  25370576.326   102156513.395          50.000  
  23326190.486                   122579954.728 0                        48.000  
                  23326190.343    93924892.909          53.000  
  24137651.410                   126844182.614 0                        44.000  
                  24137652.124    97192289.584          48.000  
  28256006.758                   148486061.41110                        36.000  
                  28256006.419   113775216.026          41.000  
  27779255.525                   145980271.637 0                        38.000  
                  27779256.812   111855001.905          42.000  
  24080498.054                   126544021.060 0                        48.000  
                  24080496.482    96962210.230          52.000  
  25793025.278                   135543274.786 0                        45.000  
                  25793026.779   103857849.005          49.000  
 22  1 17  9  0  4.0010000  0  9G05G07G08G09G13G14G20G27G30
  21464587.597    21464583.559   112796627.18010  87893472.519 0        48.000  
        46.000                                                  
  21422420.241    21422415.791   112575562.821 0  87721190.474 0        47.000  
        44.000                                                  
  24506851.692    24506852.835   128784385.347 0 100351476.249 0        36.000  
        39.000                                                  
  23535527.699    23535526.680   123680007.277 0  96374345.835 0        42.000  
        42.000                                                  
  22352953.489                   117465565.623 0                        46.000  
                                                                
  21984411.145    21984407.928   115529409.278 0  90022468.649 0        46.000  
        46.000                                                  
  20966577.784                   110180084.057 0                        48.000  
                                                                
  24997832.975    24997830.169   131365028.589 0 102362359.805 0        36.000  
        36.000                                                  
  20488402.997    20488401.032   107667284.100 0  83896565.661 0        50.000  
        49.000                                                  
 22  1 17  9  0  3.0000000  0  0
 22  1 17  9  0  4.0010000  0  7E03E05E09E13E15E24E25
  25370176.668                   133320811.562 0                        46.000  
                  25370176.846   102154904.718          50.000  
  23326218.005                   122580099.323 0                        48.000  
                  23326217.862    93925003.698          53.000  
  24138068.312                   126846373.347 0                        44.000  
                  24138069.062    97193968.193          48.000  
  28255995.322                   148485999.39410                        36.000  
                  28255994.589   113775168.504          41.000  
  27779629.113                   145982233.987 0                        38.000  
                  27779630.203   111856505.507          42.000  
  24080437.979                   126543705.428 0                        48.000  
                  24080436.460    96961968.376          52.000  
  25792485.509                   135540438.738 0                        45.000  
                  25792487.027   103855675.930          49.000  
 22  1 17  9  0  5.0010000  0  9G05G07G08G09G13G14G20G27G30
  21464401.866    21464397.899   112795651.17410  87892711.990 0        48.000  
        46.000                                                  
  21422757.572    21422753.105   112577335.415 0  87722571.712 0        47.000  
        44.000                                                  
  24506669.106    24506670.249   128783426.011 0 100350728.722 0        36.000  
        39.000                                                  
  23536102.098    23536101.151   123683025.560 0  96376697.737 0        42.000  
        42.000                                                  
  22352431.625                   117462822.953 0                        46.000  
                                                                
  21983861.476    21983858.188   115526520.577 0  90020217.713 0        46.000  
        46.000                                                  
  20966782.742                   110181161.460 0                        48.000  
                                                                
  24997928.413    24997925.554   131365529.620 0 102362750.214 0        36.000  
        36.000                                                  
  20488472.794    20488470.864   107667650.976 0  83896851.539 0        50.000  
        49.000                                                  
 22  1 17  9  0  4.0000000  0  0
 22  1 17  9  0  5.0010000  0  7E03E05E09E13E15E24E25
  25369777.206                   133318712.348 0                        46.000  
                  25369777.402   102153296.226          50.000  
  23326245.416                   122580244.317 0                        48.000  
                  23326245.398    93925114.797          53.000  
  24138485.089                   126848564.376 0                        44.000  
                  24138485.929    97195647.036          48.000  
  28255983.636                   148485937.98210                        36.000  
                  28255982.921   113775121.448          41.000  
  27780002.540                   145984196.737 0                        38.000  
                  27780003.719   111858009.434          42.000  
  24080377.957                   126543390.347 0                        48.000  
                  24080376.438    96961726.955          52.000  
  25791945.757                   135537603.022 0                        45.000  
                  25791947.419   103853503.113          49.000  
 22  1 17  9  0  6.0010000  0  9G05G07G08G09G13G14G20G27G30
  21464216.297    21464212.312   112794675.99210  87891952.110 0        48.000  
        46.000                                                  
  21423095.011    21423090.419   112579108.438 0  87723953.279 0        47.000  
        44.000                                                  
  24506486.824    24506487.789   128782467.459 0 100349981.766 0        36.000  
        39.000                                                  
  23536676.444    23536675.533   123686044.189 0  96379049.913 0        42.000  
        42.000                                                  
  22351909.778                   117460080.608 0                        46.000  
                                                                
  21983311.860    21983308.644   115523632.449 0  90017967.217 0        45.000  
        46.000                                                  
  20966987.967                   110182239.685 0                        48.000  
                                                                
  24998023.941    24998021.135   131366031.478 0 102363141.265 0        36.000  
        36.000                                                  
  20488542.769    20488540.678   107668018.428 0  83897137.867 0        50.000  
        49.000                                                  
 22  1 17  9  0  5.0000000  0  0
 22  1 17  9  0  6.0010000  0  7E03E05E09E13E15E24E25
  25369377.940                   133316613.405 0                        46.000  
                  25369378.030   102151687.949          50.000  
  23326273.131                   122580389.760 0                        48.000  
                  23326273.113    93925226.238          53.000  
  24138902.045                   126850755.755 0                        44.000  
                  24138902.813    97197326.151          48.000  
  28255972.039                   148485877.21010                        36.000  
                  28255971.306   113775074.880          41.000  
  27780376.056                   145986159.939 0                        38.000  
                  27780377.325   111859513.699          43.000  
  24080318.113                   126543075.936 0                        48.000  
                  24080316.612    96961486.040          52.000  
  25791406.273                   135534767.688 0                        45.000  
                  25791407.899   103851330.591          49.000  
 22  1 17  9  0  7.0010000  0  9G05G07G08G09G13G14G20G27G30
  21464030.888    21464026.974   112793701.54410  87891192.795 0        48.000  
        46.000                                                  
  21423432.467    21423427.947   112580881.819 0  87725335.150 0        47.000  
        44.000                                                  
  24506304.471    24506305.489   128781509.505 0 100349235.329 0        36.000  
        39.000                                                  
  23537250.969    23537249.986   123689063.111 0  96381402.313 0        42.000  
        42.000                                                  
  22351388.002                   117457338.516 0                        46.000  
                                                                
  21982762.281    21982759.046   115520744.808 0  90015717.102 0        45.000  
        46.000                                                  
  20967193.300                   110183318.644 0                        48.000  
                                                                
  24998119.612    24998116.860   131366534.049 0 102363532.895 0        36.000  
        36.000                                                  
  20488612.780    20488610.725   107668386.390 0  83897424.587 0        50.000  
        49.000                                                  
 22  1 17  9  0  6.0000000  0  0
 22  1 17  9  0  7.0010000  0  7E03E05E09E13E15E24E25
  25368978.514                   133314514.664 0                        46.000  
                  25368978.550   102150079.825          50.000  
  23326301.006                   122580535.573 0                        48.000  
                  23326300.720    93925337.967          53.000  
  24139319.054                   126852947.409 0                        44.000  
                  24139319.858    97199005.466          48.000  
  28255960.388                   148485817.03610                        36.000  
                  28255959.870   113775028.757          41.000  
  27780749.715                   145988123.534 0                        38.000  
                  27780750.930   111861018.276          43.000  
  24080258.574                   126542762.056 0                        48.000  
                  24080256.823    96961245.532          52.000  
  25790866.932                   135531932.656 0                        45.000  
                  25790868.398   103849158.298          49.000  
 22  1 17  9  0  8.0010000  0  9G05G07G08G09G13G14G20G27G30
  21463845.389    21463841.583   112792727.30110  87890433.643 0        48.000  
        46.000                                                  
  21423769.835    21423765.367   112582654.989 0  87726716.836 0        47.000  
        44.000                                                  
  24506122.153    24506123.243   128780551.692 0 100348488.938 0        36.000  
        39.000                                                  
  23537825.387    23537824.368   123692081.755 0  96383754.519 0        42.000  
        42.000                                                  
  22350866.173                   117454596.136 0                        46.000  
                                                                
  21982212.719    21982209.592   115517857.097 0  90013466.942 0        45.000  
        46.000                                                  
  20967398.598                   110184397.796 0                        48.000  
                                                                
  24998215.282    24998212.602   131367036.800 0 102363924.612 0        36.000  
        36.000                                                  
  20488682.844    20488680.700   107668754.299 0  83897711.276 0        50.000  
        49.000                                                  
 22  1 17  9  0  7.0000000  0  0
 22  1 17  9  0  8.0010000  0  7E03E05E09E13E15E24E25
  25368579.070                   133312415.600 0                        46.000  
                  25368579.123   102148471.447          50.000  
  23326328.846                   122580681.221 0                        48.000  
                  23326328.507    93925449.564          53.000  
  24139736.117                   126855138.791 0                        44.000  
                  24139736.903    97200684.579          48.000  
  28255948.827                   148485756.83810                        36.000  
                  28255948.523   113774982.648          41.000  
  27781123.338                   145990086.976 0                        39.000  
                  27781124.571   111862522.723          42.000  
  24080198.855                   126542448.202 0                        48.000  
                  24080197.086    96961005.042          52.000  
  25790327.324                   135529097.395 0                        45.000  
                  25790328.860   103846985.818          49.000  
 22  1 17  9  0  9.0010000  0  9G05G07G08G09G13G14G20G27G30
  21463660.052    21463656.281   112791753.49010  87889674.829 0        48.000  
        46.000                                                  
  21424107.220    21424102.752   112584428.212 0  87728098.571 0        47.000  
        44.000                                                  
  24505939.960    24505941.015   128779594.197 0 100347742.849 0        35.000  
        39.000                                                  
  23538399.840    23538398.714   123695100.396 0  96386106.702 0        42.000  
        42.000                                                  
  22350344.308                   117451853.712 0                        46.000  
                                                                
  21981663.211    21981660.191   115514969.585 0  90011216.940 0        45.000  
        46.000                                                  
  20967604.073                   110185477.403 0                        48.000  
                                                                
  24998311.060    24998308.380   131367539.975 0 102364316.722 0        36.000  
        36.000                                                  
  20488752.819    20488750.872   107669122.408 0  83897998.117 0        50.000  
        49.000                                                  
 22  1 17  9  0  8.0000000  0  0
 22  1 17  9  0  9.0010000  0  7E03E05E09E13E15E24E25
  25368179.447                   133310316.425 0                        46.000  
                  25368179.697   102146862.990          50.000  
  23326356.436                   122580826.946 0                        48.000  
                  23326356.204    93925561.220          53.000  
  24140153.109                   126857330.158 0                        44.000  
                  24140153.895    97202363.669          48.000  
  28255937.462                   148485696.93510                        35.000  
                  28255937.140   113774936.743          41.000  
  27781496.819                   145992050.495 0                        39.000  
                  27781498.195   111864027.248          43.000  
  24080139.101                   126542134.597 0                        48.000  
                  24080137.404    96960764.757          52.000  
  25789787.697                   135526262.136 0                        45.000  
                  25789789.270   103844813.357          49.000  
 22  1 17  9  0 10.0010000  0  9G05G07G08G09G13G14G20G27G30
  21463474.911    21463471.069   112790780.51510  87888916.664 0        48.000  
        46.000                                                  
  21424444.712    21424440.245   112586201.854 0  87729480.627 0        47.000  
        44.000                                                  
  24505757.947    24505758.894   128778637.373 0 100346997.286 0        35.000  
        39.000                                                  
  23538974.365    23538973.311   123698119.421 0  96388459.175 0        42.000  
        42.000                                                  
  22349822.568                   117449111.631 0                        46.000  
                                                                
  21981113.863    21981110.844   115512082.639 0  90008967.370 0        45.000  
        46.000                                                  
  20967809.692                   110186557.814 0                        48.000  
                                                                
  24998406.945    24998404.247   131368043.926 0 102364709.431 0        36.000  
        36.000                                                  
  20488822.973    20488820.936   107669491.095 0  83898285.403 0        50.000  
        49.000                                                  
 22  1 17  9  0  9.0000000  0  0
 22  1 17  9  0 10.0010000  0  7E03E05E09E13E15E24E25
  25367780.128                   133308217.552 0                        46.000  
                  25367780.307   102145254.758          50.000  
  23326384.222                   122580973.117 0                        48.000  
                  23326384.008    93925673.228          53.000  
  24140570.100                   126859521.874 0                        44.000  
                  24140570.940    97204043.027          48.000  
  28255926.008                   148485637.66510                        35.000  
                  28255925.794   113774891.351          41.000  
  27781870.478                   145994014.469 0                        38.000  
                  27781872.015   111865532.109          43.000  
  24080079.473                   126541821.626 0                        48.000  
                  24080077.882    96960524.946          52.000  
  25789248.356                   135523427.260 0                        45.000  
                  25789249.804   103842641.185          49.000  
 22  1 17  9  0 11.0010000  0  9G05G07G08G09G13G14G20G27G30
  21463290.127    21463286.017   112789808.51410  87888159.256 0        48.000  
        46.000                                                  
  21424782.329    21424777.844   112587976.068 0  87730863.125 0        47.000  
        44.000                                                  
  24505576.093    24505576.933   128777681.459 0 100346252.401 0        36.000  
        39.000                                                  
  23539548.926    23539547.836   123701138.921 0  96390812.049 0        42.000  
        42.000                                                  
  22349300.847                   117446370.026 0                        46.000  
                                                                
  21980564.605    21980561.585   115509196.419 0  90006718.362 0        45.000  
        46.000                                                  
  20968015.418                   110187639.205 0                        48.000  
                                                                
  24998503.027    24998500.293   131368548.865 0 102365102.868 0        35.000  
        36.000                                                  
  20488893.234    20488891.233   107669860.525 0  83898573.272 0        50.000  
        49.000                                                  
 22  1 17  9  0 10.0000000  0  0
 22  1 17  9  0 11.0010000  0  7E03E05E09E13E15E24E25
  25367380.898                   133306119.101 0                        46.000  
                  25367381.059   102143646.848          50.000  
  23326412.294                   122581119.904 0                        48.000  
                  23326412.009    93925785.695          53.000  
  24140987.217                   126861714.086 0                        44.000  
                  24140988.092    97205722.783          48.000  
  28255914.661                   148485579.16910                        35.000  
                  28255914.608   113774846.543          41.000  
  27782244.459                   145995979.076 0                        38.000  
                  27782245.745   111867037.446          43.000  
  24080020.112                   126541509.448 0                        48.000  
                  24080018.468    96960285.739          52.000  
  25788708.980                   135520592.914 0                        45.000  
                  25788710.392   103840469.425          49.000  
 22  1 17  9  0 12.0010000  0  9G05G07G08G09G13G14G20G27G30
  21463105.308    21463101.234   112788837.25810  87887402.434 0        48.000  
        46.000                                                  
  21425120.000    21425115.569   112589750.629 0  87732245.907 0        47.000  
        44.000                                                  
  24505394.419    24505395.134   128776726.187 0 100345508.050 0        36.000  
        39.000                                                  
  23540123.629    23540122.414   123704158.741 0  96393165.137 0        42.000  
        42.000                                                  
  22348779.178                   117443628.688 0                        46.000  
                                                                
  21980015.490    21980012.417   115506310.697 0  90004469.754 0        45.000  
        46.000                                                  
  20968221.269                   110188721.339 0                        48.000  
                                                                
  24998599.288    24998596.679   131369054.523 0 102365496.887 0        35.000  
        37.000                                                  
  20488963.710    20488961.601   107670230.450 0  83898861.528 0        50.000  
        49.000                                                  
 22  1 17  9  0 11.0000000  0  0
 22  1 17  9  0 12.0010000  0  7E03E05E09E13E15E24E25
  25366981.597                   133304020.883 0                        46.000  
                  25366981.633   102142039.124          50.000  
  23326440.367                   122581267.063 0                        48.000  
                  23326440.081    93925898.460          53.000  
  24141404.637                   126863906.568 0                        44.000  
                  24141405.334    97207402.750          48.000  
  28255903.904                   148485521.34610                        36.000  
                  28255903.707   113774802.194          41.000  
  27782618.225                   145997944.071 0                        38.000  
                  27782619.726   111868543.103          43.000  
  24079960.804                   126541197.839 0                        48.000  
                  24079959.232    96960046.974          52.000  
  25788169.729                   135517758.906 0                        45.000  
                  25788171.140   103838297.910          49.000  
 22  1 17  9  0 13.0010000  0  9G05G07G08G09G13G14G20G27G30
  21462920.703    21462916.486   112787866.58710  87886646.064 0        48.000  
        46.000                                                  
  21425457.653    21425453.257   112591525.357 0  87733628.809 0        47.000  
        44.000                                                  
  24505212.852    24505213.477   128775771.420 0 100344764.069 0        36.000  
        39.000                                                  
  23540698.261    23540697.135   123707178.667 0  96395518.328 0        42.000  
        42.000                                                  
  22348257.510                   117440887.429 0                        46.000  
                                                                
  21979466.286    21979463.302   115503425.295 0  90002221.382 0        45.000  
        46.000                                                  
  20968427.424                   110189804.050 0                        48.000  
                                                                
  24998695.619    24998693.064   131369560.733 0 102365891.321 0        35.000  
        37.000                                                  
  20489034.131    20489032.094   107670600.710 0  83899150.045 0        50.000  
        49.000                                                  
 22  1 17  9  0 12.0000000  0  0
 22  1 17  9  0 13.0010000  0  7E03E05E09E13E15E24E25
  25366582.385                   133301922.679 0                        46.000  
                  25366582.475   102140431.414          50.000  
  23326468.296                   122581414.434 0                        48.000  
                  23326468.117    93926011.383          53.000  
  24141821.611                   126866099.170 0                        44.000  
                  24141822.504    97209082.791          48.000  
  28255892.950                   148485463.84010                        36.000  
                  28255892.790   113774758.151          41.000  
  27782992.152                   145999909.285 0                        38.000  
                  27782993.671   111870048.908          43.000  
  24079901.729                   126540886.611 0                        48.000  
                  24079899.907    96959808.501          52.000  
  25787630.334                   135514924.998 0                        45.000  
                  25787631.799   103836126.490          49.000  
 22  1 17  9  0 14.0010000  0  9G05G07G08G09G13G14G20G27G30
  21462736.098    21462731.953   112786896.57510  87885890.204 0        48.000  
        46.000                                                  
  21425795.396    21425791.000   112593300.346 0  87735011.922 0        47.000  
        44.000                                                  
  24505031.338    24505031.946   128774817.190 0 100344020.522 0        36.000  
        39.000                                                  
  23541273.036    23541271.750   123710198.796 0  96397871.673 0        42.000  
        41.000                                                  
  22347735.806                   117438146.337 0                        46.000  
                                                                
  21978917.296    21978914.330   115500540.298 0  89999973.330 0        45.000  
        46.000                                                  
  20968633.615                   110190887.408 0                        48.000  
                                                                
  24998792.130    24998789.611   131370067.583 0 102366286.243 0        36.000  
        37.000                                                  
  20489104.607    20489102.623   107670971.393 0  83899438.884 0        50.000  
        49.000                                                  
 22  1 17  9  0 13.0000000  0  0
 22  1 17  9  0 14.0010000  0  7E03E05E09E13E15E24E25
  25366183.084                   133299824.604 0                        46.000  
                  25366183.156   102138823.796          50.000  
  23326496.297                   122581562.096 0                        48.000  
                  23326496.207    93926124.522          53.000  
  24142238.692                   126868291.966 0                        44.000  
                  24142239.710    97210762.974          48.000  
  28255882.175                   148485406.85010                        36.000  
                  28255881.943   113774714.472          41.000  
  27783366.294                   146001874.802 0                        38.000  
                  27783367.616   111871554.938          43.000  
  24079842.440                   126540575.850 0                        48.000  
                  24079840.903    96959570.388          52.000  
  25787091.172                   135512091.339 0                        45.000  
                  25787092.691   103833955.244          49.000  
 22  1 17  9  0 15.0010000  0  9G05G07G08G09G13G14G20G27G30
  21462551.547    21462547.473   112785926.86310  87885134.585 0        48.000  
        46.000                                                  
  21426133.102    21426128.778   112595075.224 0  87736394.937 0        47.000  
        44.000                                                  
  24504849.986    24504850.415   128773863.166 0 100343277.115 0        36.000  
        39.000                                                  
  23541847.775    23541846.346   123713218.760 0  96400224.892 0        42.000  
        41.000                                                  
  22347214.102                   117435405.057 0                        46.000  
                                                                
  21978368.217    21978365.215   115497655.342 0  89997725.317 0        45.000  
        46.000                                                  
  20968839.806                   110191971.064 0                        48.000  
                                                                
  24998888.551    24998886.175   131370574.703 0 102366681.417 0        36.000  
        37.000                                                  
  20489175.046    20489173.224   107671342.119 0  83899727.761 0        50.000  
        49.000                                                  
 22  1 17  9  0 14.0000000  0  0
 22  1 17  9  0 15.0010000  0  7E03E05E09E13E15E24E25
  25365783.836                   133297726.288 0                        46.000  
                  25365783.890   102137215.996          50.000  
  23326524.512                   122581709.678 0                        48.000  
                  23326524.298    93926237.604          53.000  
  24142656.005                   126870484.571 0                        44.000  
                  24142657.005    97212443.027          48.000  
  28255871.275                   148485349.95710                        36.000  
                  28255871.168   113774670.874          41.000  
  27783740.096                   146003840.228 0                        38.000  
                  27783741.651   111873060.929          43.000  
  24079783.258                   126540265.204 0                        48.000  
                  24079781.739    96959332.358          52.000  
  25786551.867                   135509257.533 0                        45.000  
                  25786553.475   103831783.889          49.000  
 22  1 17  9  0 16.0010000  0  9G05G07G08G09G13G14G20G27G30
  21462367.192    21462363.100   112784957.81210  87884379.480 0        48.000  
        46.000                                                  
  21426470.898    21426466.556   112596850.351 0  87737778.157 0        47.000  
        44.000                                                  
  24504668.669    24504668.955   128772909.737 0 100342534.198 0        36.000  
        39.000                                                  
  23542422.461    23542421.049   123716238.903 0  96402578.245 0        42.000  
        41.000                                                  
  22346692.452                   117432663.948 0                        46.000  
                                                                
  21977819.334    21977816.314   115494770.788 0  89995477.601 0        45.000  
        46.000                                                  
  20969046.229                   110193055.366 0                        48.000  
                                                                
  24998985.258    24998982.864   131371082.453 0 102367077.051 0        35.000  
        37.000                                                  
  20489245.558    20489243.842   107671713.259 0  83900016.966 0        50.000  
        49.000                                                  
 22  1 17  9  0 15.0000000  0  0
 22  1 17  9  0 16.0010000  0  7E03E05E09E13E15E24E25
  25365384.517                   133295628.079 0                        46.000  
                  25365384.589   102135608.276          50.000  
  23326552.513                   122581857.545 0                        48.000  
                  23326552.459    93926350.914          53.000  
  24143073.354                   126872677.376 0                        44.000  
                  24143074.336    97214123.217          48.000  
  28255860.339                   148485293.55410                        36.000  
                  28255860.590   113774627.663          41.000  
  27784114.148                   146005805.966 0                        38.000  
                  27784115.739   111874567.134          43.000  
  24079724.129                   126539955.018 0                        48.000  
                  24079722.682    96959094.683          52.000  
  25786012.669                   135506423.945 0                        45.000  
                  25786014.188   103829612.696          49.000  
 22  1 17  9  0 17.0010000  0  9G05G07G08G09G13G14G20G27G30
  21462182.891    21462178.978   112783989.67010  87883625.072 0        48.000  
        46.000                                                  
  21426808.784    21426804.406   112598625.971 0  87739161.753 0        47.000  
        44.000                                                  
  24504487.602    24504487.709   128771957.098 0 100341791.884 0        36.000  
        39.000                                                  
  23542997.218    23542995.824   123719259.483 0  96404931.960 0        42.000  
        41.000                                                  
  22346170.837                   117429923.252 0                        46.000  
                                                                
  21977270.576    21977267.377   115491886.882 0  89993230.416 0        45.000  
        46.000                                                  
  20969252.741                   110194140.572 0                        48.000  
                                                                
  24999082.109    24999079.678   131371591.070 0 102367473.373 0        35.000  
        37.000                                                  
  20489316.408    20489314.604   107672085.066 0  83900306.678 0        50.000  
        49.000                                                  
 22  1 17  9  0 16.0000000  0  0
 22  1 17  9  0 17.0010000  0  7E03E05E09E13E15E24E25
  25364985.449                   133293530.247 0                        46.000  
                  25364985.359   102134000.847          50.000  
  23326580.889                   122582005.960 0                        48.000  
                  23326580.639    93926464.623          53.000  
  24143490.631                   126874870.600 0                        44.000  
                  24143491.596    97215803.746          48.000  
  28255849.707                   148485237.87810                        36.000  
                  28255850.083   113774585.010          41.000  
  27784488.486                   146007772.272 0                        38.000  
                  27784489.952   111876073.769          43.000  
  24079665.269                   126539645.557 0                        48.000  
                  24079663.875    96958857.561          52.000  
  25785473.454                   135503590.811 0                        45.000  
                  25785475.044   103827441.869          49.000  
 22  1 17  9  0 18.0010000  0  9G05G07G08G09G13G14G20G27G30
  21461998.894    21461994.873   112783022.52810  87882871.471 0        48.000  
        46.000                                                  
  21427146.901    21427142.362   112600402.202 0  87740545.840 0        47.000  
        44.000                                                  
  24504306.535    24504306.678   128771005.380 0 100341050.281 0        36.000  
        39.000                                                  
  23543572.136    23543570.635   123722280.639 0  96407286.098 0        42.000  
        41.000                                                  
  22345649.348                   117427183.073 0                        46.000  
                                                                
  21976721.890    21976718.691   115489003.725 0  89990983.795 0        45.000  
        46.000                                                  
  20969459.414                   110195226.776 0                        48.000  
                                                                
  24999179.227    24999176.779   131372100.692 0 102367870.477 0        35.000  
        37.000                                                  
  20489387.277    20489385.526   107672457.620 0  83900596.988 0        50.000  
        49.000                                                  
 22  1 17  9  0 17.0000000  0  0
 22  1 17  9  0 18.0010000  0  7E03E05E09E13E15E24E25
  25364586.165                   133291432.874 0                        46.000  
                  25364586.344   102132393.766          50.000  
  23326609.158                   122582155.001 0                        48.000  
                  23326609.015    93926578.823          53.000  
  24143908.087                   126877064.373 0                        44.000  
                  24143909.106    97217484.682          48.000  
  28255839.325                   148485183.04210                        36.000  
                  28255839.593   113774542.990          41.000  
  27784862.700                   146009739.186 0                        38.000  
                  27784864.183   111877580.903          43.000  
  24079606.462                   126539336.909 0                        48.000  
                  24079605.104    96958621.064          52.000  
  25784934.560                   135500758.255 0                        45.000  
                  25784936.007   103825271.473          49.000  
 22  1 17  9  0 19.0010000  0  9G05G07G08G09G13G14G20G27G30
  21461814.879    21461810.947   112782055.76610  87882118.143 0        48.000  
        46.000                                                  
  21427484.840    21427480.319   112602178.388 0  87741929.881 0        47.000  
        44.000                                                  
  24504125.433    24504125.683   128770053.923 0 100340308.902 0        36.000  
        39.000                                                  
  23544147.036    23544145.428   123725301.695 0  96409640.166 0        42.000  
        41.000                                                  
  22345128.001                   117424442.768 0                        46.000  
                                                                
  21976173.239    21976170.023   115486120.691 0  89988737.278 0        45.000  
        46.000                                                  
  20969666.105                   110196313.355 0                        48.000  
                                                                
  24999276.327    24999273.807   131372610.667 0 102368267.860 0        35.000  
        37.000                                                  
  20489458.181    20489456.376   107672830.322 0  83900887.402 0        50.000  
        49.000                                                  
 22  1 17  9  0 18.0000000  0  0
 22  1 17  9  0 19.0010000  0  7E03E05E09E13E15E24E25
  25364187.043                   133289335.345 0                        46.000  
                  25364187.168   102130786.562          50.000  
  23326637.569                   122582304.059 0                        48.000  
                  23326637.444    93926693.037          53.000  
  24144325.579                   126879258.023 0                        44.000  
                  24144326.615    97219165.546          48.000  
  28255828.997                   148485128.40310                        36.000  
                  28255829.212   113774501.130          41.000  
  27785236.841                   146011706.126 0                        38.000  
                  27785238.449   111879088.045          43.000  
  24079547.726                   126539028.451 0                        48.000  
                  24079546.350    96958384.716          52.000  
  25784395.523                   135497925.647 0                        45.000  
                  25784396.970   103823101.033          49.000  
 22  1 17  9  0 20.0010000  0  9G05G07G08G09G13G14G20G27G30
  21461630.971    21461626.986   112781089.70110  87881365.358 0        48.000  
        46.000                                                  
  21427822.922    21427818.276   112603954.894 0  87743314.161 0        47.000  
        44.000                                                  
  24503944.509    24503944.723   128769103.080 0 100339567.962 0        36.000  
        39.000                                                  
  23544722.026    23544720.346   123728323.006 0  96411994.425 0        42.000  
        41.000                                                  
  22344606.583                   117421702.683 0                        46.000  
                                                                
  21975624.785    21975621.533   115483238.118 0  89986491.114 0        46.000  
        46.000                                                  
  20969873.010                   110197400.636 0                        48.000  
                                                                
  24999373.660    24999371.086   131373121.323 0 102368665.776 0        35.000  
        37.000                                                  
  20489529.175    20489527.388   107673203.478 0  83901178.175 0        50.000  
        49.000                                                  
 22  1 17  9  0 19.0000000  0  0
 22  1 17  9  0 20.0010000  0  7E03E05E09E13E15E24E25
  25363787.813                   133287237.989 0                        46.000  
                  25363788.063   102129179.502          50.000  
  23326665.820                   122582453.443 0                        48.000  
                  23326665.910    93926807.507          53.000  
  24144742.749                   126881451.931 0                        44.000  
                  24144744.054    97220846.593          48.000  
  28255818.705                   148485074.32110                        36.000  
                  28255818.919   113774459.668          41.000  
  27785611.108                   146013673.448 0                        38.000  
                  27785612.805   111880595.447          43.000  
  24079489.187                   126538720.513 0                        48.000  
                  24079487.829    96958148.763          52.000  
  25783856.593                   135495093.303 0                        45.000  
                  25783858.058   103820930.802          49.000  
 22  1 17  9  0 21.0010000  0  9G05G07G08G09G13G14G20G27G30
  21461447.223    21461443.149   112780123.75710  87880612.690 0        48.000  
        46.000                                                  
  21428160.933    21428156.269   112605731.119 0  87744698.239 0        47.000  
        44.000                                                  
  24503763.585    24503763.692   128768152.239 0 100338827.049 0        36.000  
        39.000                                                  
  23545296.872    23545295.139   123731343.988 0  96414348.446 0        42.000  
        41.000                                                  
  22344085.129                   117418962.240 0                        46.000  
                                                                
  21975076.171    21975072.919   115480355.415 0  89984244.860 0        46.000  
        46.000                                                  
  20970079.970                   110198488.049 0                        48.000  
                                                                
  24999470.939    24999468.187   131373632.093 0 102369063.763 0        35.000  
        37.000                                                  
  20489600.061    20489598.453   107673576.526 0  83901468.864 0        50.000  
        49.000                                                  
 22  1 17  9  0 20.0000000  0  0
 22  1 17  9  0 21.0010000  0  7E03E05E09E13E15E24E25
  25363388.619                   133285140.210 0                        46.000  
                  25363388.923   102127572.115          50.000  
  23326694.339                   122582602.592 0                        48.000  
                  23326694.214    93926921.792          53.000  
  24145160.313                   126883645.505 0                        44.000  
                  24145161.385    97222527.381          48.000  
  28255808.251                   148485020.12210                        36.000  
                  28255808.448   113774418.173          41.000  
  27785985.196                   146015640.502 0                        38.000  
                  27785987.358   111882102.673          43.000  
  24079430.666                   126538412.513 0                        48.000  
                  24079429.165    96957912.766          52.000  
  25783317.574                   135492260.650 0                        45.000  
                  25783318.950   103818760.331          49.000  
 22  1 17  9  0 22.0010000  0  9G05G07G08G09G13G14G20G27G30
  21461263.619    21461259.581   112779158.77510  87879860.736 0        48.000  
        46.000                                                  
  21428498.961    21428494.404   112607507.883 0  87746082.719 0        47.000  
        44.000                                                  
  24503582.893    24503582.983   128767202.270 0 100338086.796 0        36.000  
        39.000                                                  
  23545871.897    23545870.164   123734365.428 0  96416702.815 0        42.000  
        41.000                                                  
  22343563.782                   117416222.260 0                        46.000  
                                                                
  21974527.752    21974524.554   115477473.405 0  89981999.128 0        46.000  
        46.000                                                  
  20970287.179                   110199576.403 0                        48.000  
                                                                
  24999568.414    24999565.609   131374143.799 0 102369462.458 0        35.000  
        38.000                                                  
  20489671.216    20489669.464   107673950.260 0  83901760.083 0        50.000  
        49.000                                                  
 22  1 17  9  0 21.0000000  0  0
 22  1 17  9  0 22.0010000  0  7E03E05E09E13E15E24E25
  25362989.354                   133283042.848 0                        46.000  
                  25362989.711   102125965.035          50.000  
  23326722.751                   122582752.314 0                        48.000  
                  23326722.751    93927036.509          53.000  
  24145577.894                   126885839.548 0                        44.000  
                  24145579.020    97224208.510          48.000  
  28255798.137                   148484966.75010                        36.000  
                  28255798.102   113774377.260          41.000  
  27786359.588                   146017608.129 0                        38.000  
                  27786361.643   111883610.339          43.000  
  24079372.038                   126538105.265 0                        48.000  
                  24079370.662    96957677.333          52.000  
  25782778.555                   135489428.491 0                        45.000  
                  25782779.949   103816590.239          49.000  
 22  1 17  9  0 23.0010000  0  9G05G07G08G09G13G14G20G27G30
  21461080.086    21461076.048   112778194.80310  87879109.589 0        48.000  
        46.000                                                  
  21428837.257    21428832.611   112609285.258 0  87747467.689 0        47.000  
        44.000                                                  
  24503402.309    24503402.380   128766253.155 0 100337347.246 0        37.000  
        39.000                                                  
  23546447.065    23546445.136   123737387.458 0  96419057.630 0        42.000  
        41.000                                                  
  22343042.436                   117413482.797 0                        46.000  
                                                                
  21973979.424    21973976.189   115474592.153 0  89979753.990 0        46.000  
        46.000                                                  
  20970494.442                   110200665.756 0                        48.000  
                                                                
  24999666.086    24999663.191   131374656.435 0 102369861.917 0        35.000  
        38.000                                                  
  20489742.495    20489740.726   107674324.772 0  83902051.906 0        50.000  
        49.000                                                  
 22  1 17  9  0 22.0000000  0  0
 22  1 17  9  0 23.0010000  0  7E03E05E09E13E15E24E25
  25362590.463                   133280945.953 0                        46.000  
                  25362590.696   102124358.325          50.000  
  23326751.484                   122582902.684 0                        48.000  
                  23326751.323    93927151.728          53.000  
  24145995.546                   126888034.110 0                        44.000  
                  24145996.529    97225890.074          48.000  
  28255787.845                   148484914.19410                        36.000  
                  28255788.220   113774336.994          41.000  
  27786734.104                   146019576.434 0                        38.000  
                  27786736.159   111885118.519          43.000  
  24079313.821                   126537798.856 0                        48.000  
                  24079312.373    96957442.549          52.000  
  25782239.786                   135486596.915 0                        45.000  
                  25782241.144   103814420.597          49.000  
 22  1 17  9  0 24.0010000  0  9G05G07G08G09G13G14G20G27G30
  21460896.643    21460892.694   112777231.49110  87878358.959 0        48.000  
        46.000                                                  
  21429175.482    21429170.890   112611062.900 0  87748852.878 0        47.000  
        44.000                                                  
  24503221.778    24503221.832   128765304.648 0 100336608.117 0        37.000  
        39.000                                                  
  23547022.216    23547020.322   123740409.661 0  96421412.616 0        42.000  
        41.000                                                  
  22342521.178                   117410743.521 0                        46.000  
                                                                
  21973431.327    21973428.003   115471711.320 0  89977509.185 0        45.000  
        46.000                                                  
  20970701.829                   110201755.774 0                        48.000  
                                                                
  24999763.812    24999760.917   131375169.794 0 102370261.930 0        35.000  
        37.000                                                  
  20489813.918    20489812.006   107674699.706 0  83902344.067 0        50.000  
        49.000                                                  
 22  1 17  9  0 23.0000000  0  0
 22  1 17  9  0 24.0010000  0  7E03E05E09E13E15E24E25
  25362191.555                   133278849.196 0                        46.000  
                  25362191.698   102122751.721          50.000  
  23326780.128                   122583053.350 0                        48.000  
                  23326779.968    93927267.169          53.000  
  24146413.271                   126890228.896 0                        44.000  
                  24146414.075    97227571.782          48.000  
  28255777.677                   148484862.14010                        36.000  
                  28255778.285   113774297.097          41.000  
  27787108.800                   146021545.044 0                        38.000  
                  27787110.837   111886626.936          43.000  
  24079255.639                   126537492.919 0                        48.000  
                  24079254.174    96957208.135          52.000  
  25781701.017                   135483765.578 0                        45.000  
                  25781702.447   103812251.128          49.000  
 22  1 17  9  0 25.0010000  0  9G05G07G08G09G13G14G20G27G30
  21460713.503    21460709.572   112776268.74610  87877608.770 0        48.000  
        46.000                                                  
  21429513.850    21429509.222   112612840.695 0  87750238.161 0        47.000  
        44.000                                                  
  24503041.337    24503041.462   128764356.565 0 100335869.361 0        37.000  
        39.000                                                  
  23547597.384    23547595.400   123743431.991 0  96423767.678 0        42.000  
        41.000                                                  
  22341999.885                   117408004.299 0                        46.000  
                                                                
  21972883.141    21972879.800   115468830.777 0  89975264.611 0        46.000  
        46.000                                                  
  20970909.432                   110202846.347 0                        48.000  
                                                                
  24999861.698    24999858.839   131375683.633 0 102370662.354 0        35.000  
        38.000                                                  
  20489885.322    20489883.339   107675074.958 0  83902636.464 0        50.000  
        49.000                                                  
 22  1 17  9  0 24.0000000  0  0
 22  1 17  9  0 25.0010000  0  7E03E05E09E13E15E24E25
  25361792.612                   133276752.450 0                        46.000  
                  25361792.719   102121145.126          50.000  
  23326808.897                   122583204.216 0                        48.000  
                  23326808.647    93927382.774          53.000  
  24146830.888                   126892423.758 0                        44.000  
                  24146831.781    97229253.570          48.000  
  28255767.671                   148484810.46710                        36.000  
                  28255768.332   113774257.526          40.000  
  27787483.549                   146023513.839 0                        38.000  
                  27787485.461   111888135.493          42.000  
  24079197.440                   126537187.361 0                        48.000  
                  24079195.992    96956974.003          52.000  
  25781162.141                   135480934.360 0                        45.000  
                  25781163.588   103810081.765          49.000  
 22  1 17  9  0 26.0010000  0  9G05G07G08G09G13G14G20G27G30
  21460530.310    21460526.415   112775306.51910  87876858.974 0        48.000  
        46.000                                                  
  21429852.200    21429847.518   112614618.612 0  87751623.551 0        47.000  
        44.000                                                  
  24502861.021    24502861.074   128763408.900 0 100335130.918 0        37.000  
        39.000                                                  
  23548172.445    23548170.515   123746454.340 0  96426122.763 0        42.000  
        41.000                                                  
  22341478.610                   117405265.121 0                        46.000  
                                                                
  21972335.045    21972331.650   115465950.513 0  89973020.240 0        46.000  
        46.000                                                  
  20971117.088                   110203937.434 0                        48.000  
                                                                
  24999959.585    24999956.815   131376197.992 0 102371063.137 0        35.000  
        38.000                                                  
  20489956.816    20489954.886   107675450.476 0  83902929.081 0        50.000  
        49.000                                                  
 22  1 17  9  0 25.0000000  0  0
 22  1 17  9  0 26.0010000  0  7E03E05E09E13E15E24E25
  25361393.525                   133274655.690 0                        46.000  
                  25361393.721   102119538.517          50.000  
  23326837.488                   122583355.220 0                        48.000  
                  23326837.452    93927498.476          53.000  
  24147248.540                   126894618.660 0                        44.000  
                  24147249.469    97230935.379          48.000  
  28255757.610                   148484759.12010                        36.000  
                  28255758.325   113774218.189          40.000  
  27787858.263                   146025482.824 0                        38.000  
                  27787860.067   111889644.176          42.000  
  24079139.205                   126536882.119 0                        48.000  
                  24079137.918    96956740.117          52.000  
  25780623.569                   135478103.213 0                        45.000  
                  25780624.873   103807912.449          49.000  
 22  1 17  9  0 27.0010000  0  9G05G07G08G09G13G14G20G27G30
  21460347.349    21460343.436   112774344.71910  87876109.516 0        48.000  
        46.000                                                  
  21430190.478    21430185.850   112616396.536 0  87753008.944 0        47.000  
        44.000                                                  
  24502680.704    24502680.811   128762461.575 0 100334392.743 0        37.000  
        39.000                                                  
  23548747.595    23548745.683   123749476.702 0  96428477.822 0        42.000  
        41.000                                                  
  22340957.264                   117402525.869 0                        46.000  
                                                                
  21971786.966    21971783.625   115463070.408 0  89970776.011 0        46.000  
        46.000                                                  
  20971324.833                   110205028.934 0                        48.000  
                                                                
  25000057.614    25000054.755   131376712.709 0 102371464.204 0        35.000  
        38.000                                                  
  20490028.239    20490026.345   107675826.171 0  83903221.827 0        50.000  
        49.000                                                  
 22  1 17  9  0 26.0000000  0  0
 22  1 17  9  0 27.0010000  0  7E03E05E09E13E15E24E25
  25360994.313                   133272558.810 0                        46.000  
                  25360994.688   102117931.821          50.000  
  23326866.168                   122583506.273 0                        48.000  
                  23326866.221    93927614.221          53.000  
  24147666.175                   126896813.519 0                        44.000  
                  24147667.176    97232617.156          48.000  
  28255748.033                   148484708.04610                        36.000  
                  28255748.658   113774179.036          40.000  
  27788233.065                   146027451.836 0                        38.000  
                  27788234.763   111891152.916          42.000  
  24079081.112                   126536577.124 0                        48.000  
                  24079079.951    96956506.413          52.000  
  25780084.710                   135475272.072 0                        45.000  
                  25780086.104   103805743.124          49.000  
 22  1 17  9  0 28.0010000  0  9G05G07G08G09G13G14G20G27G30
  21460164.621    21460160.547   112773384.15910  87875361.031 0        48.000  
        46.000                                                  
  21430528.935    21430524.450   112618175.299 0  87754394.995 0        47.000  
        44.000                                                  
  24502500.745    24502500.763   128761515.350 0 100333655.457 0        37.000  
        39.000                                                  
  23549322.906    23549320.940   123752499.809 0  96430833.504 0        42.000  
        41.000                                                  
  22340436.203                   117399787.368 0                        47.000  
                                                                
  21971239.138    21971235.653   115460191.300 0  89968532.535 0        46.000  
        46.000                                                  
  20971532.793                   110206121.676 0                        48.000  
                                                                
  25000155.822    25000152.963   131377228.697 0 102371866.311 0        35.000  
        37.000                                                  
  20490099.947    20490098.160   107676202.874 0  83903515.363 0        50.000  
        49.000                                                  
 22  1 17  9  0 27.0000000  0  0
 22  1 17  9  0 28.0010000  0  7E03E05E09E13E15E24E25
  25360595.584                   133270462.645 0                        46.000  
                  25360595.852   102116325.651          50.000  
  23326895.205                   122583658.199 0                        48.000  
                  23326895.080    93927730.633          53.000  
  24148083.988                   126899009.150 0                        44.000  
                  24148084.918    97234299.515          48.000  
  28255738.473                   148484658.02810                        36.000  
                  28255738.937   113774140.704          40.000  
  27788607.922                   146029421.726 0                        38.000  
                  27788609.548   111892662.305          42.000  
  24079023.378                   126536273.163 0                        48.000  
                  24079022.020    96956273.516          52.000  
  25779546.174                   135472441.705 0                        45.000  
                  25779547.514   103803574.420          49.000  
 22  1 17  9  0 29.0010000  0  9G05G07G08G09G13G14G20G27G30
  21459981.892    21459977.889   112772424.07210  87874612.897 0        48.000  
        46.000                                                  
  21430867.428    21430862.979   112619954.126 0  87755781.095 0        47.000  
        44.000                                                  
  24502320.786    24502320.858   128760569.537 0 100332918.454 0        37.000  
        39.000                                                  
  23549898.181    23549896.126   123755522.922 0  96433189.180 0        42.000  
        41.000                                                  
  22339915.107                   117397048.853 0                        46.000  
                                                                
  21970691.327    21970687.771   115457312.407 0  89966289.243 0        46.000  
        46.000                                                  
  20971740.877                   110207214.872 0                        48.000  
                                                                
  25000254.138    25000251.225   131377745.116 0 102372268.702 0        35.000  
        37.000                                                  
  20490171.781    20490169.886   107676579.796 0  83903809.068 0        50.000  
        49.000                                                  
 22  1 17  9  0 28.0000000  0  0
 22  1 17  9  0 29.0010000  0  7E03E05E09E13E15E24E25
  25360196.675                   133268366.390 0                        46.000  
                  25360196.997   102114719.445          50.000  
  23326924.028                   122583810.232 0                        48.000  
                  23326924.010    93927847.120          53.000  
  24148501.784                   126901204.778 0                        44.000  
                  24148502.695    97235981.880          48.000  
  28255728.966                   148484608.27810                        36.000  
                  28255729.538   113774102.611          40.000  
  27788982.760                   146031391.735 0                        38.000  
                  27788984.368   111894171.790          42.000  
  24078965.696                   126535969.500 0                        48.000  
                  24078964.231    96956040.837          52.000  
  25779007.530                   135469611.377 0                        45.000  
                  25779008.977   103801405.733          49.000  
 22  1 17  9  0 30.0010000  0  9G05G07G08G09G13G14G20G27G30
  21459799.378    21459795.339   112771464.64910  87873865.301 0        48.000  
        46.000                                                  
  21431205.939    21431201.418   112621733.212 0  87757167.390 0        47.000  
        44.000                                                  
  24502141.006    24502141.024   128759624.321 0 100332181.889 0        37.000  
        40.000                                                  
  23550473.510    23550471.384   123758546.249 0  96435545.017 0        42.000  
        41.000                                                  
  22339394.153                   117394310.499 0                        46.000  
                                                                
  21970143.570    21970139.996   115454433.921 0  89964046.261 0        46.000  
        46.000                                                  
  20971948.998                   110208308.726 0                        48.000  
                                                                
  25000352.489    25000349.701   131378262.168 0 102372671.572 0        35.000  
        37.000                                                  
  20490243.507    20490241.738   107676957.130 0  83904103.095 0        50.000  
        49.000                                                  
 22  1 17  9  0 29.0000000  0  0
 22  1 17  9  0 30.0010000  0  7E03E05E09E13E15E24E25
  25359797.624                   133266270.263 0                        46.000  
                  25359798.125   102113113.320          50.000  
  23326952.886                   122583962.557 0                        48.000  
                  23326953.065    93927963.834          53.000  
  24148919.508                   126903400.602 0                        44.000  
                  24148920.670    97237664.385          48.000  
  28255719.514                   148484559.05810                        35.000  
                  28255720.210   113774064.877          40.000  
  27789357.581                   146033362.065 0                        38.000  
                  27789359.475   111895681.508          42.000  
  24078907.926                   126535666.319 0                        48.000  
                  24078906.550    96955808.518          52.000  
  25778469.083                   135466781.292 0                        45.000  
                  25778470.316   103799237.224          49.000  
 22  1 17  9  0 31.0010000  0  9G05G07G08G09G13G14G20G27G30
  21459616.846    21459612.861   112770505.57710  87873117.975 0        48.000  
        46.000                                                  
  21431544.450    21431539.965   112623512.239 0  87758553.648 0        47.000  
        44.000                                                  
  24501961.190    24501961.154   128758679.294 0 100331445.508 0        37.000  
        40.000                                                  
  23551048.786    23551046.677   123761569.461 0  96437900.774 0        42.000  
        41.000                                                  
  22338873.092                   117391572.004 0                        47.000  
                                                                
  21969595.849    21969592.293   115451555.541 0  89961803.370 0        46.000  
        46.000                                                  
  20972157.243                   110209402.932 0                        48.000  
                                                                
  25000450.929    25000448.249   131378779.564 0 102373074.747 0        35.000  
        37.000                                                  
  20490315.287    20490313.571   107677334.580 0  83904397.211 0        50.000  
        49.000                                                  
 22  1 17  9  0 30.0000000  0  0
 22  1 17  9  0 31.0010000  0  7E03E05E09E13E15E24E25
  25359398.877                   133264173.961 0                        46.000  
                  25359399.181   102111507.062          50.000  
  23326981.887                   122584114.863 0                        48.000  
                  23326982.048    93928080.547          53.000  
  24149337.358                   126905596.300 0                        44.000  
                  24149338.501    97239346.805          48.000  
  28255710.132                   148484510.00310                        35.000  
                  28255710.722   113774027.291          40.000  
  27789732.526                   146035332.388 0                        38.000  
                  27789734.331   111897191.229          42.000  
  24078850.388                   126535363.293 0                        48.000  
                  24078848.958    96955576.334          52.000  
  25777930.367                   135463951.108 0                        45.000  
                  25777931.833   103797068.655          49.000  
 22  1 17  9  0 32.0010000  0  9G05G07G08G09G13G14G20G27G30
  21459434.475    21459430.454   112769547.00110  87872371.026 0        48.000  
        46.000                                                  
  21431882.907    21431878.476   112625291.354 0  87759939.973 0        47.000  
        44.000                                                  
  24501781.428    24501781.410   128757734.692 0 100330709.460 0        37.000  
        40.000                                                  
  23551624.097    23551621.970   123764592.712 0  96440256.543 0        42.000  
        41.000                                                  
  22338351.996                   117388833.527 0                        47.000  
                                                                
  21969048.163    21969044.571   115448677.387 0  89959560.652 0        46.000  
        46.000                                                  
  20972365.435                   110210497.622 0                        48.000  
                                                                
  25000549.477    25000546.832   131379297.415 0 102373478.284 0        34.000  
        37.000                                                  
  20490387.192    20490385.387   107677712.273 0  83904691.517 0        50.000  
        49.000                                                  
 22  1 17  9  0 31.0000000  0  0
 22  1 17  9  0 32.0010000  0  7E03E05E09E13E15E24E25
  25358999.790                   133262077.611 0                        46.000  
                  25359000.201   102109900.757          50.000  
  23327010.853                   122584267.296 0                        48.000  
                  23327010.978    93928197.340          53.000  
  24149755.278                   126907792.024 0                        44.000  
                  24149756.190    97241029.248          48.000  
  28255700.823                   148484461.24110                        35.000  
                  28255701.323   113773989.933          40.000  
  27790107.490                   146037302.809 0                        38.000  
                  27790109.402   111898701.043          42.000  
  24078792.671                   126535060.572 0                        48.000  
                  24078791.295    96955344.377          52.000  
  25777391.902                   135461120.997 0                        45.000  
                  25777393.171   103794900.124          49.000  
 22  1 17  9  0 33.0010000  0  9G05G07G08G09G13G14G20G27G30
  21459252.246    21459248.136   112768589.25010  87871624.731 0        48.000  
        46.000                                                  
  21432221.614    21432217.076   112627070.894 0  87761326.619 0        47.000  
        44.000                                                  
  24501601.898    24501601.808   128756790.815 0 100329973.971 0        37.000  
        40.000                                                  
  23552199.443    23552197.228   123767616.321 0  96442612.606 0        42.000  
        41.000                                                  
  22337830.899                   117386095.378 0                        47.000  
                                                                
  21968500.692    21968497.082   115445799.820 0  89957318.383 0        46.000  
        46.000                                                  
  20972573.967                   110211593.140 0                        48.000  
                                                                
  25000648.078    25000645.505   131379816.064 0 102373882.419 0        34.000  
        37.000                                                  
  20490459.222    20490457.292   107678090.558 0  83904986.285 0        50.000  
        49.000                                                  
 22  1 17  9  0 32.0000000  0  0
 22  1 17  9  0 33.0010000  0  7E03E05E09E13E15E24E25
  25358600.811                   133259981.552 0                        46.000  
                  25358601.347   102108294.689          50.000  
  23327039.962                   122584420.187 0                        48.000  
                  23327040.158    93928314.490          53.000  
  24150173.145                   126909988.110 0                        44.000  
                  24150174.128    97242711.959          48.000  
  28255691.709                   148484413.15210                        35.000  
                  28255692.210   113773953.081          40.000  
  27790482.346                   146039273.708 0                        38.000  
                  27790484.401   111900211.210          42.000  
  24078735.240                   126534758.488 0                        48.000  
                  24078733.721    96955112.910          52.000  
  25776853.366                   135458291.267 0                        45.000  
                  25776854.831   103792731.889          49.000  
 22  1 17  9  0 34.0010000  0  9G05G07G08G09G13G14G20G27G30
  21459070.179    21459066.033   112767632.70510  87870879.355 0        48.000  
        46.000                                                  
  21432560.340    21432555.854   112628851.230 0  87762713.894 0        47.000  
        44.000                                                  
  24501422.457    24501422.457   128755848.012 0 100329239.315 0        37.000  
        40.000                                                  
  23552774.987    23552772.842   123770640.678 0  96444969.236 0        42.000  
        41.000                                                  
  22337310.000                   117383357.946 0                        46.000  
                                                                
  21967953.221    21967949.629   115442923.186 0  89955076.848 0        46.000  
        46.000                                                  
  20972782.677                   110212689.843 0                        48.000  
                                                                
  25000747.126    25000744.446   131380335.893 0 102374287.485 0        34.000  
        37.000                                                  
  20490531.377    20490529.554   107678469.783 0  83905281.785 0        50.000  
        49.000                                                  
 22  1 17  9  0 33.0000000  0  0
 22  1 17  9  0 34.0010000  0  7E03E05E09E13E15E24E25
  25358202.207                   133257886.154 0                        46.000  
                  25358202.653   102106689.119          50.000  
  23327069.231                   122584573.908 0                        48.000  
                  23327069.392    93928432.269          53.000  
  24150591.173                   126912184.911 0                        44.000  
                  24150592.210    97244395.218          48.000  
  28255682.578                   148484366.10910                        35.000  
                  28255683.257   113773917.020          40.000  
  27790857.650                   146041245.446 0                        37.000  
                  27790859.597   111901722.014          42.000  
  24078677.987                   126534457.417 0                        48.000  
                  24078676.522    96954882.213          52.000  
  25776315.294                   135455462.303 0                        45.000  
                  25776316.455   103790564.237          49.000  
 22  1 17  9  0 35.0010000  0  9G05G07G08G09G13G14G20G27G30
  21458888.254    21458884.055   112766676.75010  87870134.464 0        48.000  
        46.000                                                  
  21432899.083    21432894.580   112630631.745 0  87764101.310 0        47.000  
        44.000                                                  
  24501243.141    24501243.088   128754905.673 0 100328505.068 0        37.000  
        40.000                                                  
  23553350.548    23553348.350   123773665.152 0  96447325.981 0        42.000  
        41.000                                                  
  22336789.118                   117380620.613 0                        46.000  
                                                                
  21967405.803    21967402.390   115440046.899 0  89952835.589 0        46.000  
        46.000                                                  
  20972991.495                   110213787.136 0                        48.000  
                                                                
  25000846.192    25000843.548   131380856.323 0 102374692.978 0        34.000  
        38.000                                                  
  20490603.550    20490601.834   107678849.363 0  83905577.561 0        50.000  
        49.000                                                  
 22  1 17  9  0 34.0000000  0  0
 22  1 17  9  0 35.0010000  0  7E03E05E09E13E15E24E25
  25357803.388                   133255790.799 0                        46.000  
                  25357803.960   102105083.590          50.000  
  23327098.554                   122584727.852 0                        48.000  
                  23327098.733    93928550.226          53.000  
  24151009.094                   126914381.818 0                        44.000  
                  24151010.345    97246078.578          48.000  
  28255673.697                   148484319.46610                        35.000  
                  28255674.430   113773881.282          40.000  
  27791232.792                   146043217.422 0                        37.000  
                  27791234.793   111903232.999          42.000  
  24078620.824                   126534156.741 0                        48.000  
                  24078619.305    96954651.836          52.000  
  25775776.954                   135452633.477 0                        45.000  
                  25775778.151   103788396.707          49.000  
 22  1 17  9  0 36.0010000  0  9G05G07G08G09G13G14G20G27G30
  21458706.330    21458702.202   112765720.89110  87869389.637 0        48.000  
        46.000                                                  
  21433237.861    21433233.376   112632411.954 0  87765488.502 0        47.000  
        44.000                                                  
  24501063.808    24501063.736   128753963.430 0 100327770.796 0        37.000  
        40.000                                                  
  23553926.002    23553923.858   123776689.274 0  96449682.438 0        42.000  
        41.000                                                  
  22336268.146                   117377882.887 0                        46.000  
                                                                
  21966858.564    21966854.937   115437170.453 0  89950594.212 0        46.000  
        46.000                                                  
  20973200.383                   110214884.514 0                        48.000  
                                                                
  25000945.204    25000942.542   131381376.771 0 102375098.561 0        34.000  
        38.000                                                  
  20490675.758    20490674.025   107679228.787 0  83905873.219 0        50.000  
        49.000                                                  
 22  1 17  9  0 35.0000000  0  0
 22  1 17  9  0 36.0010000  0  7E03E05E09E13E15E24E25
  25357404.766                   133253695.004 0                        46.000  
                  25357405.105   102103477.725          50.000  
  23327127.949                   122584881.523 0                        48.000  
                  23327127.860    93928667.979          53.000  
  24151427.336                   126916578.382 0                        44.000  
                  24151428.194    97247761.643          48.000  
  28255664.870                   148484272.73510                        35.000  
                  28255665.603   113773845.451          40.000  
  27791608.113                   146045189.127 0                        37.000  
                  27791609.989   111904743.786          42.000  
  24078563.768                   126533855.990 0                        48.000  
                  24078561.999    96954421.381          52.000  
  25775238.453                   135449804.326 0                        45.000  
                  25775239.686   103786228.920          49.000  
 22  1 17  9  0 37.0010000  0  9G05G07G08G09G13G14G20G27G30
  21458524.512    21458520.510   112764765.74310  87868645.368 0        48.000  
        46.000                                                  
  21433576.694    21433572.209   112634192.472 0  87766875.912 0        47.000  
        44.000                                                  
  24500884.510    24500884.599   128753021.710 0 100327037.026 0        37.000  
        40.000                                                  
  23554501.474    23554499.330   123779713.631 0  96452039.095 0        42.000  
        41.000                                                  
  22335747.300                   117375145.376 0                        46.000  
                                                                
  21966311.272    21966307.645   115434294.464 0  89948353.189 0        46.000  
        46.000                                                  
  20973409.290                   110215982.602 0                        49.000  
                                                                
  25001044.324    25001041.697   131381897.956 0 102375504.665 0        34.000  
        38.000                                                  
  20490748.003    20490746.234   107679608.689 0  83906169.244 0        50.000  
        49.000                                                  
 22  1 17  9  0 36.0000000  0  0
 22  1 17  9  0 37.0010000  0  7E03E05E09E13E15E24E25
  25357005.911                   133251599.394 0                        46.000  
                  25357006.304   102101872.001          51.000  
  23327157.075                   122585035.538 0                        48.000  
                  23327157.147    93928785.995          53.000  
  24151845.346                   126918775.166 0                        44.000  
                  24151846.204    97249444.900          48.000  
  28255656.222                   148484226.53510                        36.000  
                  28255656.811   113773810.069          40.000  
  27791983.273                   146047161.174 0                        37.000  
                  27791985.346   111906254.851          42.000  
  24078506.516                   126533555.749 0                        48.000  
                  24078504.836    96954191.335          52.000  
  25774699.970                   135446975.447 0                        45.000  
                  25774701.346   103784061.342          49.000  
 22  1 17  9  0 38.0010000  0  9G05G07G08G09G13G14G20G27G30
  21458342.927    21458338.925   112763811.43710  87867901.741 0        48.000  
        46.000                                                  
  21433915.562    21433911.130   112635973.418 0  87768263.653 0        47.000  
        44.000                                                  
  24500705.516    24500705.552   128752080.714 0 100326303.797 0        37.000  
        40.000                                                  
  23555077.142    23555074.873   123782738.381 0  96454396.030 0        42.000  
        41.000                                                  
  22335226.454                   117372408.210 0                        46.000  
                                                                
  21965764.015    21965760.406   115431419.060 0  89946112.600 0        46.000  
        46.000                                                  
  20973618.429                   110217081.518 0                        48.000  
                                                                
  25001143.604    25001141.102   131382419.930 0 102375911.391 0        34.000  
        37.000                                                  
  20490820.426    20490818.693   107679989.167 0  83906465.723 0        50.000  
        49.000                                                  
 22  1 17  9  0 37.0000000  0  0
 22  1 17  9  0 38.0010000  0  7E03E05E09E13E15E24E25
  25356607.361                   133249504.072 0                        46.000  
                  25356607.593   102100266.492          51.000  
  23327186.452                   122585190.010 0                        48.000  
                  23327186.702    93928904.354          53.000  
  24152263.285                   126920972.308 0                        44.000  
                  24152264.393    97251128.429          48.000  
  28255647.734                   148484181.00110                        36.000  
                  28255648.270   113773775.170          40.000  
  27792358.540                   146049133.710 0                        37.000  
                  27792360.685   111907766.261          42.000  
  24078449.532                   126533256.159 0                        48.000  
                  24078447.870    96953961.771          52.000  
  25774161.737                   135444146.956 0                        45.000  
                  25774163.131   103781894.058          49.000  
 22  1 17  9  0 39.0010000  0  9G05G07G08G09G13G14G20G27G30
  21458161.378    21458157.411   112762857.53310  87867158.442 0        48.000  
        46.000                                                  
  21434254.520    21434249.945   112637754.358 0  87769651.405 0        47.000  
        44.000                                                  
  24500526.451    24500526.576   128751140.065 0 100325570.835 0        37.000  
        40.000                                                  
  23555652.793    23555650.327   123785763.044 0  96456752.919 0        42.000  
        41.000                                                  
  22334705.625                   117369670.951 0                        46.000  
                                                                
  21965216.830    21965213.256   115428543.799 0  89943872.133 0        46.000  
        46.000                                                  
  20973827.640                   110218180.818 0                        48.000  
                                                                
  25001242.974    25001240.508   131382942.288 0 102376318.407 0        34.000  
        37.000                                                  
  20490892.939    20490891.116   107680369.803 0  83906762.320 0        50.000  
        49.000                                                  
 22  1 17  9  0 38.0000000  0  0
 22  1 17  9  0 39.0010000  0  7E03E05E09E13E15E24E25
  25356208.613                   133247408.597 0                        46.000  
                  25356208.738   102098660.870          51.000  
  23327216.007                   122585344.518 0                        48.000  
                  23327215.990    93929022.743          53.000  
  24152681.509                   126923169.388 0                        44.000  
                  24152682.582    97252811.904          48.000  
  28255639.103                   148484135.67610                        36.000  
                  28255639.657   113773740.440          40.000  
  27792734.004                   146051106.269 0                        37.000  
                  27792735.952   111909277.710          42.000  
  24078392.601                   126532956.775 0                        48.000  
                  24078390.868    96953732.377          52.000  
  25773623.772                   135441318.432 0                        45.000  
                  25773624.862   103779726.750          49.000  
 22  1 17  9  0 40.0010000  0  9G05G07G08G09G13G14G20G27G30
  21457980.043    21457976.058   112761904.74710  87866416.013 0        48.000  
        46.000                                                  
  21434593.602    21434588.938   112639536.017 0  87771039.716 0        47.000  
        44.000                                                  
  24500347.582    24500347.832   128750200.449 0 100324838.637 0        37.000  
        40.000                                                  
  23556228.372    23556226.138   123788788.389 0  96459110.329 0        42.000  
        41.000                                                  
  22334184.868                   117366934.343 0                        46.000  
                                                                
  21964669.949    21964666.303   115425669.413 0  89941632.358 0        46.000  
        46.000                                                  
  20974037.011                   110219281.245 0                        48.000  
                                                                
  25001342.486    25001340.163   131383465.746 0 102376726.300 0        34.000  
        37.000                                                  
  20490965.612    20490963.664   107680751.319 0  83907059.610 0        50.000  
        49.000                                                  
 22  1 17  9  0 39.0000000  0  0
 22  1 17  9  0 40.0010000  0  7E03E05E09E13E15E24E25
  25355809.973                   133245313.724 0                        46.000  
                  25355810.223   102097055.705          51.000  
  23327245.438                   122585499.779 0                        48.000  
                  23327245.527    93929141.710          53.000  
  24153099.645                   126925367.123 0                        44.000  
                  24153100.699    97254495.873          48.000  
  28255630.687                   148484091.32210                        36.000  
                  28255631.241   113773706.443          40.000  
  27793109.522                   146053079.610 0                        37.000  
                  27793111.487   111910789.725          42.000  
  24078335.778                   126532658.324 0                        48.000  
                  24078334.151    96953503.689          52.000  
  25773085.468                   135438490.592 0                        45.000  
                  25773086.844   103777559.977          49.000  
 22  1 17  9  0 41.0010000  0  9G05G07G08G09G13G14G20G27G30
  21457798.780    21457794.867   112760952.53910  87865674.026 0        48.000  
        46.000                                                  
  21434932.595    21434928.003   112641317.856 0  87772428.156 0        47.000  
        44.000                                                  
  24500168.838    24500169.016   128749261.267 0 100324106.813 0        37.000  
        40.000                                                  
  23556804.183    23556801.825   123791813.826 0  96461467.812 0        42.000  
        41.000                                                  
  22333664.004                   117364197.811 0                        46.000  
                                                                
  21964122.960    21964119.458   115422795.353 0  89939392.812 0        46.000  
        46.000                                                  
  20974246.472                   110220382.233 0                        48.000  
                                                                
  25001441.892    25001439.908   131383989.739 0 102377134.601 0        34.000  
        38.000                                                  
  20491038.303    20491036.230   107681133.164 0  83907357.143 0        50.000  
        49.000                                                  
 22  1 17  9  0 40.0000000  0  0
 22  1 17  9  0 41.0010000  0  7E03E05E09E13E15E24E25
  25355411.280                   133243218.886 0                        46.000  
                  25355411.583   102095450.569          51.000  
  23327275.029                   122585655.243 0                        48.000  
                  23327275.082    93929260.829          53.000  
  24153517.923                   126927564.942 0                        44.000  
                  24153519.031    97256179.928          48.000  
  28255622.288                   148484047.32010                        36.000  
                  28255622.949   113773672.745          40.000  
  27793484.896                   146055053.126 0                        37.000  
                  27793487.094   111912301.913          42.000  
  24078279.061                   126532360.263 0                        48.000  
                  24078277.364    96953275.305          52.000  
  25772547.288                   135435662.896 0                        45.000  
                  25772548.611   103775393.301          49.000  
 22  1 17  9  0 42.0010000  0  9G05G07G08G09G13G14G20G27G30
  21457617.659    21457613.693   112760000.63910  87864932.279 0        48.000  
        46.000                                                  
  21435271.714    21435267.014   112643099.603 0  87773816.519 0        47.000  
        44.000                                                  
  24499990.130    24499990.308   128748322.326 0 100323375.164 0        37.000  
        40.000                                                  
  23557379.834    23557377.600   123794839.152 0  96463825.197 0        42.000  
        41.000                                                  
  22333143.194                   117361461.106 0                        46.000  
                                                                
  21963576.061    21963572.558   115419921.339 0  89937153.326 0        46.000  
        46.000                                                  
  20974456.022                   110221483.525 0                        48.000  
                                                                
  25001541.601    25001539.778   131384514.034 0 102377543.143 0        34.000  
        37.000                                                  
  20491110.941    20491108.904   107681515.068 0  83907654.735 0        50.000  
        49.000                                                  
 22  1 17  9  0 41.0000000  0  0
 22  1 17  9  0 42.0010000  0  7E03E05E09E13E15E24E25
  25355012.568                   133241123.813 0                        46.000  
                  25355012.926   102093845.249          51.000  
  23327304.638                   122585810.655 0                        48.000  
                  23327304.602    93929379.913          53.000  
  24153936.236                   126929762.621 0                        44.000  
                  24153937.201    97257863.850          48.000  
  28255614.140                   148484003.49110                        36.000  
                  28255614.658   113773639.162          40.000  
  27793860.592                   146057026.601 0                        37.000  
                  27793862.630   111913814.068          42.000  
  24078222.381                   126532062.329 0                        48.000  
                  24078220.647    96953047.015          52.000  
  25772009.145                   135432835.068 0                        45.000  
                  25772010.432   103773226.526          49.000  
 22  1 17  9  0 43.0010000  0  9G05G07G08G09G13G14G20G27G30
  21457436.628    21457432.608   112759049.38210  87864191.051 0        48.000  
        46.000                                                  
  21435610.832    21435606.061   112644881.567 0  87775205.065 0        47.000  
        44.000                                                  
  24499811.618    24499811.618   128747383.918 0 100322643.947 0        36.000  
        40.000                                                  
  23557955.502    23557953.233   123797864.609 0  96466182.694 0        42.000  
        41.000                                                  
  22332622.347                   117358724.537 0                        46.000  
                                                                
  21963029.269    21963025.730   115417047.725 0  89934914.141 0        46.000  
        46.000                                                  
  20974665.679                   110222585.452 0                        48.000  
                                                                
  25001641.328    25001639.702   131385038.931 0 102377952.176 0        34.000  
        37.000                                                  
  20491183.578    20491181.702   107681897.377 0  83907952.640 0        50.000  
        49.000                                                  
 22  1 17  9  0 42.0000000  0  0
 22  1 17  9  0 43.0010000  0  7E03E05E09E13E15E24E25
  25354614.053                   133239028.857 0                        46.000  
                  25354614.250   102092240.024          51.000  
  23327334.104                   122585966.339 0                        48.000  
                  23327334.354    93929499.197          53.000  
  24154354.425                   126931960.464 0                        44.000  
                  24154355.319    97259547.914          48.000  
  28255605.777                   148483960.12810                        36.000  
                  28255606.546   113773605.928          40.000  
  27794236.146                   146059000.402 0                        37.000  
                  27794238.236   111915326.436          42.000  
  24078165.754                   126531764.852 0                        48.000  
                  24078164.092    96952819.074          52.000  
  25771471.073                   135430007.445 0                        45.000  
                  25771472.449   103771059.915          49.000  
 22  1 17  9  0 44.0010000  0  9G05G07G08G09G13G14G20G27G30
  21457255.990    21457251.863   112758099.37510  87863450.786 0        49.000  
        46.000                                                  
  21435950.093    21435945.429   112646664.400 0  87776594.281 0        47.000  
        44.000                                                  
  24499633.303    24499633.357   128746446.650 0 100321913.612 0        36.000  
        40.000                                                  
  23558531.421    23558529.116   123800890.870 0  96468540.827 0        42.000  
        42.000                                                  
  22332101.769                   117355988.739 0                        46.000  
                                                                
  21962482.691    21962479.063   115414175.102 0  89932675.736 0        46.000  
        46.000                                                  
  20974875.676                   110223688.622 0                        48.000  
                                                                
  25001741.162    25001739.876   131385565.077 0 102378362.139 0        34.000  
        37.000                                                  
  20491256.645    20491254.643   107682280.678 0  83908251.316 0        50.000  
        49.000                                                  
 22  1 17  9  0 43.0000000  0  0
 22  1 17  9  0 44.0010000  0  7E03E05E09E13E15E24E25
  25354215.574                   133236934.591 0                        46.000  
                  25354215.753   102090635.331          51.000  
  23327363.981                   122586122.886 0                        48.000  
                  23327364.070    93929619.160          53.000  
  24154773.043                   126934159.088 0                        44.000  
                  24154773.740    97261232.569          48.000  
  28255597.879                   148483917.83710                        36.000  
                  28255598.540   113773573.520          40.000  
  27794611.753                   146060975.031 0                        37.000  
                  27794614.076   111916839.467          42.000  
  24078109.556                   126531468.420 0                        48.000  
                  24078107.679    96952591.942          52.000  
  25770933.323                   135427180.644 0                        45.000  
                  25770934.395   103768893.915          49.000  
 22  1 17  9  0 45.0010000  0  9G05G07G08G09G13G14G20G27G30
  21457075.335    21457071.153   112757149.77010  87862710.820 0        49.000  
        46.000                                                  
  21436289.337    21436284.691   112648447.204 0  87777983.490 0        47.000  
        44.000                                                  
  24499454.935    24499455.042   128745509.674 0 100321183.495 0        36.000  
        40.000                                                  
  23559107.197    23559105.106   123803917.088 0  96470898.911 0        42.000  
        42.000                                                  
  22331581.119                   117353252.853 0                        46.000  
                                                                
  21961936.024    21961932.396   115411302.629 0  89930437.446 0        46.000  
        46.000                                                  
  20975085.690                   110224792.177 0                        48.000  
                                                                
  25001841.211    25001840.067   131386091.561 0 102378772.403 0        34.000  
        37.000                                                  
  20491329.532    20491327.603   107682664.148 0  83908550.120 0        50.000  
        49.000                                                  
 22  1 17  9  0 44.0000000  0  0
 22  1 17  9  0 45.0010000  0  7E03E05E09E13E15E24E25
  25353817.131                   133234840.202 0                        46.000  
                  25353817.113   102089030.535          51.000  
  23327393.804                   122586279.486 0                        48.000  
                  23327393.822    93929739.140          53.000  
  24155191.410                   126936357.624 0                        44.000  
                  24155191.964    97262917.168          48.000  
  28255589.820                   148483875.76610                        36.000  
                  28255590.499   113773541.275          41.000  
  27794987.467                   146062949.718 0                        37.000  
                  27794989.790   111918352.535          42.000  
  24078053.090                   126531172.205 0                        48.000  
                  24078051.249    96952364.972          52.000  
  25770395.322                   135424353.790 0                        45.000  
                  25770396.626   103766727.891          49.000  
 22  1 17  9  0 46.0010000  0  9G05G07G08G09G13G14G20G27G30
  21456894.715    21456890.533   112756200.53110  87861971.156 0        49.000  
        46.000                                                  
  21436628.580    21436624.006   112650229.999 0  87779372.674 0        47.000  
        44.000                                                  
  24499276.709    24499276.763   128744573.025 0 100320453.626 0        36.000  
        40.000                                                  
  23559683.062    23559680.935   123806943.197 0  96473256.930 0        42.000  
        42.000                                                  
  22331060.380                   117350516.849 0                        46.000  
                                                                
  21961389.428    21961385.837   115408430.274 0  89928199.254 0        46.000  
        46.000                                                  
  20975295.651                   110225896.120 0                        48.000  
                                                                
  25001941.313    25001940.348   131386618.430 0 102379182.945 0        34.000  
        37.000                                                  
  20491402.581    20491400.615   107683047.745 0  83908849.029 0        50.000  
        49.000                                                  
 22  1 17  9  0 45.0000000  0  0
 22  1 17  9  0 46.0010000  0  7E03E05E09E13E15E24E25
  25353418.508                   133232745.654 0                        46.000  
                  25353418.562   102087425.619          51.000  
  23327423.592                   122586436.083 0                        48.000  
                  23327423.717    93929859.135          53.000  
  24155609.742                   126938556.080 0                        44.000  
                  24155610.546    97264601.702          48.000  
  28255581.743                   148483833.86510                        36.000  
                  28255582.405   113773509.189          41.000  
  27795363.216                   146064924.426 0                        37.000  
                  27795365.629   111919865.618          42.000  
  24077996.677                   126530876.187 0                        48.000  
                  24077994.926    96952138.151          52.000  
  25769857.429                   135421526.892 0                        45.000  
                  25769858.572   103764561.833          49.000  
 22  1 17  9  0 47.0010000  0  9G05G07G08G09G13G14G20G27G30
  21456714.202    21456709.967   112755251.94710  87861231.993 0        49.000  
        46.000                                                  
  21436967.913    21436963.231   112652013.013 0  87780762.039 0        47.000  
        44.000                                                  
  24499098.501    24499098.769   128743636.895 0 100319724.174 0        36.000  
        40.000                                                  
  23560258.927    23560257.033   123809969.485 0  96475615.071 0        42.000  
        42.000                                                  
  22330539.802                   117347780.993 0                        46.000  
                                                                
  21960842.958    21960839.277   115405558.315 0  89925961.350 0        46.000  
        46.000                                                  
  20975505.791                   110227000.676 0                        48.000  
                                                                
  25002041.630    25002040.736   131387145.932 0 102379593.981 0        33.000  
        37.000                                                  
  20491475.665    20491473.664   107683431.724 0  83909148.237 0        50.000  
        49.000                                                  
 22  1 17  9  0 46.0000000  0  0
 22  1 17  9  0 47.0010000  0  7E03E05E09E13E15E24E25
  25353019.922                   133230651.192 0                        46.000  
                  25353020.047   102085820.776          51.000  
  23327453.415                   122586592.943 0                        48.000  
                  23327453.505    93929979.325          53.000  
  24156027.966                   126940754.689 0                        44.000  
                  24156028.842    97266286.342          48.000  
  28255573.899                   148483792.46010                        36.000  
                  28255574.453   113773477.459          41.000  
  27795739.002                   146066899.395 0                        37.000  
                  27795741.396   111921378.908          42.000  
  24077940.497                   126530580.600 0                        48.000  
                  24077938.746    96951911.662          52.000  
  25769319.553                   135418700.173 0                        45.000  
                  25769320.750   103762395.906          49.000  
 22  1 17  9  0 48.0010000  0  9G05G07G08G09G13G14G20G27G30
  21456533.850    21456529.579   112754304.18810  87860493.479 0        49.000  
        46.000                                                  
  21437307.442    21437302.546   112653796.454 0  87782151.739 0        47.000  
        44.000                                                  
  24498920.508    24498920.740   128742701.481 0 100318995.289 0        36.000  
        40.000                                                  
  23560834.810    23560833.005   123812996.154 0  96477973.508 0        42.000  
        42.000                                                  
  22330019.295                   117345045.479 0                        46.000  
                                                                
  21960296.469    21960292.842   115402686.927 0  89923723.917 0        46.000  
        46.000                                                  
  20975716.217                   110228106.065 0                        48.000  
                                                                
  25002141.964    25002141.232   131387674.241 0 102380005.653 0        33.000  
        37.000                                                  
  20491548.839    20491546.766   107683816.301 0  83909447.905 0        50.000  
        49.000                                                  
 22  1 17  9  0 47.0000000  0  0
 22  1 17  9  0 48.0010000  0  7E03E05E09E13E15E24E25
  25352621.425                   133228557.034 0                        46.000  
                  25352621.514   102084216.159          51.000  
  23327483.471                   122586750.274 0                        48.000  
                  23327483.399    93930099.881          53.000  
  24156446.477                   126942953.662 0                        44.000  
                  24156447.388    97267971.274          48.000  
  28255566.197                   148483751.69510                        36.000  
                  28255566.787   113773446.232          41.000  
  27796114.931                   146068874.845 0                        37.000  
                  27796117.432   111922892.560          42.000  
  24077884.424                   126530285.670 0                        48.000  
                  24077882.494    96951685.675          52.000  
  25768781.785                   135415873.871 0                        45.000  
                  25768782.857   103760230.302          49.000  
 22  1 17  9  0 49.0010000  0  9G05G07G08G09G13G14G20G27G30
  21456353.694    21456349.406   112753357.46410  87859755.780 0        49.000  
        46.000                                                  
  21437647.007    21437642.075   112655580.534 0  87783541.925 0        47.000  
        44.000                                                  
  24498742.604    24498742.836   128741767.041 0 100318267.129 0        36.000  
        40.000                                                  
  23561410.818    23561409.048   123816023.387 0  96480332.395 0        42.000  
        42.000                                                  
  22329498.931                   117342310.494 0                        46.000  
                                                                
  21959750.196    21959746.586   115399816.321 0  89921487.080 0        46.000  
        46.000                                                  
  20975926.821                   110229212.487 0                        48.000  
                                                                
  25002242.567    25002241.924   131388203.542 0 102380418.073 0        33.000  
        37.000                                                  
  20491622.120    20491620.172   107684201.673 0  83909748.191 0        50.000  
        49.000                                                  
 22  1 17  9  0 48.0000000  0  0
 22  1 17  9  0 49.0010000  0  7E03E05E09E13E15E24E25
  25352223.053                   133226463.361 0                        46.000  
                  25352223.124   102082611.916          51.000  
  23327513.580                   122586908.270 0                        48.000  
                  23327513.491    93930220.939          53.000  
  24156865.255                   126945153.205 0                        44.000  
                  24156865.952    97269656.635          48.000  
  28255558.567                   148483711.83910                        36.000  
                  28255559.282   113773415.650          41.000  
  27796490.752                   146070850.955 0                        37.000  
                  27796493.486   111924406.739          42.000  
  24077828.369                   126529991.580 0                        48.000  
                  24077826.635    96951460.333          52.000  
  25768243.874                   135413048.164 0                        45.000  
                  25768245.053   103758065.152          49.000  
 22  1 17  9  0 50.0010000  0  9G05G07G08G09G13G14G20G27G30
  21456173.646    21456169.286   112752411.27210  87859018.473 0        49.000  
        46.000                                                  
  21437986.483    21437981.658   112657364.743 0  87784932.213 0        47.000  
        44.000                                                  
  24498564.807    24498565.057   128740833.012 0 100317539.308 0        36.000  
        40.000                                                  
  23561986.879    23561985.182   123819050.693 0  96482691.333 0        42.000  
        42.000                                                  
  22328978.478                   117339575.571 0                        46.000  
                                                                
  21959203.940    21959200.330   115396946.008 0  89919250.466 0        46.000  
        46.000                                                  
  20976137.390                   110230319.428 0                        48.000  
                                                                
  25002343.205    25002342.741   131388733.354 0 102380830.931 0        33.000  
        38.000                                                  
  20491695.454    20491693.507   107684587.315 0  83910048.694 0        50.000  
        49.000                                                  
 22  1 17  9  0 49.0000000  0  0
 22  1 17  9  0 50.0010000  0  7E03E05E09E13E15E24E25
  25351824.663                   133224369.711 0                        46.000  
                  25351824.699   102081007.682          51.000  
  23327543.511                   122587066.423 0                        48.000  
                  23327543.672    93930342.123          53.000  
  24157283.855                   126947352.803 0                        44.000  
                  24157284.516    97271342.039          48.000  
  28255551.205                   148483672.27710                        36.000  
                  28255551.670   113773385.350          41.000  
  27796866.895                   146072827.244 0                        37.000  
                  27796869.450   111925921.032          42.000  
  24077772.600                   126529697.841 0                        48.000  
                  24077770.705    96951235.256          52.000  
  25767705.980                   135410222.537 0                        45.000  
                  25767707.392   103755900.075          49.000  
 22  1 17  9  0 51.0010000  0  9G05G07G08G09G13G14G20G27G30
  21455993.544    21455989.273   112751465.19710  87858281.272 0        49.000  
        46.000                                                  
  21438325.887    21438321.098   112659148.650 0  87786322.275 0        47.000  
        44.000                                                  
  24498387.010    24498387.368   128739899.006 0 100316811.522 0        36.000  
        40.000                                                  
  23562562.816    23562561.172   123822077.641 0  96485049.989 0        42.000  
        42.000                                                  
  22328458.079                   117336840.266 0                        46.000  
                                                                
  21958657.755    21958654.110   115394075.545 0  89917013.744 0        46.000  
        46.000                                                  
  20976348.137                   110231426.481 0                        48.000  
                                                                
  25002443.879    25002443.611   131389263.254 0 102381243.810 0        33.000  
        37.000                                                  
  20491768.878    20491766.841   107684972.837 0  83910349.096 0        50.000  
        49.000                                                  
 22  1 17  9  0 50.0000000  0  0
 22  1 17  9  0 51.0010000  0  7E03E05E09E13E15E24E25
  25351426.023                   133222275.595 0                        46.000  
                  25351426.184   102079403.111          51.000  
  23327573.602                   122587224.328 0                        48.000  
                  23327573.727    93930463.117          53.000  
  24157702.562                   126949552.043 0                        44.000  
                  24157702.991    97273027.164          48.000  
  28255543.539                   148483632.64110                        36.000  
                  28255544.183   113773355.009          41.000  
  27797243.038                   146074803.284 0                        37.000  
                  27797245.325   111927435.138          42.000  
  24077716.562                   126529404.024 0                        48.000  
                  24077714.829    96951010.123          52.000  
  25767168.284                   135407396.596 0                        45.000  
                  25767169.731   103753734.743          49.000  
 22  1 17  9  0 52.0010000  0  9G05G07G08G09G13G14G20G27G30
  21455813.621    21455809.439   112750519.98210  87857544.738 0        49.000  
        46.000                                                  
  21438665.398    21438660.610   112660933.018 0  87787712.691 0        47.000  
        44.000                                                  
  24498209.303    24498209.732   128738965.749 0 100316084.311 0        36.000  
        40.000                                                  
  23563138.895    23563137.376   123825105.006 0  96487408.966 0        41.000  
        42.000                                                  
  22327937.608                   117334105.330 0                        46.000  
                                                                
  21958111.660    21958108.032   115391205.701 0  89914777.495 0        46.000  
        46.000                                                  
  20976558.848                   110232534.397 0                        48.000  
                                                                
  25002544.714    25002544.607   131389793.981 0 102381657.394 0        33.000  
        37.000                                                  
  20491842.373    20491840.408   107685358.970 0  83910649.978 0        50.000  
        49.000                                                  
 22  1 17  9  0 51.0000000  0  0
 22  1 17  9  0 52.0010000  0  7E03E05E09E13E15E24E25
  25351027.776                   133220181.837 0                        46.000  
                  25351027.847   102077798.791          51.000  
  23327603.801                   122587382.727 0                        48.000  
                  23327603.783    93930584.483          53.000  
  24158121.162                   126951751.670 0                        44.000  
                  24158121.662    97274712.599          48.000  
  28255536.195                   148483593.75110                        36.000  
                  28255536.874   113773325.174          41.000  
  27797619.056                   146076779.803 0                        37.000  
                  27797621.575   111928949.624          42.000  
  24077660.775                   126529110.875 0                        48.000  
                  24077658.988    96950785.505          52.000  
  25766630.641                   135404571.091 0                        45.000  
                  25766631.999   103751569.747          49.000  
 22  1 17  9  0 53.0010000  0  9G05G07G08G09G13G14G20G27G30
  21455633.894    21455629.731   112749575.49210  87856808.767 0        48.000  
        46.000                                                  
  21439004.964    21439000.210   112662717.705 0  87789103.364 0        47.000  
        44.000                                                  
  24498031.917    24498032.239   128738033.108 0 100315357.601 0        36.000  
        40.000                                                  
  23563714.921    23563713.527   123828132.620 0  96489768.157 0        41.000  
        42.000                                                  
  22327417.208                   117331370.633 0                        46.000  
                                                                
  21957565.618    21957562.116   115388336.319 0  89912541.615 0        46.000  
        46.000                                                  
  20976769.703                   110233643.014 0                        48.000  
                                                                
  25002645.799    25002645.746   131390325.416 0 102382071.492 0        32.000  
        37.000                                                  
  20491915.994    20491913.975   107685745.575 0  83910951.233 0        50.000  
        49.000                                                  
 22  1 17  9  0 52.0000000  0  0
 22  1 17  9  0 53.0010000  0  7E03E05E09E13E15E24E25
  25350629.368                   133218088.237 0                        46.000  
                  25350629.440   102076194.611          51.000  
  23327634.089                   122587541.469 0                        48.000  
                  23327634.035    93930706.119          53.000  
  24158539.708                   126953951.544 0                        44.000  
                  24158540.280    97276398.224          48.000  
  28255528.780                   148483555.35910                        36.000  
                  28255529.566   113773295.789          41.000  
  27797995.359                   146078756.720 0                        37.000  
                  27797997.736   111930464.385          42.000  
  24077605.024                   126528818.255 0                        48.000  
                  24077603.344    96950561.296          52.000  
  25766093.158                   135401745.860 0                        45.000  
                  25766094.338   103749404.964          49.000  
 22  1 17  9  0 54.0010000  0  9G05G07G08G09G13G14G20G27G30
  21455454.328    21455450.183   112748631.81710  87856073.432 0        49.000  
        46.000                                                  
  21439344.636    21439339.918   112664502.809 0  87790494.343 0        47.000  
        44.000                                                  
  24497854.531    24497855.049   128737101.206 0 100314631.432 0        36.000  
        40.000                                                  
  23564291.072    23564289.696   123831160.589 0  96492127.609 0        41.000  
        42.000                                                  
  22326896.844                   117328636.258 0                        47.000  
                                                                
  21957019.666    21957016.253   115385467.505 0  89910306.173 0        46.000  
        46.000                                                  
  20976980.825                   110234752.447 0                        48.000  
                                                                
  25002746.795    25002747.045   131390857.643 0 102382486.214 0        32.000  
        37.000                                                  
  20491989.632    20491987.684   107686132.746 0  83911252.927 0        50.000  
        49.000                                                  
 22  1 17  9  0 53.0000000  0  0
 22  1 17  9  0 54.0010000  0  7E03E05E09E13E15E24E25
  25350231.139                   133215994.939 0                        46.000  
                  25350231.121   102074590.649          51.000  
  23327664.216                   122587700.668 0                        48.000  
                  23327664.234    93930828.099          53.000  
  24158958.397                   126956151.770 0                        44.000  
                  24158959.040    97278084.102          48.000  
  28255521.489                   148483517.66110                        36.000  
                  28255522.240   113773266.862          41.000  
  27798371.627                   146080734.081 0                        37.000  
                  27798373.950   111931979.492          42.000  
  24077549.505                   126528526.277 0                        48.000  
                  24077547.754    96950337.564          52.000  
  25765555.461                   135398921.014 0                        45.000  
                  25765556.837   103747240.473          49.000  
 22  1 17  9  0 55.0010000  0  9G05G07G08G09G13G14G20G27G30
  21455274.959    21455270.706   112747688.94410  87855338.732 0        48.000  
        46.000                                                  
  21439684.469    21439679.591   112666288.298 0  87791885.639 0        47.000  
        44.000                                                  
  24497677.235    24497677.682   128736169.979 0 100313905.801 0        36.000  
        40.000                                                  
  23564867.312    23564866.043   123834188.896 0  96494487.347 0        41.000  
        42.000                                                  
  22326376.659                   117325902.185 0                        47.000  
                                                                
  21956473.892    21956470.408   115382599.249 0  89908071.166 0        46.000  
        46.000                                                  
  20977192.073                   110235862.675 0                        49.000  
                                                                
  25002848.220    25002848.416   131391390.667 0 102382901.567 0        32.000  
        37.000                                                  
  20492063.342    20492061.555   107686520.486 0  83911555.058 0        50.000  
        49.000                                                  
 22  1 17  9  0 54.0000000  0  0
 22  1 17  9  0 55.0010000  0  7E03E05E09E13E15E24E25
  25349832.785                   133213901.894 0                        46.000  
                  25349832.785   102072986.887          51.000  
  23327694.665                   122587860.288 0                        48.000  
                  23327694.593    93930950.409          53.000  
  24159377.086                   126958352.324 0                        44.000  
                  24159377.747    97279770.241          48.000  
  28255514.324                   148483480.54910                        36.000  
                  28255515.110   113773238.430          41.000  
  27798747.931                   146082711.852 0                        37.000  
                  27798750.343   111933494.936          42.000  
  24077494.057                   126528234.907 0                        48.000  
                  24077492.288    96950114.309          52.000  
  25765018.176                   135396096.522 0                        45.000  
                  25765019.248   103745076.256          49.000  
 22  1 17  9  0 56.0010000  0  9G05G07G08G09G13G14G20G27G30
  21455095.554    21455091.301   112746746.46610  87854604.327 0        48.000  
        46.000                                                  
  21440024.284    21440019.442   112668073.784 0  87793276.934 0        47.000  
        44.000                                                  
  24497500.153    24497500.492   128735239.046 0 100313180.385 0        36.000  
        40.000                                                  
  23565443.534    23565442.337   123837217.153 0  96496847.007 0        41.000  
        42.000                                                  
  22325856.349                   117323168.022 0                        47.000  
                                                                
  21955928.155    21955924.706   115379731.137 0  89905836.264 0        46.000  
        46.000                                                  
  20977403.481                   110236973.290 0                        48.000  
                                                                
  25002949.501    25002950.019   131391924.030 0 102383317.177 0        32.000  
        37.000                                                  
  20492137.212    20492135.265   107686908.364 0  83911857.301 0        50.000  
        49.000                                                  
 22  1 17  9  0 55.0000000  0  0
 22  1 17  9  0 56.0010000  0  7E03E05E09E13E15E24E25
  25349434.520                   133211808.693 0                        46.000  
                  25349434.520   102071383.015          51.000  
  23327725.221                   122588019.948 0                        48.000  
                  23327724.971    93931072.739          53.000  
  24159796.025                   126960552.803 0                        44.000  
                  24159796.490    97281456.313          48.000  
  28255507.069                   148483443.65110                        35.000  
                  28255508.105   113773210.160          41.000  
  27799124.449                   146084689.679 0                        37.000  
                  27799126.701   111935010.409          42.000  
  24077438.824                   126527943.739 0                        48.000  
                  24077436.948    96949891.206          52.000  
  25764480.711                   135393272.004 0                        45.000  
                  25764481.819   103742912.013          49.000  
 22  1 17  9  0 57.0010000  0  9G05G07G08G09G13G14G20G27G30
  21454916.292    21454912.039   112745804.48810  87853870.316 0        48.000  
        46.000                                                  
  21440364.046    21440359.239   112669859.363 0  87794668.285 0        47.000  
        44.000                                                  
  24497322.964    24497323.518   128734308.474 0 100312455.261 0        35.000  
        40.000                                                  
  23566019.775    23566018.613   123840245.419 0  96499206.699 0        41.000  
        42.000                                                  
  22325336.057                   117320433.870 0                        47.000  
                                                                
  21955382.452    21955378.897   115376863.256 0  89903601.568 0        46.000  
        46.000                                                  
  20977614.979                   110238084.398 0                        48.000  
                                                                
  25003050.997    25003051.641   131392457.868 0 102383733.166 0        32.000  
        37.000                                                  
  20492211.136    20492209.046   107687296.498 0  83912159.747 0        50.000  
        49.000                                                  
 22  1 17  9  0 56.0000000  0  0
 22  1 17  9  0 57.0010000  0  7E03E05E09E13E15E24E25
  25349036.220                   133209715.484 0                        47.000  
                  25349036.220   102069779.114          51.000  
  23327755.598                   122588179.726 0                        48.000  
                  23327755.473    93931195.171          53.000  
  24160214.732                   126962753.301 0                        44.000  
                  24160215.322    97283142.421          48.000  
  28255500.225                   148483407.10510                        35.000  
                  28255501.118   113773182.158          41.000  
  27799500.932                   146086667.623 0                        37.000  
                  27799503.130   111936525.981          42.000  
  24077383.466                   126527652.889 0                        48.000  
                  24077381.500    96949668.347          52.000  
  25763943.140                   135390447.535 0                        45.000  
                  25763944.247   103740747.826          49.000  
 22  1 17  9  0 58.0010000  0  9G05G07G08G09G13G14G20G27G30
  21454737.173    21454732.956   112744863.23110  87853136.865 0        48.000  
        46.000                                                  
  21440703.879    21440699.197   112671645.233 0  87796059.875 0        47.000  
        44.000                                                  
  24497145.989    24497146.471   128733378.538 0 100311730.636 0        35.000  
        40.000                                                  
  23566596.104    23566594.978   123843273.951 0  96501566.572 0        41.000  
        42.000                                                  
  22324815.836                   117317699.938 0                        46.000  
                                                                
  21954836.750    21954833.230   115373995.836 0  89901367.202 0        46.000  
        46.000                                                  
  20977826.656                   110239196.193 0                        48.000  
                                                                
  25003152.601    25003153.351   131392992.451 0 102384149.680 0        32.000  
        37.000                                                  
  20492285.007    20492283.041   107687685.078 0  83912462.534 0        50.000  
        49.000                                                  
 22  1 17  9  0 57.0000000  0  0
 22  1 17  9  0 58.0010000  0  7E03E05E09E13E15E24E25
  25348637.955                   133207622.403 0                        46.000  
                  25348637.866   102068175.325          51.000  
  23327785.851                   122588339.829 0                        48.000  
                  23327785.922    93931317.848          53.000  
  24160633.671                   126964954.026 0                        44.000  
                  24160633.993    97284828.684          48.000  
  28255493.381                   148483371.05010                        35.000  
                  28255494.203   113773154.524          40.000  
  27799877.378                   146088645.923 0                        37.000  
                  27799879.415   111938041.799          42.000  
  24077328.286                   126527362.540 0                        48.000  
                  24077326.267    96949445.869          52.000  
  25763405.943                   135387623.337 0                        45.000  
                  25763406.819   103738583.825          49.000  
 22  1 17  9  0 59.0010000  0  9G05G07G08G09G13G14G20G27G30
  21454558.286    21454553.998   112743922.69610  87852403.973 0        48.000  
        46.000                                                  
  21441043.801    21441039.155   112673431.435 0  87797451.713 0        47.000  
        44.000                                                  
  24496969.193    24496969.604   128732449.272 0 100311006.517 0        36.000  
        40.000                                                  
  23567172.362    23567171.326   123846302.719 0  96503926.662 0        41.000  
        42.000                                                  
  22324295.633                   117314966.233 0                        47.000  
                                                                
  21954291.120    21954287.671   115371128.889 0  89899133.219 0        46.000  
        46.000                                                  
  20978038.368                   110240308.719 0                        48.000  
                                                                
  25003254.347    25003255.258   131393527.653 0 102384566.744 0        32.000  
        37.000                                                  
  20492359.056    20492357.091   107688074.150 0  83912765.705 0        50.000  
        49.000                                                  
 22  1 17  9  0 58.0000000  0  0
 22  1 17  9  0 59.0010000  0  7E03E05E09E13E15E24E25
  25348239.690                   133205529.537 0                        47.000  
                  25348239.601   102066571.698          51.000  
  23327816.621                   122588500.311 0                        48.000  
                  23327816.353    93931440.812          53.000  
  24161052.450                   126967155.015 0                        44.000  
                  24161052.968    97286515.151          48.000  
  28255486.752                   148483335.54910                        35.000  
                  28255487.502   113773127.329          40.000  
  27800253.825                   146090624.563 0                        37.000  
                  27800256.005   111939557.926          42.000  
  24077272.964                   126527072.742 0                        48.000  
                  24077271.195    96949223.805          52.000  
  25762868.514                   135384799.438 0                        45.000  
                  25762869.479   103736420.061          49.000  
 22  1 17  9  1  0.0010000  0  9G05G07G08G09G13G14G20G27G30
  21454379.471    21454375.236   112742983.06510  87851671.796 0        48.000  
        46.000                                                  
  21441383.741    21441379.167   112675218.124 0  87798843.941 0        47.000  
        44.000                                                  
  24496792.450    24496792.897   128731520.748 0 100310282.984 0        36.000  
        40.000                                                  
  23567748.763    23567747.727   123849331.950 0  96506287.104 0        41.000  
        42.000                                                  
  22323775.537                   117312232.952 0                        47.000  
                                                                
  21953745.721    21953742.201   115368262.584 0  89896899.737 0        46.000  
        46.000                                                  
  20978250.241                   110241422.131 0                        48.000  
                                                                
  25003356.236    25003357.326   131394063.771 0 102384984.478 0        32.000  
        37.000                                                  
  20492433.141    20492431.193   107688463.874 0  83913069.389 0        50.000  
        49.000                                                  
 22  1 17  9  0 59.0000000  0  0
 22  1 17  9  1  0.0010000  0  7E03E05E09E13E15E24E25
  25347841.425                   133203437.020 0                        47.000  
                  25347841.443   102064968.345          51.000  
  23327847.123                   122588661.310 0                        48.000  
                  23327847.016    93931564.175          53.000  
  24161471.318                   126969356.421 0                        44.000  
                  24161471.836    97288201.947          48.000  
  28255480.176                   148483300.81710                        35.000  
                  28255480.926   113773100.693          40.000  
  27800630.576                   146092603.751 0                        37.000  
                  27800632.899   111941074.432          42.000  
  24077217.999                   126526783.638 0                        48.000  
                  24077216.176    96949002.293          52.000  
  25762331.229                   135381975.988 0                        45.000  
                  25762332.229   103734256.645          49.000  
 22  1 17  9  1  1.0010000  0  9G05G07G08G09G13G14G20G27G30
  21454200.834    21454196.581   112742044.17710  87850940.194 0        48.000  
        46.000                                                  
  21441723.825    21441719.232   112677005.150 0  87800236.436 0        47.000  
        44.000                                                  
  24496615.976    24496616.369   128730592.887 0 100309559.971 0        36.000  
        39.000                                                  
  23568325.236    23568324.200   123852361.433 0  96508647.768 0        41.000  
        42.000                                                  
  22323255.388                   117309499.910 0                        47.000  
                                                                
  21953200.430    21953196.821   115365396.790 0  89894666.646 0        46.000  
        46.000                                                  
  20978462.346                   110242536.279 0                        48.000  
                                                                
  25003458.232    25003459.465   131394600.581 0 102385402.797 0        32.000  
        37.000                                                  
  20492507.458    20492505.457   107688854.103 0  83913373.456 0        50.000  
        49.000                                                  
 22  1 17  9  1  0.0000000  0  0
 22  1 17  9  1  1.0010000  0  7E03E05E09E13E15E24E25
  25347443.429                   133201344.714 0                        47.000  
                  25347443.286   102063365.154          51.000  
  23327877.894                   122588822.687 0                        48.000  
                  23327877.751    93931687.834          53.000  
  24161890.435                   126971558.102 0                        44.000  
                  24161890.704    97289888.959          48.000  
  28255473.529                   148483266.60410                        35.000  
                  28255474.422   113773074.474          41.000  
  27801007.451                   146094583.339 0                        37.000  
                  27801009.470   111942591.241          42.000  
  24077163.105                   126526495.096 0                        48.000  
                  24077161.247    96948781.205          52.000  
  25761794.014                   135379152.858 0                        45.000  
                  25761794.908   103732093.463          49.000  
 22  1 17  9  1  2.0010000  0  9G05G07G08G09G13G14G20G27G30
  21454022.180    21454017.891   112741105.55010  87850208.792 0        48.000  
        46.000                                                  
  21442063.872    21442059.244   112678792.041 0  87801628.811 0        47.000  
        44.000                                                  
  24496439.465    24496439.912   128729665.155 0 100308837.107 0        36.000  
        39.000                                                  
  23568901.637    23568900.654   123855390.758 0  96511008.253 0        41.000  
        42.000                                                  
  22322735.256                   117306766.665 0                        47.000  
                                                                
  21952655.086    21952651.530   115362531.011 0  89892433.567 0        46.000  
        46.000                                                  
  20978674.380                   110243650.695 0                        48.000  
                                                                
  25003560.354    25003561.640   131395137.671 0 102385821.266 0        32.000  
        37.000                                                  
  20492581.651    20492579.792   107689244.341 0  83913677.547 0        50.000  
        49.000                                                  
 22  1 17  9  1  1.0000000  0  0
 22  1 17  9  1  2.0010000  0  7E03E05E09E13E15E24E25
  25347045.271                   133199252.153 0                        47.000  
                  25347045.164   102061761.752          51.000  
  23327908.539                   122588983.976 0                        48.000  
                  23327908.432    93931811.415          53.000  
  24162309.339                   126973759.584 0                        44.000  
                  24162309.786    97291575.804          48.000  
  28255466.935                   148483232.49110                        35.000  
                  28255467.953   113773048.358          41.000  
  27801384.309                   146096562.824 0                        38.000  
                  27801386.060   111944107.998          42.000  
  24077108.140                   126526206.646 0                        48.000  
                  24077106.353    96948560.184          52.000  
  25761256.800                   135376329.555 0                        45.000  
                  25761257.729   103729930.161          49.000  
 22  1 17  9  1  3.0010000  0  9G05G07G08G09G13G14G20G27G30
  21453843.686    21453839.469   112740167.59110  87849477.913 0        48.000  
        46.000                                                  
  21442403.920    21442399.327   112680579.217 0  87803021.418 0        47.000  
        44.000                                                  
  24496262.973    24496263.509   128728738.093 0 100308114.684 0        36.000  
        39.000                                                  
  23569478.163    23569477.198   123858420.280 0  96513368.922 0        41.000  
        42.000                                                  
  22322215.178                   117304033.613 0                        47.000  
                                                                
  21952109.920    21952106.185   115359665.663 0  89890200.828 0        46.000  
        46.000                                                  
  20978886.592                   110244765.785 0                        48.000  
                                                                
  25003662.457    25003664.012   131395675.432 0 102386240.308 0        32.000  
        37.000                                                  
  20492655.932    20492654.056   107689635.022 0  83913981.973 0        50.000  
        49.000                                                  
 22  1 17  9  1  2.0000000  0  0
 22  1 17  9  1  3.0010000  0  7E03E05E09E13E15E24E25
  25346647.078                   133197159.719 0                        47.000  
                  25346646.917   102060158.465          51.000  
  23327939.274                   122589145.570 0                        48.000  
                  23327939.167    93931935.234          53.000  
  24162728.314                   126975961.292 0                        44.000  
                  24162728.653    97293262.825          48.000  
  28255460.538                   148483198.92410                        35.000  
                  28255461.574   113773022.606          41.000  
  27801761.149                   146098542.611 0                        38.000  
                  27801762.864   111945624.978          42.000  
  24077053.407                   126525918.688 0                        48.000  
                  24077051.567    96948339.542          52.000  
  25760719.532                   135373506.498 0                        45.000  
                  25760720.586   103727767.040          49.000  
 22  1 17  9  1  4.0010000  0  9G05G07G08G09G13G14G20G27G30
  21453665.353    21453661.190   112739230.27610  87848747.544 0        48.000  
        46.000                                                  
  21442744.039    21442739.411   112682366.637 0  87804414.201 0        47.000  
        44.000                                                  
  24496086.677    24496087.249   128727811.520 0 100307392.693 0        36.000  
        40.000                                                  
  23570054.618    23570053.671   123861450.007 0  96515729.741 0        41.000  
        42.000                                                  
  22321695.190                   117301300.723 0                        47.000  
                                                                
  21951564.700    21951561.037   115356800.711 0  89887968.396 0        46.000  
        46.000                                                  
  20979098.930                   110245881.509 0                        48.000  
                                                                
  25003764.847    25003766.401   131396213.806 0 102386659.816 0        32.000  
        37.000                                                  
  20492730.392    20492728.427   107690026.113 0  83914286.713 0        50.000  
        49.000                                                  
 22  1 17  9  1  3.0000000  0  0
 22  1 17  9  1  4.0010000  0  7E03E05E09E13E15E24E25
  25346248.956                   133195067.407 0                        46.000  
                  25346248.777   102058555.267          51.000  
  23327970.116                   122589307.437 0                        48.000  
                  23327969.919    93932059.264          53.000  
  24163147.343                   126978163.161 0                        44.000  
                  24163147.700    97294949.960          48.000  
  28255454.266                   148483165.79710                        35.000  
                  28255455.284   113772997.225          41.000  
  27802138.078                   146100522.704 0                        38.000  
                  27802139.650   111947142.180          42.000  
  24076998.710                   126525631.186 0                        48.000  
                  24076996.744    96948119.245          52.000  
  25760182.425                   135370683.659 0                        45.000  
                  25760183.426   103725604.094          49.000  
 22  1 17  9  1  5.0010000  0  9G05G07G08G09G13G14G20G27G30
  21453487.217    21453482.964   112738293.68810  87848017.733 0        48.000  
        46.000                                                  
  21443084.176    21443079.619   112684154.353 0  87805807.238 0        47.000  
        44.000                                                  
  24495910.471    24495910.989   128726885.584 0 100306671.166 0        36.000  
        39.000                                                  
  23570631.073    23570630.429   123864479.998 0  96518090.780 0        41.000  
        41.000                                                  
  22321175.273                   117298568.065 0                        47.000  
                                                                
  21951019.605    21951016.014   115353936.235 0  89885736.332 0        46.000  
        46.000                                                  
  20979311.357                   110246997.950 0                        48.000  
                                                                
  25003867.272    25003869.023   131396752.855 0 102387079.866 0        33.000  
        37.000                                                  
  20492804.870    20492802.869   107690417.674 0  83914591.828 0        50.000  
        49.000                                                  
 22  1 17  9  1  4.0000000  0  0
 22  1 17  9  1  5.0010000  0  7E03E05E09E13E15E24E25
  25345850.852                   133192975.274 0                        46.000  
                  25345850.691   102056952.193          51.000  
  23328000.886                   122589469.665 0                        48.000  
                  23328000.851    93932183.571          53.000  
  24163566.425                   126980365.286 0                        44.000  
                  24163566.782    97296637.307          48.000  
  28255448.244                   148483133.20710                        35.000  
                  28255449.280   113772972.265          41.000  
  27802514.989                   146102503.151 0                        38.000  
                  27802516.562   111948659.659          42.000  
  24076943.977                   126525344.220 0                        48.000  
                  24076942.226    96947899.365          52.000  
  25759645.157                   135367861.115 0                        45.000  
                  25759646.193   103723441.357          49.000  
 22  1 17  9  1  6.0010000  0  9G05G07G08G09G13G14G20G27G30
  21453309.224    21453304.935   112737358.08310  87847288.686 0        48.000  
        46.000                                                  
  21443424.527    21443419.970   112685942.653 0  87807200.714 0        47.000  
        44.000                                                  
  24495734.693    24495734.943   128725960.446 0 100305950.332 0        36.000  
        39.000                                                  
  23571207.831    23571207.027   123867510.470 0  96520452.178 0        41.000  
        41.000                                                  
  22320655.391                   117295835.891 0                        47.000  
                                                                
  21950474.636    21950471.044   115351072.456 0  89883504.828 0        46.000  
        46.000                                                  
  20979524.016                   110248115.355 0                        48.000  
                                                                
  25003969.930    25003971.752   131397292.882 0 102387500.645 0        32.000  
        37.000                                                  
  20492879.527    20492877.526   107690809.957 0  83914897.505 0        50.000  
        49.000                                                  
 22  1 17  9  1  5.0000000  0  0
 22  1 17  9  1  6.0010000  0  7E03E05E09E13E15E24E25
  25345452.855                   133190883.579 0                        46.000  
                  25345452.659   102055349.463          51.000  
  23328032.014                   122589632.498 0                        48.000  
                  23328031.853    93932308.336          53.000  
  24163985.668                   126982567.900 0                        44.000  
                  24163985.900    97298325.027          48.000  
  28255442.204                   148483101.42710                        35.000  
                  28255443.259   113772947.889          41.000  
  27802892.168                   146104484.194 0                        38.000  
                  27802893.527   111950177.597          42.000  
  24076889.655                   126525058.029 0                        48.000  
                  24076887.636    96947680.075          52.000  
  25759108.282                   135365039.097 0                        45.000  
                  25759109.104   103721279.038          49.000  
 22  1 17  9  1  7.0010000  0  9G05G07G08G09G13G14G20G27G30
  21453131.230    21453127.013   112736422.88610  87846559.956 0        48.000  
        46.000                                                  
  21443764.878    21443760.179   112687730.946 0  87808594.192 0        47.000  
        44.000                                                  
  24495558.719    24495558.969   128725035.767 0 100305229.745 0        35.000  
        39.000                                                  
  23571784.464    23571783.714   123870540.913 0  96522813.560 0        41.000  
        41.000                                                  
  22320135.492                   117293103.635 0                        47.000  
                                                                
  21949929.738    21949926.218   115348208.869 0  89881273.447 0        46.000  
        46.000                                                  
  20979736.675                   110249233.169 0                        48.000  
                                                                
  25004072.712    25004074.517   131397833.278 0 102387921.749 0        33.000  
        37.000                                                  
  20492954.166    20492952.290   107691202.407 0  83915203.311 0        50.000  
        49.000                                                  
 22  1 17  9  1  6.0000000  0  0
 22  1 17  9  1  7.0010000  0  7E03E05E09E13E15E24E25
  25345054.894                   133188791.749 0                        46.000  
                  25345054.537   102053746.641          51.000  
  23328063.035                   122589795.372 0                        48.000  
                  23328062.749    93932433.135          53.000  
  24164404.911                   126984770.453 0                        44.000  
                  24164405.018    97300012.702          48.000  
  28255436.558                   148483069.86110                        36.000  
                  28255437.397   113772923.716          41.000  
  27803269.026                   146106465.296 0                        38.000  
                  27803270.474   111951695.586          42.000  
  24076835.155                   126524772.064 0                        48.000  
                  24076833.404    96947460.960          52.000  
  25758571.372                   135362217.050 0                        45.000  
                  25758572.194   103719116.702          49.000  
 22  1 17  9  1  8.0010000  0  9G05G07G08G09G13G14G20G27G30
  21452953.416    21452949.199   112735488.52510  87845831.892 0        48.000  
        46.000                                                  
  21444105.265    21444100.637   112689519.678 0  87809988.011 0        47.000  
        44.000                                                  
  24495382.834    24495383.192   128724111.735 0 100304509.721 0        35.000  
        39.000                                                  
  23572361.187    23572360.472   123873571.712 0  96525175.230 0        41.000  
        42.000                                                  
  22319615.664                   117290371.734 0                        47.000  
                                                                
  21949384.911    21949381.445   115345345.863 0  89879042.531 0        46.000  
        46.000                                                  
  20979949.531                   110250351.813 0                        48.000  
                                                                
  25004175.709    25004177.443   131398374.479 0 102388343.459 0        33.000  
        37.000                                                  
  20493029.037    20493027.215   107691595.447 0  83915509.573 0        50.000  
        49.000                                                  
 22  1 17  9  1  7.0000000  0  0
 22  1 17  9  1  8.0010000  0  7E03E05E09E13E15E24E25
  25344656.594                   133186700.223 0                        46.000  
                  25344656.665   102052144.040          51.000  
  23328093.823                   122589958.718 0                        48.000  
                  23328093.859    93932558.294          53.000  
  24164824.029                   126986973.379 0                        44.000  
                  24164824.332    97301700.651          48.000  
  28255430.822                   148483038.98810                        36.000  
                  28255431.554   113772900.058          41.000  
  27803646.205                   146108446.841 0                        38.000  
                  27803647.492   111953213.920          42.000  
  24076780.922                   126524486.757 0                        48.000  
                  24076779.046    96947242.343          52.000  
  25758034.390                   135359395.411 0                        45.000  
                  25758035.247   103716954.666          49.000  
 22  1 17  9  1  9.0010000  0  9G05G07G08G09G13G14G20G27G30
  21452775.690    21452771.330   112734554.53110  87845104.091 0        48.000  
        46.000                                                  
  21444445.634    21444441.006   112691308.353 0  87811381.784 0        47.000  
        44.000                                                  
  24495207.039    24495207.343   128723188.003 0 100303789.934 0        35.000  
        39.000                                                  
  23572937.963    23572937.195   123876602.404 0  96527536.804 0        41.000  
        42.000                                                  
  22319095.711                   117287639.689 0                        47.000  
                                                                
  21948840.121    21948836.672   115342482.941 0  89876811.688 0        46.000  
        47.000                                                  
  20980162.441                   110251470.794 0                        48.000  
                                                                
  25004278.688    25004280.440   131398916.019 0 102388765.434 0        33.000  
        37.000                                                  
  20493103.909    20493102.014   107691988.596 0  83915815.923 0        50.000  
        49.000                                                  
 22  1 17  9  1  8.0000000  0  0
 22  1 17  9  1  9.0010000  0  7E03E05E09E13E15E24E25
  25344258.722                   133184608.505 0                        46.000  
                  25344258.579   102050541.301          51.000  
  23328125.094                   122590122.034 0                        48.000  
                  23328124.897    93932683.433          53.000  
  24165243.254                   126989176.178 0                        45.000  
                  24165243.540    97303388.506          48.000  
  28255425.104                   148483008.27010                        36.000  
                  28255425.532   113772876.509          41.000  
  27804023.474                   146110428.389 0                        38.000  
                  27804024.600   111954732.249          42.000  
  24076726.690                   126524201.596 0                        48.000  
                  24076724.832    96947023.843          52.000  
  25757497.479                   135356573.666 0                        45.000  
                  25757498.319   103714792.561          49.000  
 22  1 17  9  1 10.0010000  0  9G05G07G08G09G13G14G20G27G30
  21452598.090    21452593.819   112733621.06310  87844376.708 0        48.000  
        46.000                                                  
  21444786.021    21444781.375   112693097.146 0  87812775.653 0        47.000  
        44.000                                                  
  24495031.172    24495031.690   128722264.676 0 100303070.475 0        35.000  
        39.000                                                  
  23573514.633    23573513.936   123879633.167 0  96529898.437 0        41.000  
        41.000                                                  
  22318575.830                   117284907.694 0                        47.000  
                                                                
  21948295.384    21948291.917   115339620.302 0  89874581.055 0        46.000  
        47.000                                                  
  20980375.475                   110252590.298 0                        48.000  
                                                                
  25004381.739    25004383.580   131399458.038 0 102389187.803 0        33.000  
        37.000                                                  
  20493178.833    20493176.814   107692382.023 0  83916122.492 0        50.000  
        49.000                                                  
 22  1 17  9  1  9.0000000  0  0
 22  1 17  9  1 10.0010000  0  7E03E05E09E13E15E24E25
  25343860.600                   133182516.777 0                        46.000  
                  25343860.529   102048938.542          51.000  
  23328156.293                   122590285.518 0                        48.000  
                  23328156.079    93932808.700          53.000  
  24165662.336                   126991379.031 0                        45.000  
                  24165662.729    97305076.415          48.000  
  28255419.511                   148482977.91010                        36.000  
                  28255419.850   113772853.242          41.000  
  27804400.654                   146112410.096 0                        38.000  
                  27804401.583   111956250.706          42.000  
  24076672.475                   126523916.781 0                        48.000  
                  24076670.581    96946805.604          52.000  
  25756960.569                   135353752.047 0                        45.000  
                  25756961.266   103712630.530          49.000  
 22  1 17  9  1 11.0010000  0  9G05G07G08G09G13G14G20G27G30
  21452420.597    21452416.434   112732688.52110  87843650.060 0        48.000  
        46.000                                                  
  21445126.623    21445121.959   112694886.464 0  87814169.911 0        47.000  
        44.000                                                  
  24494855.555    24494856.181   128721342.176 0 100302351.657 0        35.000  
        39.000                                                  
  23574091.498    23574090.837   123882664.382 0  96532260.430 0        41.000  
        41.000                                                  
  22318056.038                   117282176.137 0                        47.000  
                                                                
  21947750.700    21947747.341   115336758.346 0  89872350.959 0        46.000  
        47.000                                                  
  20980588.653                   110253710.720 0                        48.000  
                                                                
  25004485.022    25004486.845   131400000.988 0 102389610.878 0        33.000  
        37.000                                                  
  20493253.794    20493251.775   107692776.126 0  83916429.578 0        50.000  
        49.000                                                  
 22  1 17  9  1 10.0000000  0  0
 22  1 17  9  1 11.0010000  0  7E03E05E09E13E15E24E25
  25343462.657                   133180425.463 0                        46.000  
                  25343462.568   102047336.100          51.000  
  23328187.278                   122590449.554 0                        48.000  
                  23328187.225    93932934.394          53.000  
  24166081.668                   126993582.338 0                        44.000  
                  24166081.865    97306764.661          48.000  
  28255413.935                   148482948.31910                        36.000  
                  28255414.239   113772830.553          41.000  
  27804778.083                   146114392.374 0                        38.000  
                  27804778.851   111957769.588          42.000  
  24076618.279                   126523632.703 0                        48.000  
                  24076616.474    96946587.936          52.000  
  25756423.622                   135350930.897 0                        45.000  
                  25756424.444   103710468.875          49.000  
 22  1 17  9  1 12.0010000  0  9G05G07G08G09G13G14G20G27G30
  21452243.247    21452239.084   112731756.76710  87842924.010 0        48.000  
        46.000                                                  
  21445467.188    21445462.578   112696676.169 0  87815564.491 0        47.000  
        44.000                                                  
  24494680.010    24494680.725   128720420.402 0 100301633.387 0        35.000  
        39.000                                                  
  23574668.400    23574667.756   123885695.922 0  96534622.664 0        41.000  
        41.000                                                  
  22317536.425                   117279444.881 0                        47.000  
                                                                
  21947206.231    21947202.764   115333896.930 0  89870121.282 0        46.000  
        47.000                                                  
  20980801.991                   110254831.923 0                        48.000  
                                                                
  25004588.466    25004590.271   131400544.688 0 102390034.543 0        33.000  
        37.000                                                  
  20493328.951    20493326.825   107693170.771 0  83916737.091 0        50.000  
        49.000                                                  
 22  1 17  9  1 11.0000000  0  0
 22  1 17  9  1 12.0010000  0  7E03E05E09E13E15E24E25
  25343064.750                   133178334.363 0                        46.000  
                  25343064.678   102045733.828          51.000  
  23328218.638                   122590614.009 0                        48.000  
                  23328218.549    93933060.406          53.000  
  24166500.911                   126995785.965 0                        44.000  
                  24166501.251    97308453.143          48.000  
  28255408.503                   148482919.30310                        36.000  
                  28255408.879   113772808.333          41.000  
  27805155.370                   146116375.072 0                        38.000  
                  27805156.263   111959288.798          42.000  
  24076564.350                   126523349.221 0                        48.000  
                  24076562.581    96946370.722          52.000  
  25755886.855                   135348110.106 0                        45.000  
                  25755887.659   103708307.487          49.000  
 22  1 17  9  1 13.0010000  0  9G05G07G08G09G13G14G20G27G30
  21452066.022    21452061.894   112730825.69310  87842198.500 0        48.000  
        46.000                                                  
  21445807.736    21445803.198   112698466.121 0  87816959.275 0        47.000  
        44.000                                                  
  24494504.643    24494505.340   128719499.167 0 100300915.544 0        35.000  
        39.000                                                  
  23575245.283    23575244.622   123888727.683 0  96536985.071 0        41.000  
        41.000                                                  
  22317016.668                   117276713.799 0                        47.000  
                                                                
  21946661.851    21946658.456   115331035.928 0  89867891.939 0        46.000  
        47.000                                                  
  20981015.544                   110255953.795 0                        48.000  
                                                                
  25004691.945    25004693.911   131401089.072 0 102390458.720 0        33.000  
        37.000                                                  
  20493404.180    20493402.053   107693565.838 0  83917044.938 0        50.000  
        49.000                                                  
 22  1 17  9  1 12.0000000  0  0
 22  1 17  9  1 13.0010000  0  7E03E05E09E13E15E24E25
  25342666.771                   133176243.422 0                        46.000  
                  25342666.699   102044131.683          51.000  
  23328250.052                   122590778.779 0                        48.000  
                  23328249.909    93933186.657          53.000  
  24166920.351                   126997989.794 0                        44.000  
                  24166920.637    97310141.796          48.000  
  28255402.928                   148482890.80710                        36.000  
                  28255403.393   113772786.489          41.000  
  27805532.656                   146118358.085 0                        38.000  
                  27805533.710   111960808.258          42.000  
  24076510.314                   126523066.228 0                        48.000  
                  24076508.795    96946153.888          52.000  
  25755350.105                   135345289.549 0                        45.000  
                  25755351.016   103706146.290          49.000  
 22  1 17  9  1 14.0010000  0  9G05G07G08G09G13G14G20G27G30
  21451888.886    21451884.759   112729894.87710  87841473.193 0        48.000  
        46.000                                                  
  21446148.373    21446143.728   112700255.953 0  87818353.935 0        47.000  
        44.000                                                  
  24494329.241    24494330.063   128718578.099 0 100300197.854 0        35.000  
        39.000                                                  
  23575822.185    23575821.523   123891759.256 0  96539347.322 0        41.000  
        41.000                                                  
  22316496.930                   117273982.511 0                        47.000  
                                                                
  21946117.471    21946114.058   115328174.958 0  89865662.601 0        46.000  
        47.000                                                  
  20981229.132                   110257075.928 0                        48.000  
                                                                
  25004795.568    25004797.516   131401633.662 0 102390883.073 0        33.000  
        37.000                                                  
  20493479.319    20493477.264   107693960.941 0  83917352.813 0        50.000  
        49.000                                                  
 22  1 17  9  1 13.0000000  0  0
 22  1 17  9  1 14.0010000  0  7E03E05E09E13E15E24E25
  25342268.703                   133174152.193 0                        46.000  
                  25342268.792   102042529.313          51.000  
  23328281.323                   122590943.445 0                        48.000  
                  23328281.323    93933312.826          53.000  
  24167339.523                   127000193.412 0                        44.000  
                  24167339.880    97311830.291          48.000  
  28255397.514                   148482862.40110                        36.000  
                  28255397.961   113772764.720          41.000  
  27805909.925                   146120341.009 0                        38.000  
                  27805911.033   111962327.612          42.000  
  24076456.492                   126522783.315 0                        48.000  
                  24076454.974    96945937.111          52.000  
  25754813.409                   135342468.831 0                        45.000  
                  25754814.267   103703984.965          49.000  
 22  1 17  9  1 15.0010000  0  9G05G07G08G09G13G14G20G27G30
  21451711.947    21451707.802   112728964.85310  87840748.493 0        48.000  
        46.000                                                  
  21446489.029    21446484.365   112702046.142 0  87819748.893 0        47.000  
        44.000                                                  
  24494153.928    24494154.947   128717657.759 0 100299480.649 0        35.000  
        39.000                                                  
  23576399.157    23576398.550   123894791.122 0  96541709.826 0        41.000  
        41.000                                                  
  22315977.138                   117271251.502 0                        47.000  
                                                                
  21945573.091    21945569.786   115325314.505 0  89863433.681 0        46.000  
        47.000                                                  
  20981442.881                   110258198.821 0                        48.000  
                                                                
  25004899.512    25004901.317   131402179.061 0 102391308.030 0        33.000  
        37.000                                                  
  20493554.619    20493552.582   107694356.558 0  83917661.090 0        50.000  
        49.000                                                  
 22  1 17  9  1 14.0000000  0  0
 22  1 17  9  1 15.0010000  0  7E03E05E09E13E15E24E25
  25341870.885                   133172061.208 0                        46.000  
                  25341870.849   102040927.132          51.000  
  23328312.969                   122591108.502 0                        48.000  
                  23328312.629    93933439.303          53.000  
  24167759.051                   127002397.333 0                        44.000  
                  24167759.320    97313519.001          48.000  
  28255392.242                   148482834.58310                        36.000  
                  28255392.761   113772743.400          42.000  
  27806287.301                   146122324.326 0                        38.000  
                  27806288.480   111963847.311          42.000  
  24076402.814                   126522500.983 0                        48.000  
                  24076401.224    96945720.778          52.000  
  25754276.516                   135339648.433 0                        45.000  
                  25754277.517   103701823.890          49.000  
 22  1 17  9  1 16.0010000  0  9G05G07G08G09G13G14G20G27G30
  21451535.223    21451531.077   112728035.69210  87840024.467 0        48.000  
        46.000                                                  
  21446829.630    21446825.127   112703836.784 0  87821144.193 0        47.000  
        44.000                                                  
  24493978.776    24493979.812   128716738.109 0 100298764.070 0        35.000  
        39.000                                                  
  23576976.238    23576975.558   123897823.405 0  96544072.649 0        41.000  
        41.000                                                  
  22315457.560                   117268520.875 0                        47.000  
                                                                
  21945028.855    21945025.585   115322454.662 0  89861205.231 0        46.000  
        47.000                                                  
  20981656.738                   110259322.566 0                        48.000  
                                                                
  25005003.367    25005005.207   131402725.247 0 102391733.641 0        33.000  
        37.000                                                  
  20493629.973    20493627.971   107694752.802 0  83917969.850 0        50.000  
        49.000                                                  
 22  1 17  9  1 15.0000000  0  0
 22  1 17  9  1 16.0010000  0  7E03E05E09E13E15E24E25
  25341473.138                   133169970.563 0                        46.000  
                  25341473.049   102039325.207          51.000  
  23328344.347                   122591274.072 0                        48.000  
                  23328344.204    93933566.161          53.000  
  24168178.509                   127004601.652 0                        44.000  
                  24168178.813    97315208.027          48.000  
  28255387.168                   148482807.47710                        36.000  
                  28255387.507   113772722.626          42.000  
  27806665.123                   146124308.145 0                        38.000  
                  27806665.927   111965367.384          42.000  
  24076349.117                   126522219.335 0                        48.000  
                  24076347.634    96945504.965          52.000  
  25753739.910                   135336828.487 0                        45.000  
                  25753740.892   103699663.152          49.000  
 22  1 17  9  1 17.0010000  0  9G05G07G08G09G13G14G20G27G30
  21451358.480    21451354.388   112727106.92210  87839300.747 0        48.000  
        46.000                                                  
  21447170.464    21447166.014   112705627.417 0  87822539.496 0        47.000  
        44.000                                                  
  24493803.731    24493804.767   128715818.770 0 100298047.727 0        35.000  
        39.000                                                  
  23577553.246    23577552.585   123900855.617 0  96546435.400 0        41.000  
        41.000                                                  
  22314937.929                   117265790.141 0                        47.000  
                                                                
  21944484.725    21944481.509   115319594.963 0  89858976.888 0        46.000  
        47.000                                                  
  20981870.737                   110260446.691 0                        48.000  
                                                                
  25005107.293    25005109.294   131403271.783 0 102392159.563 0        33.000  
        37.000                                                  
  20493705.416    20493703.486   107695149.182 0  83918278.710 0        50.000  
        49.000                                                  
 22  1 17  9  1 16.0000000  0  0
 22  1 17  9  1 17.0010000  0  7E03E05E09E13E15E24E25
  25341075.213                   133167879.754 0                        46.000  
                  25341075.248   102037723.161          51.000  
  23328375.814                   122591439.652 0                        48.000  
                  23328375.653    93933693.036          53.000  
  24168597.841                   127006805.875 0                        44.000  
                  24168598.127    97316896.981          48.000  
  28255382.075                   148482780.53910                        36.000  
                  28255382.414   113772701.987          42.000  
  27807042.714                   146126291.988 0                        38.000  
                  27807043.357   111966887.465          42.000  
  24076295.600                   126521937.863 0                        47.000  
                  24076294.134    96945289.292          52.000  
  25753203.303                   135334008.494 0                        45.000  
                  25753204.339   103697502.371          49.000  
 22  1 17  9  1 18.0010000  0  9G05G07G08G09G13G14G20G27G30
  21451181.899    21451177.932   112726179.26910  87838577.890 0        48.000  
        46.000                                                  
  21447511.297    21447506.884   112707418.757 0  87823935.338 0        47.000  
        44.000                                                  
  24493628.954    24493630.098   128714900.504 0 100297332.173 0        35.000  
        39.000                                                  
  23578130.326    23578129.665   123903888.446 0  96548798.666 0        41.000  
        41.000                                                  
  22314418.405                   117263060.054 0                        47.000  
                                                                
  21943940.720    21943937.468   115316736.123 0  89856749.227 0        46.000  
        47.000                                                  
  20982084.915                   110261571.935 0                        48.000  
                                                                
  25005211.559    25005213.453   131403819.477 0 102392586.262 0        33.000  
        37.000                                                  
  20493780.966    20493779.036   107695546.430 0  83918588.259 0        50.000  
        49.000                                                  
 22  1 17  9  1 17.0000000  0  0
 22  1 17  9  1 18.0010000  0  7E03E05E09E13E15E24E25
  25340677.448                   133165789.535 0                        46.000  
                  25340677.484   102036121.559          51.000  
  23328407.532                   122591605.979 0                        48.000  
                  23328407.228    93933820.484          53.000  
  24169017.352                   127009010.752 0                        44.000  
                  24169017.781    97318586.428          48.000  
  28255377.072                   148482754.57210                        36.000  
                  28255377.483   113772682.079          42.000  
  27807420.268                   146128276.582 0                        38.000  
                  27807420.965   111968408.134          42.000  
  24076242.171                   126521657.344 0                        47.000  
                  24076240.599    96945074.349          52.000  
  25752666.964                   135331189.161 0                        45.000  
                  25752667.822   103695342.112          49.000  
 22  1 17  9  1 19.0010000  0  9G05G07G08G09G13G14G20G27G30
  21451005.478    21451001.547   112725252.24510  87837855.549 0        48.000  
        46.000                                                  
  21447852.167    21447847.807   112709210.320 0  87825331.373 0        47.000  
        44.000                                                  
  24493454.320    24493455.392   128713982.712 0 100296617.033 0        35.000  
        39.000                                                  
  23578707.531    23578706.835   123906921.489 0  96551162.069 0        41.000  
        41.000                                                  
  22313898.863                   117260330.093 0                        47.000  
                                                                
  21943396.627    21943393.517   115313877.677 0  89854521.860 0        46.000  
        47.000                                                  
  20982299.093                   110262697.795 0                        48.000  
                                                                
  25005315.985    25005317.879   131404367.737 0 102393013.483 0        33.000  
        37.000                                                  
  20493856.695    20493854.604   107695944.068 0  83918898.107 0        50.000  
        49.000                                                  
 22  1 17  9  1 18.0000000  0  0
 22  1 17  9  1 19.0010000  0  7E03E05E09E13E15E24E25
  25340279.612                   133163699.403 0                        46.000  
                  25340279.737   102034520.026          51.000  
  23328439.160                   122591772.577 0                        48.000  
                  23328438.963    93933948.137          53.000  
  24169436.971                   127011215.790 0                        44.000  
                  24169437.364    97320275.999          48.000  
  28255372.283                   148482729.03310                        36.000  
                  28255372.729   113772662.515          42.000  
  27807797.930                   146130261.419 0                        38.000  
                  27807798.663   111969929.009          42.000  
  24076188.761                   126521377.260 0                        47.000  
                  24076187.439    96944859.739          52.000  
  25752130.339                   135328370.039 0                        45.000  
                  25752131.394   103693182.008          49.000  
 22  1 17  9  1 20.0010000  0  9G05G07G08G09G13G14G20G27G30
  21450829.146    21450825.144   112724325.28810  87837133.243 0        48.000  
        46.000                                                  
  21448193.054    21448188.694   112711001.542 0  87826727.135 0        47.000  
        44.000                                                  
  24493279.597    24493280.794   128713064.890 0 100295901.812 0        35.000  
        39.000                                                  
  23579284.594    23579283.915   123909954.109 0  96553525.143 0        41.000  
        41.000                                                  
  22313379.286                   117257599.712 0                        46.000  
                                                                
  21942852.747    21942849.513   115311019.046 0  89852294.360 0        46.000  
        47.000                                                  
  20982513.325                   110263823.704 0                        48.000  
                                                                
  25005420.376    25005422.234   131404916.013 0 102393440.733 0        34.000  
        37.000                                                  
  20493932.388    20493930.226   107696341.522 0  83919207.813 0        50.000  
        49.000                                                  
 22  1 17  9  1 19.0000000  0  0
 22  1 17  9  1 20.0010000  0  7E03E05E09E13E15E24E25
  25339881.901                   133161608.800 0                        46.000  
                  25339881.848   102032918.141          51.000  
  23328470.788                   122591938.854 0                        48.000  
                  23328470.574    93934075.549          53.000  
  24169856.392                   127013420.400 0                        44.000  
                  24169856.750    97321965.256          48.000  
  28255367.494                   148482703.39810                        36.000  
                  28255367.762   113772642.879          42.000  
  27808175.485                   146132246.007 0                        38.000  
                  27808176.360   111971449.635          42.000  
  24076135.368                   126521097.043 0                        47.000  
                  24076134.010    96944645.034          52.000  
  25751593.893                   135325550.542 0                        45.000  
                  25751594.858   103691021.619          49.000  
 22  1 17  9  1 21.0010000  0  9G05G07G08G09G13G14G20G27G30
  21450652.904    21450648.830   112723399.12910  87836411.553 0        48.000  
        46.000                                                  
  21448533.960    21448529.653   112712793.146 0  87828123.190 0        47.000  
        44.000                                                  
  24493104.999    24493106.303   128712147.775 0 100295187.175 0        35.000  
        39.000                                                  
  23579861.745    23579861.030   123912987.067 0  96555888.487 0        41.000  
        41.000                                                  
  22312859.762                   117254869.645 0                        47.000  
                                                                
  21942308.921    21942305.723   115308160.955 0  89850067.278 0        46.000  
        47.000                                                  
  20982727.753                   110264950.415 0                        49.000  
                                                                
  25005525.035    25005526.715   131405465.104 0 102393868.601 0        34.000  
        37.000                                                  
  20494008.153    20494005.937   107696739.524 0  83919517.944 0        50.000  
        49.000                                                  
 22  1 17  9  1 20.0000000  0  0
 22  1 17  9  1 21.0010000  0  7E03E05E09E13E15E24E25
  25339483.958                   133159518.451 0                        46.000  
                  25339484.280   102031316.448          51.000  
  23328502.702                   122592105.578 0                        48.000  
                  23328502.327    93934203.293          53.000  
  24170275.885                   127015625.354 0                        44.000  
                  24170276.511    97323654.757          48.000  
  28255362.669                   148482678.40510                        36.000  
                  28255363.044   113772623.702          42.000  
  27808553.021                   146134230.994 0                        38.000  
                  27808554.201   111972970.609          42.000  
  24076082.297                   126520817.437 0                        47.000  
                  24076080.832    96944430.782          52.000  
  25751057.322                   135322731.406 0                        45.000  
                  25751058.395   103688861.501          49.000  
