     2.11           OBSERVATION DATA    M (Mixed)           RINEX VERSION / TYPE
RTCM3TORINEX on                         2022-01-19 22:59    PGM / RUN BY / DATE
RTCM3TORINEX                                                MARKER NAME
                                                            OBSERVER / AGENCY
                                                            REC # / TYPE / VERS
                                                            ANT # / TYPE
         .0000         .0000         .0000                  APPROX POSITION XYZ
         .0000         .0000         .0000                  ANTENNA: DELTA H/E/N
     1     1                                                WAVELENGTH FACT L1/2
     9    C1    C2    L1    L2    S1    S2    C7    L7    S7# / TYPES OF OBSERV
  2022     1    19    22    59   21.0000000     GPS         TIME OF FIRST OBS
                                                            END OF HEADER
 22  1 19 22 59 21.0000000  0  7E02E04E11E12E19E24E25
  27453869.694                   144271624.817 0                        39.000  
                  27453868.408   110545789.536          44.000  
  26404417.008                   138755559.072 0                        44.000  
                  26404414.757   106319294.655          48.000  
  22909584.955                   120390697.030 0                        46.000  
                  22909579.862    92247403.927          49.000  
  22381118.447                   117614260.537 0                        44.000  
                  22381114.212    90120028.067          49.000  
  24825057.659                   130456610.990 0                        41.000  
                  24825054.961    99960262.851          45.000  
  27545496.201                   144753065.488 0                        41.000  
                  27545494.807   110914688.989          46.000  
  26177434.297                   137563875.322 0                        44.000  
                  26177433.510   105406084.343          48.000  
 22  1 19 22 59 22.0000000  0  8G01G08G10G16G21G23G27G32
  24505025.728    24505025.513   128775524.971 0 100344564.983 0        35.000  
        37.000                                                  
  20804307.006    20804304.576   109326614.086 0  85189570.819 0        50.000  
        49.000                                                  
  20946205.883    20946202.112   110073748.088 0  85770789.396 0        50.000  
        48.000                                                  
  24097788.461                   126634365.411 0                        42.000  
                                                                
  22494260.722                   118207584.049 0                        46.000  
                                                                
  22857551.218    22857545.893   120116467.012 0  93598156.540 0        43.000  
        44.000                                                  
  20367033.842    20367029.750   107028739.772 0  83399803.160 0        50.000  
        49.000                                                  
  23056428.744    23056425.617   121162860.375 0  94412066.724 0        44.000  
        42.000                                                  
 22  1 19 22 59 21.0000000  0  0
 22  1 19 22 59 22.0000000  0  7E02E04E11E12E19E24E25
  27453649.584                   144270468.806 0                        39.000  
                  27453648.333   110544903.761          44.000  
  26403865.856                   138752662.414 0                        44.000  
                  26403863.658   106317075.144          48.000  
  22909321.333                   120389311.627 0                        46.000  
                  22909316.151    92246342.383          49.000  
  22381283.610                   117615128.952 0                        44.000  
                  22381279.482    90120693.473          49.000  
  24824958.790                   130456091.651 0                        42.000  
                  24824956.235    99959864.925          45.000  
  27546057.878                   144756016.721 0                        41.000  
                  27546056.323   110916950.324          46.000  
  26177665.146                   137565088.453 0                        44.000  
                  26177664.360   105407013.885          48.000  
 22  1 19 22 59 23.0000000  0  8G01G08G10G16G21G23G27G32
  24504417.466    24504417.234   128772328.693 0 100342074.368 0        35.000  
        37.000                                                  
  20804072.279    20804069.795   109325380.479 0  85188609.565 0        50.000  
        49.000                                                  
  20946455.459    20946451.689   110075060.148 0  85771811.778 0        50.000  
        48.000                                                  
  24098463.749                   126637914.597 0                        42.000  
                                                                
  22493891.137                   118205641.902 0                        46.000  
                                                                
  22858131.622    22858126.386   120119517.201 0  93600533.309 0        43.000  
        44.000                                                  
  20367243.356    20367239.407   107029841.194 0  83400661.417 0        50.000  
        49.000                                                  
  23055887.420    23055884.239   121160016.020 0  94409850.327 0        44.000  
        42.000                                                  
 22  1 19 22 59 22.0000000  0  0
 22  1 19 22 59 23.0000000  0  7E02E04E11E12E19E24E25
  27453429.723                   144269313.332 0                        39.000  
                  27453428.580   110544018.404          45.000  
  26403314.704                   138749766.013 0                        44.000  
                  26403312.434   106314855.818          48.000  
  22909057.765                   120387926.447 0                        46.000  
                  22909052.476    92245281.011          49.000  
  22381449.167                   117615997.639 0                        44.000  
                  22381444.735    90121359.084          49.000  
  24824860.010                   130455572.917 0                        41.000  
                  24824857.509    99959467.442          45.000  
  27546619.752                   144758968.107 0                        41.000  
                  27546617.965   110919211.784          46.000  
  26177896.246                   137566302.108 0                        44.000  
                  26177895.353   105407943.824          48.000  
 22  1 19 22 59 24.0000000  0  8G01G08G10G16G21G23G27G32
  24503809.312    24503808.936   128769132.263 0 100339583.646 0        35.000  
        37.000                                                  
  20803837.623    20803835.228   109324147.213 0  85187648.573 0        50.000  
        49.000                                                  
  20946705.268    20946701.409   110076372.498 0  85772834.388 0        50.000  
        48.000                                                  
  24099139.126                   126641463.701 0                        42.000  
                                                                
  22493521.481                   118203699.731 0                        46.000  
                                                                
  22858712.043    22858706.772   120122567.425 0  93602910.107 0        43.000  
        44.000                                                  
  20367453.103    20367449.100   107030943.009 0  83401519.970 0        50.000  
        49.000                                                  
  23055346.185    23055343.004   121157171.768 0  94407634.027 0        44.000  
        42.000                                                  
 22  1 19 22 59 23.0000000  0  0
 22  1 19 22 59 24.0000000  0  7E02E04E11E12E19E24E25
  27453209.970                   144268158.119 0                        40.000  
                  27453208.737   110543133.248          45.000  
  26402763.641                   138746869.587 0                        44.000  
                  26402761.247   106312636.473          48.000  
  22908794.233                   120386541.211 0                        46.000  
                  22908788.944    92244219.597          49.000  
  22381614.437                   117616866.303 0                        44.000  
                  22381610.077    90122024.691          49.000  
  24824761.427                   130455054.458 0                        41.000  
                  24824758.889    99959070.186          45.000  
  27547181.446                   144761919.379 0                        41.000  
                  27547179.552   110921473.139          46.000  
  26178127.329                   137567516.007 0                        44.000  
                  26178126.239   105408873.955          48.000  
 22  1 19 22 59 25.0000000  0  8G01G08G10G16G21G23G27G32
  24503201.122    24503200.764   128765936.367 0 100337093.325 0        35.000  
        37.000                                                  
  20803603.110    20803600.662   109322914.929 0  85186688.350 0        50.000  
        49.000                                                  
  20946955.149    20946951.414   110077685.795 0  85773857.737 0        50.000  
        48.000                                                  
  24099814.575                   126645013.342 0                        42.000  
                                                                
  22493151.985                   118201758.189 0                        46.000  
                                                                
  22859292.590    22859287.462   120125618.356 0  93605287.454 0        43.000  
        44.000                                                  
  20367662.921    20367659.025   107032045.851 0  83402379.327 0        50.000  
        49.000                                                  
  23054805.129    23054801.805   121154328.270 0  94405418.328 0        44.000  
        42.000                                                  
 22  1 19 22 59 24.0000000  0  0
 22  1 19 22 59 25.0000000  0  7E02E04E11E12E19E24E25
  27452990.431                   144267003.824 0                        40.000  
                  27452989.055   110542248.779          44.000  
  26402212.596                   138743973.770 0                        44.000  
                  26402210.184   106310417.615          48.000  
  22908530.647                   120385156.571 0                        46.000  
                  22908525.429    92243158.634          49.000  
  22381779.869                   117617735.613 0                        44.000  
                  22381775.401    90122690.788          49.000  
  24824662.951                   130454536.960 0                        42.000  
                  24824660.360    99958673.652          45.000  
  27547742.998                   144764871.164 0                        41.000  
                  27547741.390   110923734.903          46.000  
  26178358.536                   137568730.816 0                        44.000  
                  26178357.428   105409804.780          48.000  
 22  1 19 22 59 26.0000000  0  8G01G08G10G16G21G23G27G32
  24502592.878    24502592.521   128762740.248 0 100334602.875 0        35.000  
        37.000                                                  
  20803368.829    20803366.202   109321682.880 0  85185728.324 0        50.000  
        49.000                                                  
  20947205.118    20947201.437   110078999.287 0  85774881.237 0        51.000  
        48.000                                                  
  24100490.025                   126648562.827 0                        42.000  
                                                                
  22492782.543                   118199816.543 0                        46.000  
                                                                
  22859873.226    22859867.973   120128669.241 0  93607664.771 0        43.000  
        43.000                                                  
  20367872.846    20367868.915   107033148.992 0  83403238.911 0        50.000  
        49.000                                                  
  23054264.019    23054260.749   121151484.815 0  94403202.635 0        44.000  
        42.000                                                  
 22  1 19 22 59 25.0000000  0  0
 22  1 19 22 59 26.0000000  0  7E02E04E11E12E19E24E25
  27452770.893                   144265849.705 0                        40.000  
                  27452769.481   110541364.448          44.000  
  26401661.515                   138741077.845 0                        44.000  
                  26401659.085   106308198.646          48.000  
  22908267.186                   120383771.773 0                        46.000  
                  22908261.861    92242097.557          49.000  
  22381945.104                   117618604.829 0                        44.000  
                  22381940.851    90123356.806          49.000  
  24824564.403                   130454019.660 0                        42.000  
                  24824561.830    99958277.285          45.000  
  27548304.747                   144767822.744 0                        41.000  
                  27548303.031   110925996.501          46.000  
  26178589.618                   137569945.778 0                        44.000  
                  26178588.653   105410735.715          48.000  
 22  1 19 22 59 27.0000000  0  8G01G08G10G16G21G23G27G32
  24501984.652    24501984.313   128759544.202 0 100332112.454 0        35.000  
        37.000                                                  
  20803134.477    20803131.868   109320451.366 0  85184768.695 0        50.000  
        49.000                                                  
  20947455.178    20947451.640   110080313.257 0  85775905.112 0        51.000  
        48.000                                                  
  24101165.420                   126652112.398 0                        42.000  
                                                                
  22492413.119                   118197875.057 0                        46.000  
                                                                
  22860453.630    22860448.716   120131720.380 0  93610042.268 0        43.000  
        44.000                                                  
  20368082.950    20368078.858   107034252.703 0  83404098.952 0        50.000  
        49.000                                                  
  23053722.963    23053719.782   121148641.631 0  94400987.179 0        44.000  
        42.000                                                  
 22  1 19 22 59 26.0000000  0  0
 22  1 19 22 59 27.0000000  0  7E02E04E11E12E19E24E25
  27452551.407                   144264695.995 0                        40.000  
                  27452549.888   110540480.456          44.000  
  26401110.596                   138738182.090 0                        44.000  
                  26401108.058   106305979.814          48.000  
  22908003.850                   120382387.103 0                        46.000  
                  22907998.490    92241036.581          49.000  
  22382110.499                   117619474.215 0                        44.000  
                  22382106.354    90124022.961          49.000  
  24824466.052                   130453502.842 0                        42.000  
                  24824463.568    99957881.279          45.000  
  27548866.245                   144770774.382 0                        41.000  
                  27548864.655   110928258.146          46.000  
  26178820.986                   137571161.162 0                        44.000  
                  26178819.950   105411666.984          48.000  
 22  1 19 22 59 28.0000000  0  8G01G08G10G16G21G23G27G32
  24501376.569    24501376.033   128756348.221 0 100329622.077 0        35.000  
        37.000                                                  
  20802900.196    20802897.605   109319220.415 0  85183809.517 0        50.000  
        49.000                                                  
  20947705.380    20947701.752   110081627.728 0  85776929.370 0        51.000  
        48.000                                                  
  24101840.994                   126655662.089 0                        42.000  
                                                                
  22492043.677                   118195933.769 0                        46.000  
                                                                
  22861034.284    22861029.405   120134771.737 0  93612419.970 0        43.000  
        44.000                                                  
  20368293.107    20368289.051   107035357.021 0  83404959.450 0        50.000  
        49.000                                                  
  23053181.943    23053178.798   121145798.770 0  94398771.962 0        44.000  
        42.000                                                  
 22  1 19 22 59 27.0000000  0  0
 22  1 19 22 59 28.0000000  0  7E02E04E11E12E19E24E25
  27452332.119                   144263542.792 0                        40.000  
                  27452330.457   110539596.820          44.000  
  26400559.479                   138735286.482 0                        44.000  
                  26400557.013   106303761.112          48.000  
  22907740.354                   120381002.587 0                        46.000  
                  22907734.975    92239975.711          49.000  
  22382275.984                   117620343.801 0                        44.000  
                  22382271.821    90124689.267          49.000  
  24824367.969                   130452986.523 0                        42.000  
                  24824365.253    99957485.663          45.000  
  27549428.065                   144773726.106 0                        41.000  
                  27549426.332   110930519.854          46.000  
  26179052.426                   137572377.003 0                        44.000  
                  26179051.318   105412598.607          48.000  
 22  1 19 22 59 29.0000000  0  8G01G08G10G16G21G23G27G32
  24500768.343    24500767.736   128753152.328 0 100327131.785 0        35.000  
        36.000                                                  
  20802666.112    20802663.521   109317990.018 0  85182850.762 0        50.000  
        49.000                                                  
  20947955.778    20947951.901   110082942.722 0  85777954.048 0        51.000  
        48.000                                                  
  24102516.550                   126659211.929 0                        42.000  
                                                                
  22491674.253                   118193992.685 0                        46.000  
                                                                
  22861615.009    22861610.095   120137823.414 0  93614797.888 0        43.000  
        44.000                                                  
  20368503.301    20368499.280   107036461.946 0  83405820.443 0        50.000  
        49.000                                                  
  23052640.940    23052637.867   121142956.264 0  94396557.022 0        44.000  
        42.000                                                  
 22  1 19 22 59 28.0000000  0  0
 22  1 19 22 59 29.0000000  0  7E02E04E11E12E19E24E25
  27452112.830                   144262390.073 0                        40.000  
                  27452111.061   110538713.577          44.000  
  26400008.524                   138732391.100 0                        44.000  
                  26400006.058   106301542.575          48.000  
  22907476.929                   120379618.249 0                        46.000  
                  22907471.425    92238914.989          49.000  
  22382441.576                   117621213.610 0                        44.000  
                  22382437.359    90125355.742          49.000  
  24824269.796                   130452470.735 0                        41.000  
                  24824267.152    99957090.453          45.000  
  27549989.796                   144776677.938 0                        41.000  
                  27549988.062   110932781.645          46.000  
  26179283.865                   137573593.338 0                        44.000  
                  26179282.704   105413530.604          48.000  
 22  1 19 22 59 30.0000000  0  8G01G08G10G16G21G23G27G32
  24500160.189    24500159.528   128749956.344 0 100324641.362 0        35.000  
        36.000                                                  
  20802432.063    20802429.508   109316759.941 0  85181892.258 0        49.000  
        49.000                                                  
  20948206.052    20948202.228   110084258.015 0  85778978.952 0        51.000  
        48.000                                                  
  24103191.982                   126662761.670 0                        42.000  
                                                                
  22491304.829                   118192051.579 0                        46.000  
                                                                
  22862195.806    22862190.767   120140875.105 0  93617175.829 0        43.000  
        44.000                                                  
  20368713.601    20368709.545   107037567.265 0  83406681.723 0        50.000  
        49.000                                                  
  23052099.937    23052096.971   121140113.869 0  94394342.169 0        44.000  
        42.000                                                  
 22  1 19 22 59 29.0000000  0  0
 22  1 19 22 59 30.0000000  0  7E02E04E11E12E19E24E25
  27451893.506                   144261237.615 0                        39.000  
                  27451891.737   110537830.516          44.000  
  26399457.514                   138729495.689 0                        44.000  
                  26399455.138   106299324.017          48.000  
  22907213.575                   120378233.870 0                        46.000  
                  22907208.053    92237854.227          49.000  
  22382607.097                   117622083.406 0                        44.000  
                  22382602.862    90126022.216          49.000  
  24824171.678                   130451955.264 0                        42.000  
                  24824169.051    99956695.472          45.000  
  27550551.508                   144779629.650 0                        41.000  
                  27550549.722   110935043.351          46.000  
  26179515.377                   137574809.916 0                        44.000  
                  26179514.287   105414462.783          48.000  
 22  1 19 22 59 31.0000000  0  8G01G08G10G16G21G23G27G32
  24499551.928    24499551.374   128746760.597 0 100322151.211 0        35.000  
        36.000                                                  
  20802198.104    20802195.531   109315530.592 0  85180934.326 0        50.000  
        49.000                                                  
  20948456.397    20948452.626   110085573.983 0  85780004.374 0        51.000  
        48.000                                                  
  24103867.502                   126666311.721 0                        42.000  
                                                                
  22490935.512                   118190110.844 0                        46.000  
                                                                
  22862776.674    22862771.546   120143927.240 0  93619554.121 0        43.000  
        44.000                                                  
  20368924.170    20368920.078   107038673.358 0  83407543.609 0        50.000  
        49.000                                                  
  23051559.185    23051556.040   121137271.961 0  94392127.714 0        44.000  
        42.000                                                  
 22  1 19 22 59 30.0000000  0  0
 22  1 19 22 59 31.0000000  0  7E02E04E11E12E19E24E25
  27451674.288                   144260085.806 0                        40.000  
                  27451672.555   110536947.972          44.000  
  26398906.487                   138726600.644 0                        44.000  
                  26398904.111   106297105.734          48.000  
  22906950.293                   120376849.814 0                        46.000  
                  22906944.628    92236793.716          49.000  
  22382772.815                   117622953.585 0                        44.000  
                  22382768.454    90126688.974          49.000  
  24824073.612                   130451440.456 0                        42.000  
                  24824071.039    99956300.996          45.000  
  27551113.293                   144782581.611 0                        41.000  
                  27551111.542   110937305.243          46.000  
  26179747.013                   137576027.129 0                        44.000  
                  26179745.851   105415395.452          48.000  
 22  1 19 22 59 32.0000000  0  8G01G08G10G16G21G23G27G32
  24498943.666    24498943.166   128743564.734 0 100319660.918 0        35.000  
        36.000                                                  
  20801964.181    20801961.661   109314301.563 0  85179976.643 0        50.000  
        49.000                                                  
  20948706.831    20948703.043   110086890.236 0  85781030.028 0        51.000  
        48.000                                                  
  24104543.130                   126669861.667 0                        42.000  
                                                                
  22490566.212                   118188170.087 0                        46.000  
                                                                
  22863357.453    22863352.361   120146979.439 0  93621932.457 0        43.000  
        44.000                                                  
  20369134.685    20369130.629   107039779.830 0  83408405.800 0        50.000  
        49.000                                                  
  23051018.308    23051015.198   121134430.183 0  94389913.332 0        44.000  
        42.000                                                  
 22  1 19 22 59 31.0000000  0  0
 22  1 19 22 59 32.0000000  0  7E02E04E11E12E19E24E25
  27451455.357                   144258934.252 0                        40.000  
                  27451453.535   110536065.615          44.000  
  26398355.532                   138723705.570 0                        44.000  
                  26398353.298   106294887.433          48.000  
  22906686.832                   120375465.687 0                        46.000  
                  22906681.221    92235733.158          49.000  
  22382938.353                   117623823.754 0                        44.000  
                  22382934.047    90127355.723          49.000  
  24823975.726                   130450925.942 0                        42.000  
                  24823973.171    99955906.778          45.000  
  27551674.970                   144785533.469 0                        41.000  
                  27551673.254   110939567.055          46.000  
  26179978.559                   137577244.584 0                        44.000  
                  26179977.595   105416328.305          48.000  
 22  1 19 22 59 33.0000000  0  8G01G08G10G16G21G23G27G32
  24498335.601    24498335.047   128740369.313 0 100317170.973 0        35.000  
        36.000                                                  
  20801730.543    20801727.917   109313073.435 0  85179019.662 0        49.000  
        49.000                                                  
  20948957.516    20948953.727   110088207.351 0  85782056.340 0        51.000  
        48.000                                                  
  24105218.686                   126673412.080 0                        42.000  
                                                                
  22490197.128                   118186229.868 0                        46.000  
                                                                
  22863938.375    22863933.157   120150032.233 0  93624311.256 0        43.000  
        44.000                                                  
  20369345.486    20369341.394   107040887.241 0  83409268.715 0        50.000  
        49.000                                                  
  23050477.680    23050474.696   121131589.064 0  94387699.464 0        44.000  
        42.000                                                  
 22  1 19 22 59 32.0000000  0  0
 22  1 19 22 59 33.0000000  0  7E02E04E11E12E19E24E25
  27451236.390                   144257783.529 0                        40.000  
                  27451234.460   110535183.878          44.000  
  26397804.666                   138720811.030 0                        44.000  
                  26397802.414   106292669.525          48.000  
  22906423.425                   120374082.068 0                        46.000  
                  22906418.010    92234672.981          49.000  
  22383104.053                   117624694.470 0                        44.000  
                  22383099.746    90128022.894          49.000  
  24823877.964                   130450412.278 0                        42.000  
                  24823875.373    99955513.191          45.000  
  27552236.665                   144788485.753 0                        41.000  
                  27552235.056   110941829.181          46.000  
  26180210.446                   137578462.850 0                        44.000  
                  26180209.427   105417261.777          48.000  
 22  1 19 22 59 34.0000000  0  8G01G08G10G16G21G23G27G32
  24497727.465    24497727.018   128737173.854 0 100314681.017 0        35.000  
        36.000                                                  
  20801496.942    20801494.404   109311845.752 0  85178063.027 0        50.000  
        49.000                                                  
  20949208.236    20949204.537   110089524.854 0  85783082.980 0        51.000  
        48.000                                                  
  24105894.368                   126676962.498 0                        42.000  
                                                                
  22489827.829                   118184289.731 0                        46.000  
                                                                
  22864519.404    22864514.133   120153085.181 0  93626690.179 0        43.000  
        44.000                                                  
  20369556.269    20369552.159   107041995.157 0  83410132.029 0        50.000  
        49.000                                                  
  23049937.035    23049934.015   121128748.166 0  94385485.796 0        44.000  
        42.000                                                  
 22  1 19 22 59 33.0000000  0  0
 22  1 19 22 59 34.0000000  0  7E02E04E11E12E19E24E25
  27451017.370                   144256633.158 0                        40.000  
                  27451015.654   110534302.438          44.000  
  26397253.799                   138717916.552 0                        44.000  
                  26397251.816   106290451.699          48.000  
  22906160.017                   120372698.494 0                        46.000  
                  22906154.675    92233612.848          49.000  
  22383269.663                   117625565.288 0                        44.000  
                  22383265.446    90128690.140          49.000  
  24823780.257                   130449899.035 0                        42.000  
                  24823777.844    99955119.927          45.000  
  27552798.770                   144791438.008 0                        41.000  
                  27552796.823   110944091.312          46.000  
  26180442.278                   137579681.468 0                        44.000  
                  26180441.278   105418195.532          48.000  
 22  1 19 22 59 35.0000000  0  8G01G08G10G16G21G23G27G32
  24497119.292    24497118.846   128733978.120 0 100312190.839 0        35.000  
        36.000                                                  
  20801263.411    20801260.803   109310618.267 0  85177106.540 0        50.000  
        49.000                                                  
  20949458.903    20949455.239   110090842.506 0  85784109.729 0        51.000  
        48.000                                                  
  24106570.031                   126680512.697 0                        42.000  
                                                                
  22489458.494                   118182349.445 0                        46.000  
                                                                
  22865100.380    22865095.091   120156138.028 0  93629069.023 0        43.000  
        44.000                                                  
  20369767.177    20369763.103   107043103.313 0  83410995.522 0        50.000  
        49.000                                                  
  23049396.372    23049393.352   121125907.239 0  94383272.077 0        44.000  
        42.000                                                  
 22  1 19 22 59 34.0000000  0  0
 22  1 19 22 59 35.0000000  0  7E02E04E11E12E19E24E25
  27450798.492                   144255482.924 0                        40.000  
                  27450796.776   110533421.084          44.000  
  26396703.094                   138715021.936 0                        44.000  
                  26396700.932   106288233.728          48.000  
  22905896.807                   120371314.713 0                        46.000  
                  22905891.392    92232552.547          49.000  
  22383435.398                   117626435.956 0                        44.000  
                  22383431.145    90129357.267          49.000  
  24823682.710                   130449385.935 0                        41.000  
                  24823680.137    99954726.772          45.000  
  27553360.537                   144794389.998 0                        41.000  
                  27553358.678   110946353.231          46.000  
  26180674.308                   137580900.200 0                        44.000  
                  26180673.271   105419129.361          48.000  
 22  1 19 22 59 36.0000000  0  8G01G08G10G16G21G23G27G32
  24496511.192    24496510.745   128730782.429 0 100309700.649 0        35.000  
        36.000                                                  
  20801029.935    20801027.308   109309391.265 0  85176150.437 0        49.000  
        49.000                                                  
  20949709.748    20949706.210   110092160.587 0  85785136.796 0        51.000  
        48.000                                                  
  24107245.534                   126684062.933 0                        42.000  
                                                                
  22489089.284                   118180409.270 0                        46.000  
                                                                
  22865681.373    22865675.995   120159191.058 0  93631448.014 0        43.000  
        44.000                                                  
  20369978.174    20369974.046   107044211.983 0  83411859.419 0        50.000  
        49.000                                                  
  23048855.709    23048852.868   121123066.558 0  94381058.554 0        44.000  
        42.000                                                  
 22  1 19 22 59 35.0000000  0  0
 22  1 19 22 59 36.0000000  0  7E02E04E11E12E19E24E25
  27450579.543                   144254333.081 0                        40.000  
                  27450578.024   110532540.028          44.000  
  26396152.299                   138712127.408 0                        44.000  
                  26396150.048   106286015.849          48.000  
  22905633.399                   120369931.024 0                        46.000  
                  22905628.146    92231492.308          49.000  
  22383601.062                   117627306.728 0                        44.000  
                  22383596.845    90130024.492          49.000  
  24823585.091                   130448873.272 0                        41.000  
                  24823582.536    99954333.957          45.000  
  27553922.482                   144797342.010 0                        41.000  
                  27553920.391   110948615.155          46.000  
  26180906.319                   137582119.305 0                        44.000  
                  26180905.247   105420063.476          48.000  
 22  1 19 22 59 37.0000000  0  8G01G08G10G16G21G23G27G32
  24495903.109    24495902.662   128727587.014 0 100307210.731 0        35.000  
        36.000                                                  
  20800796.565    20800794.010   109308165.062 0  85175194.954 0        49.000  
        49.000                                                  
  20949960.772    20949957.234   110093479.422 0  85786164.455 0        51.000  
        48.000                                                  
  24107921.215                   126687613.546 0                        42.000  
                                                                
  22488720.182                   118178469.526 0                        46.000  
                                                                
  22866262.474    22866256.952   120162244.613 0  93633827.384 0        43.000  
        43.000                                                  
  20370189.315    20370185.187   107045321.512 0  83412723.996 0        51.000  
        49.000                                                  
  23048315.261    23048312.330   121120226.452 0  94378845.492 0        44.000  
        42.000                                                  
 22  1 19 22 59 36.0000000  0  0
 22  1 19 22 59 37.0000000  0  7E02E04E11E12E19E24E25
  27450360.897                   144253183.954 0                        40.000  
                  27450359.182   110531659.528          45.000  
  26395601.504                   138709233.320 0                        44.000  
                  26395599.324   106283798.297          48.000  
  22905370.099                   120368547.746 0                        46.000  
                  22905364.935    92230432.394          49.000  
  22383766.975                   117628177.965 0                        44.000  
                  22383762.687    90130692.066          49.000  
  24823487.651                   130448361.357 0                        41.000  
                  24823485.150    99953941.711          45.000  
  27554484.123                   144800294.332 0                        41.000  
                  27554482.140   110950877.328          46.000  
  26181138.402                   137583339.117 0                        44.000  
                  26181137.491   105420998.140          48.000  
 22  1 19 22 59 38.0000000  0  8G01G08G10G16G21G23G27G32
  24495295.026    24495294.651   128724391.784 0 100304720.955 0        35.000  
        36.000                                                  
  20800563.410    20800560.819   109306939.440 0  85174239.922 0        49.000  
        49.000                                                  
  20950211.850    20950208.312   110094798.815 0  85787192.555 0        51.000  
        48.000                                                  
  24108596.896                   126691164.343 0                        42.000  
                                                                
  22488351.043                   118176530.043 0                        46.000  
                                                                
  22866843.682    22866838.053   120165298.458 0  93636207.009 0        43.000  
        43.000                                                  
  20370400.562    20370396.542   107046431.691 0  83413589.070 0        50.000  
        49.000                                                  
  23047774.830    23047771.989   121117386.713 0  94376632.717 0        44.000  
        42.000                                                  
 22  1 19 22 59 37.0000000  0  0
 22  1 19 22 59 38.0000000  0  7E02E04E11E12E19E24E25
  27450142.449                   144252035.343 0                        40.000  
                  27450140.715   110530779.429          45.000  
  26395050.924                   138706339.466 0                        44.000  
                  26395048.655   106281580.933          48.000  
  22905107.067                   120367164.667 0                        46.000  
                  22905101.635    92229372.636          49.000  
  22383932.979                   117629049.452 0                        44.000  
                  22383928.458    90131359.827          49.000  
  24823390.247                   130447850.006 0                        41.000  
                  24823387.835    99953549.901          45.000  
  27555046.014                   144803246.833 0                        41.000  
                  27555043.852   110953139.621          46.000  
  26181370.574                   137584559.445 0                        44.000  
                  26181369.645   105421933.199          48.000  
 22  1 19 22 59 39.0000000  0  8G01G08G10G16G21G23G27G32
  24494686.961    24494686.586   128721196.472 0 100302231.097 0        35.000  
        36.000                                                  
  20800330.237    20800327.646   109305714.225 0  85173285.207 0        49.000  
        49.000                                                  
  20950462.999    20950459.461   110096118.554 0  85788220.923 0        51.000  
        48.000                                                  
  24109272.578                   126694715.113 0                        42.000  
                                                                
  22487982.012                   118174590.607 0                        46.000  
                                                                
  22867424.711    22867419.297   120168352.438 0  93638586.724 0        43.000  
        43.000                                                  
  20370611.863    20370607.879   107047542.329 0  83414454.498 0        50.000  
        49.000                                                  
  23047234.453    23047231.576   121114547.179 0  94374420.082 0        44.000  
        42.000                                                  
 22  1 19 22 59 38.0000000  0  0
 22  1 19 22 59 39.0000000  0  7E02E04E11E12E19E24E25
  27449923.964                   144250887.085 0                        40.000  
                  27449922.320   110529899.588          45.000  
  26394500.183                   138703445.666 0                        44.000  
                  26394498.003   106279363.606          48.000  
  22904843.910                   120365781.611 0                        46.000  
                  22904838.407    92228312.886          49.000  
  22384098.589                   117629921.004 0                        44.000  
                  22384094.300    90132027.639          49.000  
  24823292.933                   130447339.025 0                        41.000  
                  24823290.520    99953158.367          45.000  
  27555607.888                   144806199.258 0                        41.000  
                  27555605.833   110955401.866          46.000  
  26181602.854                   137585780.094 0                        44.000  
                  26181601.889   105422868.498          48.000  
 22  1 19 22 59 40.0000000  0  8G01G08G10G16G21G23G27G32
  24494078.807    24494078.521   128718001.043 0 100299741.125 0        35.000  
        36.000                                                  
  20800097.154    20800094.581   109304489.322 0  85172330.746 0        49.000  
        49.000                                                  
  20950714.148    20950710.663   110097438.565 0  85789249.508 0        51.000  
        48.000                                                  
  24109948.223                   126698265.755 0                        42.000  
                                                                
  22487612.963                   118172651.107 0                        46.000  
                                                                
  22868005.847    22868000.451   120171406.404 0  93640966.461 0        43.000  
        43.000                                                  
  20370823.236    20370819.251   107048653.306 0  83415320.199 0        50.000  
        49.000                                                  
  23046694.093    23046691.270   121111707.707 0  94372207.509 0        43.000  
        42.000                                                  
 22  1 19 22 59 39.0000000  0  0
 22  1 19 22 59 40.0000000  0  7E02E04E11E12E19E24E25
  27449705.533                   144249739.029 0                        40.000  
                  27449703.818   110529019.910          45.000  
  26393949.495                   138700551.783 0                        44.000  
                  26393947.422   106277146.224          48.000  
  22904580.610                   120364398.450 0                        46.000  
                  22904575.214    92227253.063          49.000  
  22384264.574                   117630792.503 0                        44.000  
                  22384260.196    90132695.411          49.000  
  24823195.725                   130446828.296 0                        41.000  
                  24823193.456    99952767.027          45.000  
  27556169.637                   144809151.501 0                        41.000  
                  27556167.546   110957663.990          46.000  
  26181835.097                   137587000.947 0                        44.000  
                  26181834.150   105423803.956          48.000  
 22  1 19 22 59 41.0000000  0  8G01G08G10G16G21G23G27G32
  24493470.849    24493470.456   128714805.904 0 100297251.445 0        35.000  
        36.000                                                  
  20799864.249    20799861.622   109303265.264 0  85171376.930 0        49.000  
        49.000                                                  
  20950965.529    20950961.920   110098759.352 0  85790278.692 0        51.000  
        48.000                                                  
  24110624.012                   126701816.792 0                        42.000  
                                                                
  22487244.004                   118170712.082 0                        46.000  
                                                                
  22868587.073    22868581.766   120174460.933 0  93643346.599 0        43.000  
        43.000                                                  
  20371034.912    20371030.910   107049765.171 0  83416186.583 0        51.000  
        49.000                                                  
  23046153.859    23046151.107   121108868.848 0  94369995.416 0        44.000  
        42.000                                                  
 22  1 19 22 59 40.0000000  0  0
 22  1 19 22 59 41.0000000  0  7E02E04E11E12E19E24E25
  27449487.102                   144248591.751 0                        40.000  
                  27449485.458   110528140.823          45.000  
  26393399.004                   138697658.388 0                        44.000  
                  26393396.717   106274929.200          48.000  
  22904317.382                   120363015.735 0                        46.000  
                  22904312.110    92226193.580          49.000  
  22384430.524                   117631664.498 0                        44.000  
                  22384426.039    90133363.558          49.000  
  24823098.679                   130446318.371 0                        41.000  
                  24823096.409    99952376.301          45.000  
  27556731.528                   144812104.146 0                        41.000  
                  27556729.437   110959926.400          46.000  
  26182067.681                   137588222.552 0                        44.000  
                  26182066.555   105424739.984          48.000  
 22  1 19 22 59 42.0000000  0  8G01G08G10G16G21G23G27G32
  24492862.963    24492862.355   128711611.008 0 100294761.891 0        35.000  
        36.000                                                  
  20799631.344    20799628.807   109302041.854 0  85170423.621 0        49.000  
        49.000                                                  
  20951217.036    20951213.498   110100080.740 0  85791308.343 0        51.000  
        48.000                                                  
  24111299.765                   126705368.047 0                        42.000  
                                                                
  22486875.044                   118168773.348 0                        46.000  
                                                                
  22869168.513    22869163.099   120177515.799 0  93645727.022 0        43.000  
        43.000                                                  
  20371246.571    20371242.693   107050877.726 0  83417053.511 0        51.000  
        49.000                                                  
  23045613.732    23045610.998   121106030.418 0  94367783.647 0        44.000  
        42.000                                                  
 22  1 19 22 59 41.0000000  0  0
 22  1 19 22 59 42.0000000  0  7E02E04E11E12E19E24E25
  27449268.939                   144247445.021 0                        40.000  
                  27449267.260   110527262.169          45.000  
  26392848.478                   138694765.271 0                        44.000  
                  26392846.244   106272712.387          48.000  
  22904054.367                   120361633.252 0                        46.000  
                  22904049.025    92225134.273          49.000  
  22384596.527                   117632536.777 0                        44.000  
                  22384592.149    90134031.928          49.000  
  24823001.793                   130445809.036 0                        41.000  
                  24822999.470    99951986.038          45.000  
  27557293.473                   144815056.958 0                        41.000  
                  27557291.382   110962188.935          46.000  
  26182300.157                   137589444.712 0                        44.000  
                  26182299.156   105425676.437          48.000  
 22  1 19 22 59 43.0000000  0  8G01G08G10G16G21G23G27G32
  24492255.058    24492254.451   128708415.978 0 100292272.264 0        35.000  
        36.000                                                  
  20799398.511    20799396.009   109300818.788 0  85169470.582 0        49.000  
        49.000                                                  
  20951468.578    20951464.879   110101402.418 0  85792338.225 0        51.000  
        48.000                                                  
  24111975.518                   126708919.220 0                        42.000  
                                                                
  22486506.138                   118166834.605 0                        46.000  
                                                                
  22869749.882    22869744.342   120180570.707 0  93648107.474 0        43.000  
        43.000                                                  
  20371458.194    20371454.459   107051990.666 0  83417920.737 0        51.000  
        49.000                                                  
  23045073.552    23045070.907   121103192.075 0  94365571.956 0        44.000  
        42.000                                                  
 22  1 19 22 59 42.0000000  0  0
 22  1 19 22 59 43.0000000  0  7E02E04E11E12E19E24E25
  27449050.616                   144246298.550 0                        40.000  
                  27449049.150   110526383.722          45.000  
  26392297.969                   138691872.119 0                        44.000  
                  26392295.646   106270495.563          48.000  
  22903791.371                   120360250.710 0                        46.000  
                  22903785.921    92224074.938          49.000  
  22384762.512                   117633409.045 0                        44.000  
                  22384758.063    90134700.292          49.000  
  24822904.835                   130445300.000 0                        41.000  
                  24822902.602    99951596.002          45.000  
  27557855.329                   144818009.635 0                        41.000  
                  27557853.167   110964451.378          46.000  
  26182532.775                   137590667.109 0                        44.000  
                  26182531.900   105426613.088          48.000  
 22  1 19 22 59 44.0000000  0  8G01G08G10G16G21G23G27G32
  24491647.065    24491646.297   128705220.733 0 100289782.451 0        35.000  
        36.000                                                  
  20799165.838    20799163.229   109299596.027 0  85168517.786 0        49.000  
        49.000                                                  
  20951720.192    20951716.421   110102724.352 0  85793368.296 0        51.000  
        48.000                                                  
  24112651.253                   126712470.258 0                        42.000  
                                                                
  22486137.214                   118164895.780 0                        46.000  
                                                                
  22870331.179    22870325.657   120183625.649 0  93650487.946 0        43.000  
        43.000                                                  
  20371670.085    20371666.297   107053103.960 0  83418788.234 0        50.000  
        49.000                                                  
  23044533.389    23044530.744   121100353.830 0  94363360.337 0        43.000  
        42.000                                                  
 22  1 19 22 59 43.0000000  0  0
 22  1 19 22 59 44.0000000  0  7E02E04E11E12E19E24E25
  27448832.399                   144245152.319 0                        40.000  
                  27448830.934   110525505.423          45.000  
  26391747.442                   138688978.906 0                        44.000  
                  26391745.030   106268278.688          48.000  
  22903528.250                   120358868.083 0                        46.000  
                  22903522.853    92223015.509          49.000  
  22384928.551                   117634281.272 0                        44.000  
                  22384924.030    90135368.619          49.000  
  24822808.039                   130444791.228 0                        41.000  
                  24822805.787    99951206.153          45.000  
  27558417.220                   144820962.160 0                        41.000  
                  27558414.915   110966713.702          46.000  
  26182765.377                   137591889.712 0                        44.000  
                  26182764.501   105427549.890          48.000  
 22  1 19 22 59 45.0000000  0  8G01G08G10G16G21G23G27G32
  24491039.054    24491038.178   128702025.465 0 100287292.655 0        35.000  
        36.000                                                  
  20798933.005    20798930.611   109298373.653 0  85167565.285 0        49.000  
        49.000                                                  
  20951971.823    20951968.071   110104046.609 0  85794398.630 0        51.000  
        48.000                                                  
  24113327.041                   126716021.251 0                        42.000  
                                                                
  22485768.201                   118162956.998 0                        46.000  
                                                                
  22870912.565    22870907.115   120186680.657 0  93652868.467 0        43.000  
        43.000                                                  
  20371882.065    20371878.098   107054217.674 0  83419656.059 0        50.000  
        49.000                                                  
  23043993.334    23043990.653   121097515.737 0  94361148.826 0        43.000  
        42.000                                                  
 22  1 19 22 59 44.0000000  0  0
 22  1 19 22 59 45.0000000  0  7E02E04E11E12E19E24E25
  27448614.397                   144244006.367 0                        40.000  
                  27448612.842   110524627.374          45.000  
  26391196.826                   138686085.713 0                        44.000  
                  26391194.574   106266061.814          48.000  
  22903265.057                   120357485.441 0                        46.000  
                  22903259.786    92221956.083          49.000  
  22385094.429                   117635153.522 0                        44.000  
                  22385090.016    90136036.975          49.000  
  24822711.153                   130444282.779 0                        41.000  
                  24822709.027    99950816.580          45.000  
  27558979.165                   144823914.602 0                        41.000  
                  27558976.789   110968975.959          46.000  
  26182998.210                   137593112.614 0                        44.000  
                  26182997.174   105428486.912          48.000  
 22  1 19 22 59 46.0000000  0  8G01G08G10G16G21G23G27G32
  24490431.078    24490430.185   128698830.558 0 100284803.083 0        35.000  
        36.000                                                  
  20798700.600    20798698.277   109297152.133 0  85166613.467 0        49.000  
        49.000                                                  
  20952223.562    20952219.863   110105369.675 0  85795429.589 0        51.000  
        48.000                                                  
  24114002.883                   126719572.662 0                        42.000  
                                                                
  22485399.420                   118161018.696 0                        46.000  
                                                                
  22871494.113    22871488.609   120189736.242 0  93655249.440 0        43.000  
        43.000                                                  
  20372094.099    20372090.257   107055332.289 0  83420524.590 0        50.000  
        49.000                                                  
  23043453.367    23043450.759   121094678.263 0  94358937.817 0        43.000  
        42.000                                                  
 22  1 19 22 59 45.0000000  0  0
 22  1 19 22 59 46.0000000  0  7E02E04E11E12E19E24E25
  27448396.591                   144242861.231 0                        40.000  
                  27448395.001   110523749.916          45.000  
  26390646.371                   138683192.998 0                        44.000  
                  26390644.191   106263845.328          48.000  
  22903002.132                   120356103.266 0                        46.000  
                  22902996.754    92220897.016          49.000  
  22385260.415                   117636026.300 0                        44.000  
                  22385256.126    90136705.712          49.000  
  24822614.732                   130443775.161 0                        41.000  
                  24822612.445    99950427.617          45.000  
  27559540.878                   144826867.429 0                        41.000  
                  27559538.626   110971238.521          46.000  
  26183231.061                   137594336.267 0                        44.000  
                  26183230.061   105429424.523          48.000  
 22  1 19 22 59 47.0000000  0  8G01G08G10G16G21G23G27G32
  24489823.049    24489822.262   128695635.936 0 100282313.773 0        35.000  
        37.000                                                  
  20798468.375    20798465.998   109295931.367 0  85165662.207 0        49.000  
        49.000                                                  
  20952475.408    20952471.763   110106693.437 0  85796461.090 0        51.000  
        48.000                                                  
  24114678.761                   126723124.383 0                        42.000  
                                                                
  22485030.675                   118159080.786 0                        46.000  
                                                                
  22872075.732    22872070.210   120192792.265 0  93657630.761 0        43.000  
        43.000                                                  
  20372306.454    20372302.487   107056447.694 0  83421393.743 0        50.000  
        49.000                                                  
  23042913.509    23042910.828   121091841.315 0  94356727.206 0        43.000  
        42.000                                                  
 22  1 19 22 59 46.0000000  0  0
 22  1 19 22 59 47.0000000  0  7E02E04E11E12E19E24E25
  27448179.054                   144241716.728 0                        40.000  
                  27448177.285   110522872.960          45.000  
  26390095.915                   138680300.676 0                        44.000  
                  26390093.646   106261629.131          48.000  
  22902739.190                   120354721.426 0                        46.000  
                  22902733.865    92219838.207          49.000  
  22385426.579                   117636899.457 0                        44.000  
                  22385422.362    90137374.754          49.000  
  24822518.203                   130443268.235 0                        41.000  
                  24822515.880    99950039.195          45.000  
  27560102.966                   144829820.532 0                        41.000  
                  27560100.554   110973501.293          46.000  
  26183464.055                   137595560.584 0                        44.000  
                  26183462.983   105430362.629          48.000  
 22  1 19 22 59 48.0000000  0  8G01G08G10G16G21G23G27G32
  24489215.127    24489214.448   128692441.601 0 100279824.718 0        35.000  
        37.000                                                  
  20798236.274    20798233.754   109294711.358 0  85164711.553 0        49.000  
        49.000                                                  
  20952727.397    20952723.841   110108017.921 0  85797493.164 0        51.000  
        48.000                                                  
  24115354.675                   126726676.445 0                        42.000  
                                                                
  22484662.109                   118157143.284 0                        46.000  
                                                                
  22872657.386    22872651.900   120195848.769 0  93660012.452 0        43.000  
        43.000                                                  
  20372518.881    20372514.879   107057563.917 0  83422263.528 0        50.000  
        49.000                                                  
  23042373.703    23042371.112   121089004.912 0  94354517.008 0        43.000  
        42.000                                                  
 22  1 19 22 59 47.0000000  0  0
 22  1 19 22 59 48.0000000  0  7E02E04E11E12E19E24E25
  27447961.356                   144240572.939 0                        40.000  
                  27447959.712   110521996.543          44.000  
  26389545.639                   138677408.754 0                        44.000  
                  26389543.441   106259413.242          48.000  
  22902476.283                   120353339.967 0                        46.000  
                  22902470.779    92218779.687          49.000  
  22385592.707                   117637773.034 0                        44.000  
                  22385588.562    90138044.122          49.000  
  24822421.836                   130442762.045 0                        41.000  
                  24822419.495    99949651.333          45.000  
  27560665.179                   144832773.945 0                        41.000  
                  27560662.588   110975764.303          46.000  
  26183697.210                   137596785.584 0                        44.000  
                  26183696.120   105431301.266          48.000  
 22  1 19 22 59 49.0000000  0  8G01G08G10G16G21G23G27G32
  24488607.169    24488606.454   128689246.653 0 100277335.159 0        35.000  
        36.000                                                  
  20798004.155    20798001.511   109293491.156 0  85163760.742 0        49.000  
        49.000                                                  
  20952979.422    20952975.776   110109342.202 0  85798525.060 0        51.000  
        48.000                                                  
  24116030.517                   126730227.928 0                        42.000  
                                                                
  22484293.363                   118155205.274 0                        46.000  
                                                                
  22873238.898    22873233.430   120198904.823 0  93662393.792 0        43.000  
        43.000                                                  
  20372731.326    20372727.305   107058680.052 0  83423133.234 0        50.000  
        49.000                                                  
  23041833.862    23041831.271   121086168.122 0  94352306.534 0        43.000  
        42.000                                                  
 22  1 19 22 59 48.0000000  0  0
 22  1 19 22 59 49.0000000  0  7E02E04E11E12E19E24E25
  27447743.604                   144239428.918 0                        40.000  
                  27447741.924   110521119.960          45.000  
  26388995.309                   138674516.324 0                        44.000  
                  26388992.950   106257196.969          48.000  
  22902213.233                   120351957.956 0                        46.000  
                  22902207.997    92217720.739          49.000  
  22385759.014                   117638646.111 0                        44.000  
                  22385754.654    90138713.099          49.000  
  24822325.647                   130442255.656 0                        41.000  
                  24822323.217    99949263.314          45.000  
  27561227.070                   144835726.743 0                        41.000  
                  27561224.533   110978026.825          46.000  
  26183930.205                   137598010.329 0                        44.000  
                  26183929.079   105432239.704          48.000  
 22  1 19 22 59 50.0000000  0  8G01G08G10G16G21G23G27G32
  24487999.104    24487998.461   128686051.886 0 100274845.701 0        35.000  
        36.000                                                  
  20797772.019    20797769.356   109292271.596 0  85162810.438 0        49.000  
        49.000                                                  
  20953231.482    20953227.837   110110667.077 0  85799557.437 0        51.000  
        48.000                                                  
  24116706.502                   126733779.612 0                        42.000  
                                                                
  22483924.636                   118153267.508 0                        46.000  
                                                                
  22873820.499    22873815.067   120201961.239 0  93664775.410 0        43.000  
        43.000                                                  
  20372943.789    20372939.804   107059796.850 0  83424003.464 0        50.000  
        49.000                                                  
  23041294.146    23041291.609   121083331.743 0  94350096.382 0        43.000  
        43.000                                                  
 22  1 19 22 59 49.0000000  0  0
 22  1 19 22 59 50.0000000  0  7E02E04E11E12E19E24E25
  27447525.995                   144238285.442 0                        40.000  
                  27447524.297   110520243.790          45.000  
  26388445.050                   138671624.149 0                        44.000  
                  26388442.620   106254980.881          48.000  
  22901950.236                   120350576.183 0                        46.000  
                  22901945.072    92216661.973          49.000  
  22385925.178                   117639519.471 0                        44.000  
                  22385920.818    90139382.304          49.000  
  24822229.333                   130441749.854 0                        42.000  
                  24822226.992    99948875.754          45.000  
  27561789.015                   144838679.705 0                        41.000  
                  27561786.335   110980289.493          46.000  
  26184163.288                   137599235.611 0                        44.000  
                  26184162.305   105433178.559          48.000  
 22  1 19 22 59 51.0000000  0  8G01G08G10G16G21G23G27G32
  24487391.093    24487390.521   128682857.155 0 100272356.293 0        35.000  
        36.000                                                  
  20797540.097    20797537.309   109291052.562 0  85161860.532 0        49.000  
        49.000                                                  
  20953483.703    20953480.022   110111992.411 0  85800590.163 0        51.000  
        48.000                                                  
  24117382.470                   126737331.377 0                        42.000  
                                                                
  22483555.962                   118151329.939 0                        46.000  
                                                                
  22874402.261    22874396.793   120205017.860 0  93667157.204 0        43.000  
        43.000                                                  
  20373156.448    20373152.427   107060914.218 0  83424874.145 0        50.000  
        49.000                                                  
  23040754.412    23040751.911   121080495.666 0  94347886.443 0        43.000  
        42.000                                                  
 22  1 19 22 59 50.0000000  0  0
 22  1 19 22 59 51.0000000  0  7E02E04E11E12E19E24E25
  27447308.654                   144237142.410 0                        40.000  
                  27447306.724   110519367.951          45.000  
  26387894.756                   138668732.130 0                        44.000  
                  26387892.307   106252764.927          48.000  
  22901687.329                   120349194.530 0                        46.000  
                  22901682.094    92215603.313          49.000  
  22386091.378                   117640393.018 0                        44.000  
                  22386087.125    90140051.636          49.000  
  24822133.162                   130441244.525 0                        41.000  
                  24822130.714    99948488.567          45.000  
  27562350.907                   144841632.711 0                        41.000  
                  27562348.298   110982552.183          46.000  
  26184396.461                   137600461.330 0                        44.000  
                  26184395.550   105434117.744          48.000  
 22  1 19 22 59 52.0000000  0  8G01G08G10G16G21G23G27G32
  24486783.206    24486782.634   128679662.638 0 100269867.085 0        35.000  
        36.000                                                  
  20797308.282    20797305.459   109289834.194 0  85160911.163 0        49.000  
        49.000                                                  
  20953735.943    20953732.315   110113318.389 0  85801623.394 0        51.000  
        48.000                                                  
  24118058.437                   126740883.395 0                        42.000  
                                                                
  22483187.396                   118149392.687 0                        46.000  
                                                                
  22874984.058    22874978.483   120208074.878 0  93669539.279 0        43.000  
        43.000                                                  
  20373369.268    20373365.301   107062032.310 0  83425745.388 0        50.000  
        49.000                                                  
  23040214.839    23040212.338   121077660.044 0  94345676.869 0        43.000  
        42.000                                                  
 22  1 19 22 59 51.0000000  0  0
 22  1 19 22 59 52.0000000  0  7E02E04E11E12E19E24E25
  27447091.224                   144235999.977 0                        40.000  
                  27447089.347   110518492.594          45.000  
  26387344.354                   138665840.436 0                        44.000  
                  26387341.924   106250549.214          48.000  
  22901424.476                   120347813.171 0                        46.000  
                  22901419.205    92214544.867          49.000  
  22386257.667                   117641266.885 0                        44.000  
                  22386253.396    90140721.229          49.000  
  24822037.169                   130440739.843 0                        41.000  
                  24822034.775    99948101.852          45.000  
  27562912.905                   144844585.963 0                        41.000  
                  27562910.314   110984815.067          46.000  
  26184629.813                   137601687.636 0                        44.000  
                  26184628.919   105435057.381          48.000  
 22  1 19 22 59 53.0000000  0  8G01G08G10G16G21G23G27G32
  24486175.284    24486174.820   128676468.298 0 100267377.963 0        35.000  
        36.000                                                  
  20797076.521    20797073.733   109288616.439 0  85159962.268 0        49.000  
        49.000                                                  
  20953988.414    20953984.733   110114644.909 0  85802657.049 0        51.000  
        48.000                                                  
  24118734.297                   126744435.583 0                        42.000  
                                                                
  22482818.704                   118147455.681 0                        46.000  
                                                                
  22875565.856    22875560.316   120211132.198 0  93671921.622 0        43.000  
        43.000                                                  
  20373582.052    20373578.193   107063151.057 0  83426617.136 0        50.000  
        49.000                                                  
  23039675.320    23039672.943   121074824.810 0  94343467.593 0        43.000  
        42.000                                                  
 22  1 19 22 59 52.0000000  0  0
 22  1 19 22 59 53.0000000  0  7E02E04E11E12E19E24E25
  27446873.668                   144234858.065 0                        40.000  
                  27446872.024   110517617.629          45.000  
  26386794.042                   138662948.984 0                        44.000  
                  26386791.808   106248333.687          48.000  
  22901161.623                   120346432.029 0                        46.000  
                  22901156.405    92213486.587          49.000  
  22386424.081                   117642141.004 0                        44.000  
                  22386419.703    90141391.007          49.000  
  24821941.195                   130440235.714 0                        42.000  
                  24821938.872    99947715.575          45.000  
  27563474.815                   144847539.336 0                        41.000  
                  27563472.385   110987078.048          46.000  
  26184863.236                   137602914.452 0                        44.000  
                  26184862.396   105435997.416          48.000  
 22  1 19 22 59 54.0000000  0  8G01G08G10G16G21G23G27G32
  24485567.326    24485566.933   128673273.822 0 100264888.754 0        35.000  
        37.000                                                  
  20796844.902    20796842.061   109287399.042 0  85159013.649 0        49.000  
        49.000                                                  
  20954240.885    20954237.365   110115971.741 0  85803690.943 0        51.000  
        48.000                                                  
  24119410.228                   126747987.703 0                        42.000  
                                                                
  22482450.084                   118145518.663 0                        46.000  
                                                                
  22876147.671    22876142.078   120214189.588 0  93674303.997 0        43.000  
        43.000                                                  
  20373794.962    20373791.245   107064270.200 0  83427489.196 0        50.000  
        49.000                                                  
  23039135.836    23039133.335   121071989.689 0  94341258.427 0        43.000  
        42.000                                                  
 22  1 19 22 59 53.0000000  0  0
 22  1 19 22 59 54.0000000  0  7E02E04E11E12E19E24E25
  27446656.327                   144233716.465 0                        40.000  
                  27446654.755   110516742.888          45.000  
  26386243.908                   138660057.519 0                        44.000  
                  26386241.514   106246118.145          48.000  
  22900898.752                   120345050.834 0                        46.000  
                  22900893.659    92212428.271          49.000  
  22386590.424                   117643015.132 0                        44.000  
                  22386586.010    90142060.795          49.000  
  24821845.220                   130439731.901 0                        42.000  
                  24821842.987    99947329.544          45.000  
  27564036.724                   144850492.606 0                        41.000  
                  27564034.365   110989340.936          46.000  
  26185096.712                   137604141.536 0                        44.000  
                  26185095.890   105436937.642          48.000  
 22  1 19 22 59 55.0000000  0  8G01G08G10G16G21G23G27G32
  24484959.422    24484959.136   128670079.302 0 100262399.554 0        35.000  
        37.000                                                  
  20796613.213    20796610.371   109286182.085 0  85158065.368 0        49.000  
        49.000                                                  
  20954493.410    20954489.944   110117298.959 0  85804725.137 0        51.000  
        48.000                                                  
  24120086.142                   126751539.824 0                        42.000  
                                                                
  22482081.500                   118143581.719 0                        46.000  
                                                                
  22876729.576    22876723.893   120217247.107 0  93676686.496 0        43.000  
        43.000                                                  
  20374008.014    20374004.279   107065389.841 0  83428361.644 0        50.000  
        49.000                                                  
  23038596.353    23038593.958   121069154.801 0  94339049.414 0        43.000  
        42.000                                                  
 22  1 19 22 59 54.0000000  0  0
 22  1 19 22 59 55.0000000  0  7E02E04E11E12E19E24E25
  27446439.272                   144232575.194 0                        39.000  
                  27446437.575   110515868.412          45.000  
  26385693.703                   138657166.125 0                        44.000  
                  26385691.434   106243902.659          48.000  
  22900635.916                   120343669.686 0                        46.000  
                  22900630.698    92211369.986          49.000  
  22386756.856                   117643889.345 0                        44.000  
                  22386752.353    90142730.647          49.000  
  24821749.478                   130439228.491 0                        42.000  
                  24821747.137    99946943.803          45.000  
  27564598.598                   144853445.829 0                        41.000  
                  27564596.167   110991603.805          46.000  
  26185330.153                   137605368.951 0                        44.000  
                  26185329.421   105437878.136          48.000  
 22  1 19 22 59 56.0000000  0  8G01G08G10G16G21G23G27G32
  24484351.447    24484351.286   128666884.859 0 100259910.364 0        35.000  
        37.000                                                  
  20796381.755    20796378.914   109284965.641 0  85157117.481 0        49.000  
        49.000                                                  
  20954745.935    20954742.487   110118626.639 0  85805759.684 0        51.000  
        48.000                                                  
  24120761.931                   126755092.015 0                        41.000  
                                                                
  22481712.934                   118141644.936 0                        46.000  
                                                                
  22877311.498    22877305.780   120220304.849 0  93679069.148 0        43.000  
        43.000                                                  
  20374221.156    20374217.457   107066510.029 0  83429234.515 0        50.000  
        49.000                                                  
  23038056.940    23038054.617   121066320.168 0  94336840.611 0        43.000  
        42.000                                                  
 22  1 19 22 59 55.0000000  0  0
 22  1 19 22 59 56.0000000  0  7E02E04E11E12E19E24E25
  27446222.181                   144231434.359 0                        39.000  
                  27446220.466   110514994.257          45.000  
  26385143.498                   138654274.874 0                        44.000  
                  26385141.175   106241687.280          48.000  
  22900373.099                   120342288.629 0                        46.000  
                  22900367.917    92210311.769          49.000  
  22386923.360                   117644763.714 0                        44.000  
                  22386918.732    90143400.618          49.000  
  24821653.700                   130438725.527 0                        42.000  
                  24821651.395    99946558.428          45.000  
  27565160.435                   144856399.099 0                        41.000  
                  27565158.220   110993866.689          46.000  
  26185563.934                   137606596.804 0                        44.000  
                  26185563.040   105438818.947          48.000  
 22  1 19 22 59 57.0000000  0  8G01G08G10G16G21G23G27G32
  24483743.703    24483743.417   128663690.750 0 100257421.434 0        35.000  
        37.000                                                  
  20796150.369    20796147.617   109283750.046 0  85156170.269 0        49.000  
        49.000                                                  
  20954998.729    20954995.316   110119955.105 0  85806794.856 0        51.000  
        48.000                                                  
  24121437.898                   126758644.613 0                        41.000  
                                                                
  22481344.403                   118139708.631 0                        46.000  
                                                                
  22877893.385    22877887.721   120223363.143 0  93681452.215 0        43.000  
        43.000                                                  
  20374434.458    20374430.795   107067631.103 0  83430108.079 0        50.000  
        49.000                                                  
  23037517.671    23037515.348   121063486.177 0  94334632.304 0        44.000  
        43.000                                                  
 22  1 19 22 59 56.0000000  0  0
 22  1 19 22 59 57.0000000  0  7E02E04E11E12E19E24E25
  27446005.180                   144230294.303 0                        39.000  
                  27446003.465   110514120.696          45.000  
  26384593.382                   138651384.096 0                        44.000  
                  26384591.077   106239472.282          48.000  
  22900110.317                   120340908.035 0                        46.000  
                  22900105.224    92209253.923          49.000  
  22387089.738                   117645638.591 0                        44.000  
                  22387085.289    90144070.973          49.000  
  24821558.387                   130438223.375 0                        42.000  
                  24821555.778    99946173.658          45.000  
  27565722.452                   144859352.759 0                        41.000  
                  27565720.397   110996129.894          46.000  
  26185797.696                   137607825.390 0                        44.000  
                  26185796.910   105439760.331          48.000  
 22  1 19 22 59 58.0000000  0  8G01G08G10G16G21G23G27G32
  24483135.906    24483135.674   128660496.526 0 100254932.424 0        35.000  
        37.000                                                  
  20795918.983    20795916.446   109282534.788 0  85155223.324 0        50.000  
        49.000                                                  
  20955251.629    20955248.180   110121283.852 0  85807830.249 0        51.000  
        48.000                                                  
  24122113.865                   126762197.089 0                        41.000  
                                                                
  22480975.961                   118137772.289 0                        46.000  
                                                                
  22878475.379    22878469.715   120226421.466 0  93683835.331 0        43.000  
        43.000                                                  
  20374647.886    20374644.312   107068752.552 0  83430981.935 0        50.000  
        49.000                                                  
  23036978.330    23036975.972   121060652.275 0  94332424.066 0        44.000  
        43.000                                                  
 22  1 19 22 59 57.0000000  0  0
 22  1 19 22 59 58.0000000  0  7E02E04E11E12E19E24E25
  27445788.286                   144229154.472 0                        39.000  
                  27445786.713   110513247.337          45.000  
  26384043.159                   138648493.289 0                        44.000  
                  26384040.961   106237257.237          48.000  
  22899847.535                   120339527.371 0                        46.000  
                  22899842.496    92208196.007          49.000  
  22387256.152                   117646513.432 0                        44.000  
                  22387251.757    90144741.313          49.000  
  24821462.912                   130437721.505 0                        42.000  
                  24821460.304    99945789.104          45.000  
  27566284.111                   144862306.275 0                        40.000  
                  27566282.414   110998392.983          46.000  
  26186031.494                   137609054.211 0                        44.000  
                  26186030.726   105440701.895          48.000  
 22  1 19 22 59 59.0000000  0  8G01G08G10G16G21G23G27G32
  24482528.217    24482527.895   128657302.543 0 100252443.614 0        36.000  
        36.000                                                  
  20795687.919    20795685.221   109281320.223 0  85154276.912 0        50.000  
        49.000                                                  
  20955504.636    20955501.116   110122613.254 0  85808866.144 0        51.000  
        48.000                                                  
  24122789.904                   126765749.852 0                        41.000  
                                                                
  22480607.574                   118135836.289 0                        46.000  
                                                                
  22879057.338    22879051.816   120229480.188 0  93686218.754 0        43.000  
        43.000                                                  
  20374861.492    20374857.901   107069874.750 0  83431856.375 0        50.000  
        49.000                                                  
  23036439.168    23036436.917   121057818.859 0  94330216.222 0        44.000  
        43.000                                                  
 22  1 19 22 59 58.0000000  0  0
 22  1 19 22 59 59.0000000  0  7E02E04E11E12E19E24E25
  27445571.392                   144228015.284 0                        39.000  
                  27445569.801   110512374.439          45.000  
  26383493.097                   138645602.819 0                        44.000  
                  26383490.881   106235042.463          48.000  
  22899584.807                   120338147.001 0                        45.000  
                  22899579.821    92207138.323          49.000  
  22387422.692                   117647388.634 0                        44.000  
                  22387418.385    90145411.914          49.000  
  24821367.510                   130437220.301 0                        42.000  
                  24821364.972    99945405.069          45.000  
  27566846.306                   144865260.021 0                        41.000  
                  27566844.484   111000656.237          46.000  
  26186265.525                   137610283.648 0                        44.000  
                  26186264.685   105441643.931          48.000  
 22  1 19 23  0  0.0000000  0  8G01G08G10G16G21G23G27G32
  24481920.438    24481920.152   128654108.569 0 100249954.800 0        36.000  
        36.000                                                  
  20795456.855    20795454.121   109280106.148 0  85153330.870 0        50.000  
        49.000                                                  
  20955757.644    20955754.070   110123943.079 0  85809902.373 0        51.000  
        48.000                                                  
  24123466.014                   126769302.656 0                        41.000  
                                                                
  22480239.079                   118133900.413 0                        46.000  
                                                                
  22879639.421    22879633.971   120232539.090 0  93688602.315 0        43.000  
        43.000                                                  
  20375075.134    20375071.578   107070997.464 0  83432731.210 0        50.000  
        49.000                                                  
  23035900.114    23035897.648   121054985.693 0  94328008.553 0        43.000  
        43.000                                                  
 22  1 19 22 59 59.0000000  0  0
 22  1 19 23  0  0.0000000  0  7E02E04E11E12E19E24E25
  27445354.462                   144226876.471 0                        39.000  
                  27445353.211   110511501.851          45.000  
  26382942.838                   138642712.464 0                        44.000  
                  26382940.855   106232827.778          48.000  
  22899322.186                   120336766.736 0                        45.000  
                  22899317.129    92206080.713          49.000  
  22387589.160                   117648263.957 0                        44.000  
                  22387584.889    90146082.617          50.000  
  24821272.357                   130436719.520 0                        42.000  
                  24821269.641    99945021.356          45.000  
  27567408.466                   144868213.781 0                        40.000  
                  27567406.572   111002919.506          46.000  
  26186499.502                   137611513.454 0                        44.000  
                  26186498.769   105442586.255          48.000  
 22  1 19 23  0  1.0000000  0  8G01G08G10G16G21G23G27G32
  24481312.533    24481312.337   128650914.305 0 100247465.779 0        36.000  
        37.000                                                  
  20795225.826    20795223.110   109278892.281 0  85152385.002 0        50.000  
        49.000                                                  
  20956010.687    20956007.203   110125273.053 0  85810938.717 0        51.000  
        48.000                                                  
  24124141.964                   126772855.220 0                        41.000  
                                                                
  22479870.762                   118131964.372 0                        46.000  
                                                                
  22880221.522    22880215.983   120235597.912 0  93690985.818 0        43.000  
        43.000                                                  
  20375288.794    20375285.292   107072120.439 0  83433606.261 0        51.000  
        49.000                                                  
  23035360.916    23035358.432   121052152.495 0  94325800.878 0        43.000  
        42.000                                                  
 22  1 19 23  0  0.0000000  0  0
 22  1 19 23  0  1.0000000  0  7E02E04E11E12E19E24E25
  27445137.603                   144225737.797 0                        39.000  
                  27445136.585   110510629.363          45.000  
  26382392.883                   138639821.929 0                        44.000  
                  26382390.828   106230612.957          48.000  
  22899059.547                   120335386.266 0                        45.000  
                  22899054.383    92205022.953          49.000  
  22387755.860                   117649139.135 0                        44.000  
                  22387751.517    90146753.207          50.000  
  24821177.008                   130436218.897 0                        42.000  
                  24821174.346    99944637.757          45.000  
  27567970.464                   144871167.285 0                        40.000  
                  27567968.535   111005182.570          46.000  
  26186733.568                   137612743.382 0                        44.000  
                  26186732.889   105443528.662          48.000  
 22  1 19 23  0  2.0000000  0  8G01G08G10G16G21G23G27G32
  24480704.772    24480704.665   128647720.454 0 100244977.019 0        36.000  
        37.000                                                  
  20794995.012    20794992.278   109277679.239 0  85151439.763 0        50.000  
        48.000                                                  
  20956263.909    20956260.460   110126603.808 0  85811975.666 0        51.000  
        48.000                                                  
  24124818.020                   126776408.197 0                        41.000  
                                                                
  22479502.482                   118130028.813 0                        46.000  
                                                                
  22880803.731    22880798.066   120238657.268 0  93693369.738 0        43.000  
        43.000                                                  
  20375502.740    20375499.077   107073244.283 0  83434481.983 0        51.000  
        49.000                                                  
  23034821.861    23034819.395   121049319.910 0  94323593.662 0        43.000  
        42.000                                                  
 22  1 19 23  0  1.0000000  0  0
 22  1 19 23  0  2.0000000  0  7E02E04E11E12E19E24E25
  27444921.013                   144224599.876 0                        39.000  
                  27444920.048   110509757.438          45.000  
  26381843.089                   138636931.873 0                        44.000  
                  26381840.802   106228398.492          48.000  
  22898796.783                   120334006.227 0                        45.000  
                  22898791.744    92203965.522          49.000  
  22387922.595                   117650014.795 0                        44.000  
                  22387918.057    90147424.165          49.000  
  24821082.034                   130435719.070 0                        42.000  
                  24821079.282    99944254.770          45.000  
  27568532.463                   144874121.134 0                        40.000  
                  27568530.694   111007445.915          46.000  
  26186967.653                   137613974.039 0                        44.000  
                  26186966.974   105444471.627          48.000  
 22  1 19 23  0  3.0000000  0  8G01G08G10G16G21G23G27G32
  24480097.082    24480096.814   128644526.686 0 100242488.386 0        36.000  
        37.000                                                  
  20794764.305    20794761.589   109276466.778 0  85150494.990 0        50.000  
        48.000                                                  
  20956517.274    20956513.861   110127935.105 0  85813013.041 0        51.000  
        48.000                                                  
  24125494.166                   126779961.336 0                        41.000  
                                                                
  22479134.237                   118128093.471 0                        46.000  
                                                                
  22881385.921    22881380.275   120241716.918 0  93695753.872 0        43.000  
        43.000                                                  
  20375716.775    20375713.130   107074368.763 0  83435358.202 0        51.000  
        49.000                                                  
  23034283.021    23034280.305   121046487.698 0  94321386.741 0        44.000  
        42.000                                                  
 22  1 19 23  0  2.0000000  0  0
 22  1 19 23  0  3.0000000  0  7E02E04E11E12E19E24E25
  27444704.548                   144223462.458 0                        39.000  
                  27444703.547   110508885.921          45.000  
  26381293.206                   138634042.049 0                        44.000  
                  26381291.008   106226184.202          48.000  
  22898534.376                   120332626.382 0                        45.000  
                  22898529.230    92202908.236          49.000  
  22388089.117                   117650890.681 0                        44.000  
                  22388084.757    90148095.302          50.000  
  24820987.114                   130435219.791 0                        42.000  
                  24820984.201    99943872.197          45.000  
  27569094.658                   144877075.128 0                        41.000  
                  27569092.871   111009709.358          46.000  
  26187202.148                   137615205.196 0                        44.000  
                  26187201.254   105445414.981          48.000  
 22  1 19 23  0  4.0000000  0  8G01G08G10G16G21G23G27G32
  24479489.446    24479489.000   128641332.694 0 100239999.584 0        36.000  
        37.000                                                  
  20794533.634    20794530.810   109275254.592 0  85149550.432 0        50.000  
        48.000                                                  
  20956770.603    20956767.208   110129266.614 0  85814050.576 0        51.000  
        48.000                                                  
  24126170.294                   126783514.281 0                        41.000  
                                                                
  22478765.974                   118126158.038 0                        46.000  
                                                                
  22881968.094    22881962.483   120244776.535 0  93698137.982 0        43.000  
        43.000                                                  
  20375930.828    20375927.147   107075493.555 0  83436234.656 0        51.000  
        49.000                                                  
  23033744.180    23033741.339   121043655.521 0  94319179.852 0        44.000  
        42.000                                                  
 22  1 19 23  0  3.0000000  0  0
 22  1 19 23  0  4.0000000  0  7E02E04E11E12E19E24E25
  27444488.154                   144222325.250 0                        39.000  
                  27444487.242   110508014.541          45.000  
  26380743.340                   138631152.107 0                        44.000  
                  26380741.017   106223969.845          48.000  
  22898271.684                   120331246.396 0                        45.000  
                  22898266.573    92201850.844          49.000  
  22388255.871                   117651766.500 0                        44.000  
                  22388251.421    90148766.380          50.000  
  24820891.997                   130434720.720 0                        42.000  
                  24820889.138    99943489.790          45.000  
  27569656.943                   144880028.885 0                        41.000  
                  27569654.977   111011972.636          46.000  
  26187436.339                   137616436.523 0                        44.000  
                  26187435.535   105446358.465          48.000  
 22  1 19 23  0  5.0000000  0  8G01G08G10G16G21G23G27G32
  24478881.614    24478881.381   128638139.055 0 100237511.066 0        36.000  
        37.000                                                  
  20794303.177    20794300.318   109274043.214 0  85148606.503 0        50.000  
        48.000                                                  
  20957024.093    20957020.716   110130598.874 0  85815088.712 0        51.000  
        48.000                                                  
  24126846.494                   126787067.602 0                        41.000  
                                                                
  22478397.801                   118124223.054 0                        46.000  
                                                                
  22882550.446    22882544.942   120247836.669 0  93700522.500 0        43.000  
        43.000                                                  
  20376145.024    20376141.415   107076619.192 0  83437111.783 0        51.000  
        49.000                                                  
  23033205.340    23033202.659   121040823.907 0  94316973.411 0        44.000  
        42.000                                                  
 22  1 19 23  0  4.0000000  0  0
 22  1 19 23  0  5.0000000  0  7E02E04E11E12E19E24E25
  27444271.885                   144221188.762 0                        39.000  
                  27444270.974   110507143.721          45.000  
  26380193.403                   138628262.612 0                        44.000  
                  26380191.080   106221755.813          48.000  
  22898008.973                   120329866.827 0                        45.000  
                  22898004.077    92200793.776          49.000  
  22388422.499                   117652642.758 0                        44.000  
                  22388418.157    90149437.803          50.000  
  24820797.095                   130434222.419 0                        42.000  
                  24820794.414    99943107.986          45.000  
  27570218.977                   144882983.006 0                        41.000  
                  27570217.208   111014236.183          46.000  
  26187670.924                   137617668.563 0                        44.000  
                  26187670.066   105447302.491          48.000  
 22  1 19 23  0  6.0000000  0  8G01G08G10G16G21G23G27G32
  24478273.906    24478273.709   128634945.415 0 100235022.463 0        36.000  
        37.000                                                  
  20794072.827    20794069.825   109272832.243 0  85147662.885 0        50.000  
        48.000                                                  
  20957277.619    20957274.295   110131931.501 0  85816127.114 0        51.000  
        48.000                                                  
  24127522.658                   126790620.905 0                        42.000  
                                                                
  22478029.681                   118122288.129 0                        46.000  
                                                                
  22883132.761    22883127.222   120250896.890 0  93702907.109 0        43.000  
        43.000                                                  
  20376359.452    20376355.736   107077745.292 0  83437989.261 0        51.000  
        49.000                                                  
  23032666.464    23032663.855   121037992.505 0  94314767.119 0        44.000  
        42.000                                                  
 22  1 19 23  0  5.0000000  0  0
 22  1 19 23  0  6.0000000  0  7E02E04E11E12E19E24E25
  27444055.795                   144220052.579 0                        39.000  
                  27444054.758   110506273.159          45.000  
  26379643.484                   138625373.172 0                        44.000  
                  26379641.286   106219541.822          48.000  
  22897746.459                   120328487.266 0                        45.000  
                  22897741.599    92199736.706          49.000  
  22388589.414                   117653519.093 0                        44.000  
                  22388584.911    90150109.283          50.000  
  24820702.389                   130433724.484 0                        42.000  
                  24820699.619    99942726.447          45.000  
  27570781.262                   144885937.080 0                        41.000  
                  27570779.296   111016499.688          46.000  
  26187905.312                   137618900.917 0                        44.000  
                  26187904.525   105448246.767          48.000  
 22  1 19 23  0  7.0000000  0  8G01G08G10G16G21G23G27G32
  24477666.198    24477665.948   128631751.837 0 100232533.959 0        36.000  
        37.000                                                  
  20793842.513    20793839.440   109271621.839 0  85146719.718 0        50.000  
        48.000                                                  
  20957531.430    20957527.964   110133264.659 0  85817165.938 0        51.000  
        48.000                                                  
  24128198.893                   126794174.346 0                        42.000  
                                                                
  22477661.508                   118120353.406 0                        46.000  
                                                                
  22883715.184    22883709.573   120253957.400 0  93705291.931 0        43.000  
        43.000                                                  
  20376573.827    20376570.164   107078872.012 0  83438867.224 0        51.000  
        49.000                                                  
  23032127.713    23032125.032   121035161.452 0  94312561.099 0        44.000  
        42.000                                                  
 22  1 19 23  0  6.0000000  0  0
 22  1 19 23  0  7.0000000  0  7E02E04E11E12E19E24E25
  27443839.472                   144218916.918 0                        39.000  
                  27443838.650   110505402.977          45.000  
  26379093.672                   138622483.929 0                        44.000  
                  26379091.421   106217328.000          48.000  
  22897483.928                   120327107.888 0                        45.000  
                  22897479.067    92198679.784          49.000  
  22388756.042                   117654395.648 0                        44.000  
                  22388751.647    90150780.926          50.000  
  24820607.880                   130433227.063 0                        42.000  
                  24820605.074    99942345.310          45.000  
  27571343.546                   144888891.222 0                        41.000  
                  27571341.384   111018763.248          46.000  
  26188139.807                   137620133.758 0                        44.000  
                  26188139.181   105449191.409          48.000  
 22  1 19 23  0  8.0000000  0  8G01G08G10G16G21G23G27G32
  24477058.473    24477058.259   128628558.098 0 100230045.322 0        36.000  
        37.000                                                  
  20793612.235    20793609.198   109270411.725 0  85145776.767 0        50.000  
        48.000                                                  
  20957785.170    20957781.722   110134598.035 0  85818204.934 0        51.000  
        48.000                                                  
  24128875.057                   126797727.634 0                        42.000  
                                                                
  22477293.317                   118118418.609 0                        46.000  
                                                                
  22884297.518    22884291.979   120257017.933 0  93707676.754 0        43.000  
        43.000                                                  
  20376788.309    20376784.646   107079999.063 0  83439745.439 0        51.000  
        49.000                                                  
  23031589.122    23031586.281   121032330.454 0  94310355.125 0        44.000  
        42.000                                                  
 22  1 19 23  0  7.0000000  0  0
 22  1 19 23  0  8.0000000  0  7E02E04E11E12E19E24E25
  27443623.436                   144217781.457 0                        39.000  
                  27443622.542   110504532.944          45.000  
  26378543.771                   138619594.630 0                        44.000  
                  26378541.609   106215114.110          48.000  
  22897221.432                   120325728.403 0                        46.000  
                  22897216.589    92197622.768          49.000  
  22388922.778                   117655272.138 0                        44.000  
                  22388918.579    90151452.518          50.000  
  24820513.335                   130432729.917 0                        42.000  
                  24820510.386    99941964.369          45.000  
  27571905.652                   144891845.214 0                        41.000  
                  27571903.508   111021026.699          46.000  
  26188374.445                   137621366.784 0                        44.000  
                  26188373.802   105450136.195          48.000  
 22  1 19 23  0  9.0000000  0  8G01G08G10G16G21G23G27G32
  24476450.694    24476450.533   128625364.500 0 100227556.831 0        36.000  
        37.000                                                  
  20793382.154    20793379.045   109269202.248 0  85144834.320 0        50.000  
        48.000                                                  
  20958039.018    20958035.676   110135932.008 0  85819244.394 0        51.000  
        48.000                                                  
  24129551.310                   126801281.134 0                        42.000  
                                                                
  22476925.250                   118116484.101 0                        46.000  
                                                                
  22884879.887    22884874.455   120260078.788 0  93710061.816 0        43.000  
        43.000                                                  
  20377002.898    20376999.199   107081126.798 0  83440624.194 0        51.000  
        49.000                                                  
  23031050.479    23031047.691   121029499.891 0  94308149.480 0        44.000  
        42.000                                                  
 22  1 19 23  0  8.0000000  0  0
 22  1 19 23  0  9.0000000  0  7E02E04E11E12E19E24E25
  27443407.507                   144216646.553 0                        39.000  
                  27443406.667   110503663.342          45.000  
  26377993.941                   138616705.583 0                        44.000  
                  26377991.904   106212900.430          48.000  
  22896959.043                   120324349.160 0                        45.000  
                  22896953.986    92196565.949          49.000  
  22389089.603                   117656148.916 0                        44.000  
                  22389085.458    90152124.335          50.000  
  24820418.861                   130432233.356 0                        42.000  
                  24820415.823    99941583.892          45.000  
  27572467.740                   144894799.379 0                        41.000  
                  27572465.721   111023290.277          46.000  
  26188609.155                   137622600.361 0                        44.000  
                  26188608.565   105451081.395          48.000  
 22  1 19 23  0 10.0000000  0  8G01G08G10G16G21G23G27G32
  24475843.076    24475842.808   128622171.019 0 100225068.379 0        36.000  
        37.000                                                  
  20793152.162    20793148.909   109267993.299 0  85143892.282 0        50.000  
        48.000                                                  
  20958293.008    20958289.577   110137266.469 0  85820284.238 0        51.000  
        48.000                                                  
  24130227.402                   126804834.733 0                        42.000  
                                                                
  22476557.166                   118114549.768 0                        46.000  
                                                                
  22885462.328    22885456.967   120263139.885 0  93712447.088 0        43.000  
        43.000                                                  
  20377217.702    20377213.878   107082255.117 0  83441503.401 0        51.000  
        49.000                                                  
  23030511.906    23030509.137   121026669.604 0  94305944.066 0        44.000  
        42.000                                                  
 22  1 19 23  0  9.0000000  0  0
 22  1 19 23  0 10.0000000  0  7E02E04E11E12E19E24E25
  27443191.702                   144215512.121 0                        39.000  
                  27443190.630   110502794.094          45.000  
  26377444.040                   138613816.715 0                        44.000  
                  26377442.128   106210686.884          48.000  
  22896696.762                   120322970.063 0                        45.000  
                  22896691.597    92195509.243          49.000  
  22389256.554                   117657025.882 0                        44.000  
                  22389252.355    90152796.303          50.000  
  24820324.477                   130431737.281 0                        42.000  
                  24820321.546    99941203.780          45.000  
  27573029.882                   144897753.599 0                        41.000  
                  27573028.023   111025553.903          46.000  
  26188843.828                   137623834.376 0                        44.000  
                  26188843.382   105452026.941          48.000  
 22  1 19 23  0 11.0000000  0  8G01G08G10G16G21G23G27G32
  24475235.314    24475235.100   128618977.464 0 100222579.904 0        36.000  
        37.000                                                  
  20792922.259    20792918.971   109266784.797 0  85142950.596 0        50.000  
        48.000                                                  
  20958546.963    20958543.639   110138601.329 0  85821324.389 0        51.000  
        48.000                                                  
  24130903.548                   126808388.341 0                        42.000  
                                                                
  22476189.172                   118112615.523 0                        46.000  
                                                                
  22886044.912    22886039.515   120266201.139 0  93714832.475 0        43.000  
        43.000                                                  
  20377432.469    20377428.735   107083383.929 0  83442382.995 0        51.000  
        49.000                                                  
  23029973.405    23029970.564   121023839.569 0  94303738.851 0        44.000  
        42.000                                                  
 22  1 19 23  0 10.0000000  0  0
 22  1 19 23  0 11.0000000  0  7E02E04E11E12E19E24E25
  27442976.059                   144214378.060 0                        39.000  
                  27442974.844   110501925.149          45.000  
  26376894.406                   138610927.953 0                        43.000  
                  26376892.441   106208473.406          48.000  
  22896434.140                   120321591.016 0                        45.000  
                  22896429.173    92194452.564          49.000  
  22389423.308                   117657902.957 0                        44.000  
                  22389419.180    90153468.342          50.000  
  24820230.164                   130431241.615 0                        42.000  
                  24820227.091    99940823.993          45.000  
  27573592.148                   144900707.820 0                        41.000  
                  27573590.004   111027817.529          46.000  
  26189078.913                   137625068.749 0                        44.000  
                  26189078.377   105452972.761          48.000  
 22  1 19 23  0 12.0000000  0  8G01G08G10G16G21G23G27G32
  24474627.660    24474627.464   128615784.435 0 100220091.862 0        35.000  
        37.000                                                  
  20792692.463    20792689.104   109265577.233 0  85142009.640 0        50.000  
        48.000                                                  
  20958801.149    20958797.754   110139937.090 0  85822365.239 0        51.000  
        48.000                                                  
  24131579.784                   126811942.475 0                        41.000  
                                                                
  22475821.070                   118110681.860 0                        46.000  
                                                                
  22886627.621    22886622.099   120269263.054 0  93717218.380 0        43.000  
        43.000                                                  
  20377647.541    20377643.663   107084513.741 0  83443263.375 0        50.000  
        49.000                                                  
  23029435.030    23029432.171   121021010.253 0  94301534.191 0        44.000  
        42.000                                                  
 22  1 19 23  0 11.0000000  0  0
 22  1 19 23  0 12.0000000  0  7E02E04E11E12E19E24E25
  27442760.487                   144213244.864 0                        39.000  
                  27442759.183   110501056.867          45.000  
  26376344.755                   138608039.755 0                        43.000  
                  26376342.718   106206260.382          48.000  
  22896171.734                   120320212.506 0                        45.000  
                  22896166.856    92193396.321          49.000  
  22389590.419                   117658780.621 0                        44.000  
                  22389586.184    90154140.850          50.000  
  24820136.030                   130430746.858 0                        42.000  
                  24820132.975    99940444.891          45.000  
  27574154.451                   144903662.499 0                        41.000  
                  27574152.235   111030081.506          46.000  
  26189313.962                   137626303.984 0                        44.000  
                  26189313.409   105453919.242          48.000  
 22  1 19 23  0 13.0000000  0  8G01G08G10G16G21G23G27G32
  24474020.060    24474019.792   128612591.172 0 100217603.586 0        35.000  
        36.000                                                  
  20792462.721    20792459.362   109264369.922 0  85141068.869 0        50.000  
        48.000                                                  
  20959055.372    20959051.923   110141273.024 0  85823406.229 0        51.000  
        48.000                                                  
  24132256.055                   126815496.391 0                        41.000  
                                                                
  22475453.040                   118108748.079 0                        46.000  
                                                                
  22887210.258    22887204.808   120272324.873 0  93719604.242 0        43.000  
        43.000                                                  
  20377862.541    20377858.806   107085643.830 0  83444143.954 0        51.000  
        49.000                                                  
  23028896.475    23028893.688   121018180.940 0  94299329.527 0        44.000  
        42.000                                                  
 22  1 19 23  0 12.0000000  0  0
 22  1 19 23  0 13.0000000  0  7E02E04E11E12E19E24E25
  27442544.808                   144212111.823 0                        39.000  
                  27442543.521   110500188.675          45.000  
  26375795.211                   138605151.430 0                        43.000  
                  26375793.138   106204047.243          48.000  
  22895909.577                   120318833.841 0                        45.000  
                  22895904.592    92192339.937          49.000  
  22389757.244                   117659658.173 0                        44.000  
                  22389753.080    90154813.249          50.000  
  24820042.003                   130430252.298 0                        42.000  
                  24820038.930    99940065.927          45.000  
  27574716.592                   144906616.972 0                        41.000  
                  27574714.412   111032345.316          46.000  
  26189548.922                   137627539.355 0                        44.000  
                  26189548.422   105454865.816          48.000  
 22  1 19 23  0 14.0000000  0  8G01G08G10G16G21G23G27G32
  24473412.370    24473412.245   128609398.063 0 100215115.468 0        35.000  
        37.000                                                  
  20792233.068    20792229.781   109263163.241 0  85140128.594 0        50.000  
        48.000                                                  
  20959309.755    20959306.307   110142609.551 0  85824447.670 0        51.000  
        48.000                                                  
  24132932.308                   126819050.519 0                        41.000  
                                                                
  22475085.045                   118106814.568 0                        46.000  
                                                                
  22887792.913    22887787.499   120275387.069 0  93721990.347 0        43.000  
        43.000                                                  
  20378077.756    20378073.949   107086774.599 0  83445025.078 0        51.000  
        49.000                                                  
  23028358.189    23028355.312   121015352.047 0  94297125.220 0        44.000  
        42.000                                                  
 22  1 19 23  0 13.0000000  0  0
 22  1 19 23  0 14.0000000  0  7E02E04E11E12E19E24E25
  27442329.433                   144210979.349 0                        40.000  
                  27442328.128   110499320.931          45.000  
  26375245.560                   138602263.361 0                        43.000  
                  26375243.505   106201834.320          48.000  
  22895647.189                   120317455.410 0                        45.000  
                  22895642.185    92191283.734          49.000  
  22389924.373                   117660536.005 0                        44.000  
                  22389920.245    90155485.875          50.000  
  24819948.030                   130429758.307 0                        42.000  
                  24819944.832    99939687.419          45.000  
  27575278.788                   144909571.589 0                        41.000  
                  27575276.715   111034609.248          46.000  
  26189784.150                   137628775.265 0                        44.000  
                  26189783.578   105455812.810          48.000  
 22  1 19 23  0 15.0000000  0  8G01G08G10G16G21G23G27G32
  24472804.645    24472804.484   128606204.697 0 100212627.110 0        35.000  
        36.000                                                  
  20792003.434    20792000.253   109261956.752 0  85139188.479 0        50.000  
        48.000                                                  
  20959564.139    20959560.726   110143946.222 0  85825489.238 0        51.000  
        48.000                                                  
  24133608.543                   126822604.403 0                        41.000  
                                                                
  22474717.068                   118104880.907 0                        46.000  
                                                                
  22888375.640    22888370.244   120278449.149 0  93724376.396 0        43.000  
        43.000                                                  
  20378292.934    20378289.253   107087905.609 0  83445906.377 0        50.000  
        49.000                                                  
  23027819.920    23027816.882   121012523.154 0  94294920.837 0        44.000  
        42.000                                                  
 22  1 19 23  0 14.0000000  0  0
 22  1 19 23  0 15.0000000  0  7E02E04E11E12E19E24E25
  27442114.129                   144209846.987 0                        40.000  
                  27442112.681   110498453.285          45.000  
  26374696.016                   138599375.165 0                        43.000  
                  26374694.033   106199621.276          48.000  
  22895384.979                   120316076.806 0                        45.000  
                  22895379.815    92190227.395          49.000  
  22390091.287                   117661413.692 0                        44.000  
                  22390087.249    90156158.389          50.000  
  24819854.003                   130429264.492 0                        42.000  
                  24819850.966    99939309.048          45.000  
  27575840.911                   144912525.956 0                        41.000  
                  27575838.946   111036872.982          46.000  
  26190019.271                   137630011.278 0                        44.000  
                  26190018.824   105456759.887          48.000  
 22  1 19 23  0 16.0000000  0  8G01G08G10G16G21G23G27G32
  24472197.009    24472196.902   128603011.565 0 100210138.982 0        35.000  
        37.000                                                  
  20791773.924    20791770.815   109260751.007 0  85138248.933 0        50.000  
        48.000                                                  
  20959818.629    20959815.359   110145283.570 0  85826531.321 0        51.000  
        48.000                                                  
  24134284.850                   126826158.572 0                        41.000  
                                                                
  22474349.109                   118102947.599 0                        46.000  
                                                                
  22888958.474    22888952.899   120281511.671 0  93726762.766 0        43.000  
        43.000                                                  
  20378508.345    20378504.539   107089037.393 0  83446788.292 0        50.000  
        49.000                                                  
  23027281.651    23027278.632   121009694.736 0  94292716.886 0        44.000  
        42.000                                                  
 22  1 19 23  0 15.0000000  0  0
 22  1 19 23  0 16.0000000  0  7E02E04E11E12E19E24E25
  27441898.896                   144208715.276 0                        40.000  
                  27441897.395   110497586.132          45.000  
  26374146.383                   138596487.310 0                        43.000  
                  26374144.310   106197408.506          48.000  
  22895122.572                   120314698.516 0                        46.000  
                  22895117.640    92189171.302          49.000  
  22390258.398                   117662291.756 0                        44.000  
                  22390254.289    90156831.195          50.000  
  24819760.066                   130428771.349 0                        41.000  
                  24819757.100    99938931.194          45.000  
  27576403.017                   144915480.561 0                        41.000  
                  27576401.230   111039136.907          46.000  
  26190254.516                   137631247.922 0                        44.000  
                  26190254.230   105457707.446          48.000  
 22  1 19 23  0 17.0000000  0  8G01G08G10G16G21G23G27G32
  24471589.355    24471589.194   128599818.609 0 100207650.947 0        35.000  
        36.000                                                  
  20791544.557    20791541.466   109259545.873 0  85137309.874 0        50.000  
        48.000                                                  
  20960073.245    20960069.904   110146621.491 0  85827573.856 0        51.000  
        48.000                                                  
  24134961.210                   126829712.934 0                        41.000  
                                                                
  22473981.240                   118101014.563 0                        46.000  
                                                                
  22889541.326    22889535.697   120284574.493 0  93729149.387 0        43.000  
        43.000                                                  
  20378723.756    20378720.111   107090169.850 0  83447670.721 0        50.000  
        49.000                                                  
  23026743.437    23026740.524   121006866.705 0  94290513.233 0        44.000  
        42.000                                                  
 22  1 19 23  0 16.0000000  0  0
 22  1 19 23  0 17.0000000  0  7E02E04E11E12E19E24E25
  27441683.825                   144207584.105 0                        39.000  
                  27441682.145   110496719.395          45.000  
  26373596.910                   138593599.704 0                        43.000  
                  26373594.927   106195195.934          48.000  
  22894860.362                   120313320.458 0                        45.000  
                  22894855.377    92188115.394          49.000  
  22390425.599                   117663170.089 0                        44.000  
                  22390421.471    90157504.202          50.000  
  24819666.361                   130428278.785 0                        41.000  
                  24819663.359    99938553.777          45.000  
  27576965.230                   144918435.334 0                        41.000  
                  27576963.461   111041400.956          46.000  
  26190489.834                   137632485.098 0                        44.000  
                  26190489.601   105458655.409          48.000  
 22  1 19 23  0 18.0000000  0  8G01G08G10G16G21G23G27G32
  24470981.933    24470981.558   128596625.997 0 100205163.213 0        35.000  
        36.000                                                  
  20791315.369    20791312.349   109258341.561 0  85136371.447 0        50.000  
        48.000                                                  
  20960328.075    20960324.609   110147960.172 0  85828616.982 0        51.000  
        48.000                                                  
  24135637.660                   126833267.666 0                        41.000  
                                                                
  22473613.477                   118099081.985 0                        46.000  
                                                                
  22890124.267    22890118.692   120287637.863 0  93731536.420 0        43.000  
        43.000                                                  
  20378939.453    20378935.719   107091303.172 0  83448553.831 0        50.000  
        49.000                                                  
  23026205.382    23026202.488   121004039.293 0  94288310.055 0        44.000  
        42.000                                                  
 22  1 19 23  0 17.0000000  0  0
 22  1 19 23  0 18.0000000  0  7E02E04E11E12E19E24E25
  27441468.450                   144206453.690 0                        40.000  
                  27441467.002   110495853.218          45.000  
  26373047.509                   138590712.571 0                        43.000  
                  26373045.455   106192983.711          48.000  
  22894598.206                   120311942.811 0                        46.000  
                  22894593.220    92187059.792          49.000  
  22390592.799                   117664048.901 0                        44.000  
                  22390588.832    90158177.565          50.000  
  24819572.709                   130427787.006 0                        41.000  
                  24819569.779    99938176.946          45.000  
  27577527.640                   144921390.452 0                        41.000  
                  27577525.853   111043665.261          46.000  
  26190725.437                   137633722.995 0                        44.000  
                  26190725.151   105459603.925          48.000  
 22  1 19 23  0 19.0000000  0  8G01G08G10G16G21G23G27G32
  24470374.315    24470373.940   128593432.968 0 100202675.097 0        35.000  
        36.000                                                  
  20791086.163    20791083.161   109257137.231 0  85135433.013 0        50.000  
        48.000                                                  
  20960582.870    20960579.332   110149298.802 0  85829660.078 0        51.000  
        48.000                                                  
  24136314.056                   126836821.973 0                        41.000  
                                                                
  22473245.590                   118097149.041 0                        46.000  
                                                                
  22890707.190    22890701.651   120290700.937 0  93733923.226 0        43.000  
        43.000                                                  
  20379155.043    20379151.380   107092436.532 0  83449436.967 0        50.000  
        49.000                                                  
  23025667.239    23025664.380   121001211.644 0  94286106.694 0        44.000  
        42.000                                                  
 22  1 19 23  0 18.0000000  0  0
 22  1 19 23  0 19.0000000  0  7E02E04E11E12E19E24E25
  27441253.378                   144205323.188 0                        39.000  
                  27441251.859   110494986.989          45.000  
  26372497.876                   138587825.073 0                        43.000  
                  26372495.964   106190771.217          48.000  
  22894336.049                   120310564.782 0                        46.000  
                  22894330.956    92186003.898          49.000  
  22390759.857                   117664927.348 0                        44.000  
                  22390755.926    90158850.671          50.000  
  24819479.201                   130427295.196 0                        41.000  
                  24819476.109    99937800.091          45.000  
  27578089.746                   144924345.107 0                        40.000  
                  27578088.191   111045929.224          46.000  
  26190961.004                   137634960.810 0                        44.000  
                  26190960.700   105460552.381          48.000  
 22  1 19 23  0 20.0000000  0  8G01G08G10G16G21G23G27G32
  24469766.643    24469766.268   128590239.777 0 100200186.915 0        35.000  
        36.000                                                  
  20790857.029    20790854.044   109255933.227 0  85134494.825 0        49.000  
        48.000                                                  
  20960837.682    20960834.090   110150637.718 0  85830703.389 0        51.000  
        48.000                                                  
  24136990.381                   126840376.177 0                        41.000  
                                                                
  22472877.702                   118095216.078 0                        46.000  
                                                                
  22891290.060    22891284.592   120293764.035 0  93736310.053 0        43.000  
        43.000                                                  
  20379370.847    20379367.041   107093570.277 0  83450320.404 0        50.000  
        49.000                                                  
  23025129.238    23025126.218   120998384.115 0  94283903.425 0        44.000  
        42.000                                                  
 22  1 19 23  0 19.0000000  0  0
 22  1 19 23  0 20.0000000  0  7E02E04E11E12E19E24E25
  27441038.110                   144204192.933 0                        39.000  
                  27441036.591   110494120.958          45.000  
  26371948.422                   138584937.535 0                        43.000  
                  26371946.545   106188558.686          48.000  
  22894073.821                   120309186.671 0                        46.000  
                  22894068.711    92184947.945          49.000  
  22390927.057                   117665805.781 0                        44.000  
                  22390923.090    90159523.762          50.000  
  24819385.549                   130426803.643 0                        41.000  
                  24819382.654    99937423.467          45.000  
  27578651.941                   144927299.627 0                        40.000  
                  27578650.351   111048193.068          46.000  
  26191196.786                   137636198.850 0                        44.000  
                  26191196.268   105461501.010          48.000  
 22  1 19 23  0 21.0000000  0  8G01G08G10G16G21G23G27G32
  24469159.114    24469158.703   128587047.200 0 100197699.204 0        35.000  
        36.000                                                  
  20790628.126    20790625.089   109254730.379 0  85133557.537 0        49.000  
        48.000                                                  
  20961092.655    20961089.081   110151977.702 0  85831747.534 0        51.000  
        48.000                                                  
  24137666.866                   126843931.085 0                        41.000  
                                                                
  22472510.119                   118093283.885 0                        46.000  
                                                                
  22891872.983    22891867.622   120296827.945 0  93738697.544 0        43.000  
        43.000                                                  
  20379586.759    20379582.971   107094705.195 0  83451204.754 0        50.000  
        49.000                                                  
  23024591.381    23024588.307   120995557.487 0  94281700.858 0        44.000  
        42.000                                                  
 22  1 19 23  0 20.0000000  0  0
 22  1 19 23  0 21.0000000  0  7E02E04E11E12E19E24E25
  27440823.253                   144203063.739 0                        40.000  
                  27440821.913   110493255.730          45.000  
  26371399.003                   138582050.760 0                        43.000  
                  26371397.126   106186346.741          48.000  
  22893811.808                   120307809.288 0                        46.000  
                  22893806.626    92183892.550          49.000  
  22391094.258                   117666684.998 0                        44.000  
                  22391090.398    90160197.446          50.000  
  24819292.237                   130426313.191 0                        41.000  
                  24819289.217    99937047.662          45.000  
  27579214.208                   144930254.805 0                        40.000  
                  27579212.689   111050457.420          46.000  
  26191432.496                   137637437.930 0                        44.000  
                  26191432.121   105462450.434          48.000  
 22  1 19 23  0 22.0000000  0  8G01G08G10G16G21G23G27G32
  24468551.549    24468551.103   128583854.864 0 100195211.648 0        35.000  
        36.000                                                  
  20790399.314    20790396.365   109253528.194 0  85132620.771 0        49.000  
        48.000                                                  
  20961347.807    20961344.179   110153318.298 0  85832792.150 0        51.000  
        48.000                                                  
  24138343.370                   126847486.178 0                        41.000  
                                                                
  22472142.464                   118091351.982 0                        46.000  
                                                                
  22892456.049    22892450.742   120299892.249 0  93741085.303 0        43.000  
        43.000                                                  
  20379802.777    20379799.025   107095840.803 0  83452089.641 0        50.000  
        49.000                                                  
  23024053.648    23024050.485   120992731.291 0  94279498.611 0        44.000  
        42.000                                                  
 22  1 19 23  0 21.0000000  0  0
 22  1 19 23  0 22.0000000  0  7E02E04E11E12E19E24E25
  27440608.735                   144201935.115 0                        40.000  
                  27440607.216   110492390.938          45.000  
  26370849.655                   138579164.275 0                        43.000  
                  26370847.797   106184135.021          48.000  
  22893549.759                   120306432.160 0                        46.000  
                  22893544.612    92182837.350          49.000  
  22391261.673                   117667564.516 0                        44.000  
                  22391257.777    90160871.360          50.000  
  24819199.032                   130425823.341 0                        41.000  
                  24819196.084    99936672.324          45.000  
  27579776.510                   144933210.152 0                        40.000  
                  27579775.170   111052721.914          46.000  
  26191668.224                   137638677.561 0                        44.000  
                  26191667.956   105463400.284          48.000  
 22  1 19 23  0 23.0000000  0  8G01G08G10G16G21G23G27G32
  24467944.020    24467943.431   128580662.216 0 100192723.914 0        35.000  
        36.000                                                  
  20790170.590    20790167.606   109252326.218 0  85131684.155 0        49.000  
        48.000                                                  
  20961602.941    20961599.295   110154659.045 0  85833836.888 0        51.000  
        48.000                                                  
  24139019.837                   126851041.066 0                        41.000  
                                                                
  22471774.808                   118089419.918 0                        46.000  
                                                                
  22893039.205    22893033.862   120302956.459 0  93743472.983 0        43.000  
        43.000                                                  
  20380018.939    20380015.151   107096976.678 0  83452974.736 0        50.000  
        49.000                                                  
  23023515.898    23023512.699   120989905.077 0  94277296.380 0        44.000  
        42.000                                                  
 22  1 19 23  0 22.0000000  0  0
 22  1 19 23  0 23.0000000  0  7E02E04E11E12E19E24E25
  27440393.842                   144200806.623 0                        40.000  
                  27440392.377   110491526.247          45.000  
  26370300.272                   138576277.646 0                        43.000  
                  26370298.575   106181923.188          47.000  
  22893287.638                   120305054.868 0                        46.000  
                  22893282.474    92181782.020          49.000  
  22391428.998                   117668443.894 0                        44.000  
                  22391425.210    90161545.160          50.000  
  24819105.935                   130425333.669 0                        41.000  
                  24819103.040    99936297.119          45.000  
  27580339.009                   144936165.265 0                        40.000  
                  27580337.562   111054986.212          46.000  
  26191904.024                   137639917.313 0                        44.000  
                  26191903.917   105464350.217          48.000  
 22  1 19 23  0 24.0000000  0  8G01G08G10G16G21G23G27G32
  24467336.349    24467335.705   128577469.254 0 100190235.863 0        35.000  
        36.000                                                  
  20789941.867    20789938.900   109251124.326 0  85130747.623 0        49.000  
        48.000                                                  
  20961858.182    20961854.501   110155999.830 0  85834881.655 0        51.000  
        48.000                                                  
  24139696.305                   126854595.604 0                        41.000  
                                                                
  22471407.100                   118087487.595 0                        46.000  
                                                                
  22893622.253    22893616.982   120306020.448 0  93745860.524 0        43.000  
        43.000                                                  
  20380235.208    20380231.384   107098112.683 0  83453859.939 0        50.000  
        49.000                                                  
  23022978.040    23022974.824   120987078.730 0  94275094.037 0        44.000  
        42.000                                                  
 22  1 19 23  0 23.0000000  0  0
 22  1 19 23  0 24.0000000  0  7E02E04E11E12E19E24E25
  27440179.057                   144199678.143 0                        40.000  
                  27440177.556   110490661.572          45.000  
  26369751.157                   138573390.745 0                        43.000  
                  26369749.227   106179711.143          48.000  
  22893025.481                   120303677.265 0                        46.000  
                  22893020.424    92180726.456          49.000  
  22391596.342                   117669323.011 0                        44.000  
                  22391592.375    90162218.776          50.000  
  24819012.658                   130424844.042 0                        41.000  
                  24819009.674    99935921.954          45.000  
  27580901.276                   144939119.988 0                        40.000  
                  27580899.810   111057250.227          46.000  
  26192139.859                   137641157.065 0                        44.000  
                  26192139.752   105465300.161          48.000  
 22  1 19 23  0 25.0000000  0  8G01G08G10G16G21G23G27G32
  24466728.855    24466728.266   128574276.938 0 100187748.305 0        36.000  
        36.000                                                  
  20789713.411    20789710.427   109249923.553 0  85129811.962 0        49.000  
        48.000                                                  
  20962113.602    20962109.849   110157341.680 0  85835927.248 0        51.000  
        48.000                                                  
  24140372.790                   126858150.809 0                        41.000  
                                                                
  22471039.534                   118085556.038 0                        46.000  
                                                                
  22894205.570    22894200.227   120309085.236 0  93748248.672 0        42.000  
        43.000                                                  
  20380451.602    20380447.831   107099249.843 0  83454746.036 0        50.000  
        49.000                                                  
  23022440.397    23022437.145   120984253.288 0  94272892.388 0        44.000  
        42.000                                                  
 22  1 19 23  0 24.0000000  0  0
 22  1 19 23  0 25.0000000  0  7E02E04E11E12E19E24E25
  27439964.700                   144198550.710 0                        40.000  
                  27439963.163   110489797.688          45.000  
  26369201.935                   138570504.594 0                        43.000  
                  26369199.969   106177499.674          47.000  
  22892763.539                   120302300.381 0                        46.000  
                  22892758.340    92179671.437          49.000  
  22391763.685                   117670202.891 0                        44.000  
                  22391759.843    90162892.979          50.000  
  24818919.686                   130424355.486 0                        41.000  
                  24818916.863    99935547.597          45.000  
  27581463.757                   144942075.356 0                        40.000  
                  27581462.327   111059514.727          46.000  
  26192376.123                   137642397.826 0                        44.000  
                  26192375.998   105466250.869          48.000  
 22  1 19 23  0 26.0000000  0  8G01G08G10G16G21G23G27G32
  24466121.309    24466120.701   128571084.329 0 100185260.580 0        35.000  
        36.000                                                  
  20789484.920    20789481.971   109248722.976 0  85128876.444 0        49.000  
        48.000                                                  
  20962368.950    20962365.144   110158683.673 0  85836972.960 0        51.000  
        48.000                                                  
  24141049.347                   126861705.793 0                        41.000  
                                                                
  22470671.986                   118083624.294 0                        46.000  
                                                                
  22894788.797    22894783.400   120312149.989 0  93750636.778 0        43.000  
        43.000                                                  
  20380668.031    20380664.207   107100387.253 0  83455632.333 0        50.000  
        49.000                                                  
  23021902.790    23021899.395   120981427.825 0  94270690.715 0        44.000  
        42.000                                                  
 22  1 19 23  0 25.0000000  0  0
 22  1 19 23  0 26.0000000  0  7E02E04E11E12E19E24E25
  27439750.182                   144197423.380 0                        40.000  
                  27439748.610   110488933.898          45.000  
  26368652.552                   138567618.268 0                        43.000  
                  26368650.622   106175288.074          47.000  
  22892501.633                   120300923.288 0                        46.000  
                  22892496.272    92178616.264          49.000  
  22391931.225                   117671082.638 0                        44.000  
                  22391927.169    90163567.062          50.000  
  24818826.731                   130423867.073 0                        41.000  
                  24818823.836    99935173.370          45.000  
  27582026.077                   144945030.466 0                        40.000  
                  27582024.719   111061779.026          46.000  
  26192612.102                   137643638.695 0                        44.000  
                  26192612.102   105467201.670          48.000  
 22  1 19 23  0 27.0000000  0  8G01G08G10G16G21G23G27G32
  24465513.690    24465513.065   128567891.655 0 100182772.821 0        35.000  
        36.000                                                  
  20789256.518    20789253.641   109247522.831 0  85127941.265 0        49.000  
        48.000                                                  
  20962624.334    20962620.635   110160026.040 0  85838018.959 0        51.000  
        48.000                                                  
  24141725.833                   126865260.754 0                        42.000  
                                                                
  22470304.474                   118081692.632 0                        46.000  
                                                                
  22895372.077    22895366.484   120315214.800 0  93753024.954 0        43.000  
        43.000                                                  
  20380884.550    20380880.762   107101525.138 0  83456518.993 0        50.000  
        49.000                                                  
  23021365.200    23021361.734   120978602.541 0  94268489.209 0        44.000  
        42.000                                                  
 22  1 19 23  0 26.0000000  0  0
 22  1 19 23  0 27.0000000  0  7E02E04E11E12E19E24E25
  27439535.825                   144196296.420 0                        40.000  
                  27439534.092   110488070.372          45.000  
  26368103.347                   138564732.006 0                        43.000  
                  26368101.471   106173076.531          48.000  
  22892239.584                   120299546.216 0                        46.000  
                  22892234.259    92177561.114          49.000  
  22392098.479                   117671962.439 0                        44.000  
                  22392094.726    90164241.199          50.000  
  24818733.937                   130423379.051 0                        41.000  
                  24818730.882    99934799.431          45.000  
  27582588.505                   144947985.520 0                        40.000  
                  27582587.111   111064043.290          46.000  
  26192848.241                   137644879.900 0                        44.000  
                  26192848.366   105468152.711          48.000  
 22  1 19 23  0 28.0000000  0  8G01G08G10G16G21G23G27G32
  24464906.251    24464905.643   128564700.084 0 100180285.858 0        35.000  
        36.000                                                  
  20789028.438    20789025.632   109246324.220 0  85127007.288 0        49.000  
        49.000                                                  
  20962880.040    20962876.377   110161369.882 0  85839066.114 0        51.000  
        48.000                                                  
  24142402.515                   126868816.821 0                        41.000  
                                                                
  22469937.069                   118079762.134 0                        47.000  
                                                                
  22895955.447    22895950.104   120318280.885 0  93755414.111 0        43.000  
        43.000                                                  
  20381101.355    20381097.603   107102664.596 0  83457406.887 0        50.000  
        49.000                                                  
  23020827.843    23020824.358   120975778.583 0  94266288.720 0        44.000  
        42.000                                                  
 22  1 19 23  0 27.0000000  0  0
 22  1 19 23  0 28.0000000  0  7E02E04E11E12E19E24E25
  27439321.540                   144195170.889 0                        40.000  
                  27439320.003   110487207.954          45.000  
  26367554.322                   138561846.912 0                        43.000  
                  26367552.410   106170865.880          47.000  
  22891977.517                   120298170.297 0                        46.000  
                  22891972.460    92176506.827          49.000  
  22392266.090                   117672843.419 0                        44.000  
                  22392262.231    90164916.243          50.000  
  24818641.304                   130422892.522 0                        41.000  
                  24818638.427    99934426.632          45.000  
  27583151.039                   144950941.627 0                        40.000  
                  27583149.645   111066308.362          46.000  
  26193084.791                   137646122.545 0                        44.000  
                  26193084.773   105469104.866          48.000  
 22  1 19 23  0 29.0000000  0  8G01G08G10G16G21G23G27G32
  24464298.722    24464298.079   128561507.830 0 100177798.407 0        35.000  
        35.000                                                  
  20788800.179    20788797.499   109245125.395 0  85126073.141 0        49.000  
        48.000                                                  
  20963135.710    20963132.047   110162713.478 0  85840113.069 0        51.000  
        48.000                                                  
  24143079.161                   126872372.237 0                        42.000  
                                                                
  22469569.610                   118077831.082 0                        47.000  
                                                                
  22896538.835    22896533.385   120321346.450 0  93757802.874 0        43.000  
        43.000                                                  
  20381318.214    20381314.354   107103803.899 0  83458294.657 0        50.000  
        49.000                                                  
  23020290.414    23020286.876   120972954.212 0  94264087.911 0        44.000  
        42.000                                                  
 22  1 19 23  0 28.0000000  0  0
 22  1 19 23  0 29.0000000  0  7E02E04E11E12E19E24E25
  27439107.308                   144194045.099 0                        40.000  
                  27439105.807   110486345.341          45.000  
  26367005.421                   138558961.266 0                        43.000  
                  26367003.348   106168654.800          47.000  
  22891715.646                   120296793.771 0                        46.000  
                  22891710.536    92175452.084          49.000  
  22392433.755                   117673723.871 0                        44.000  
                  22392429.914    90165590.868          50.000  
  24818548.457                   130422405.756 0                        41.000  
                  24818545.759    99934053.653          45.000  
  27583713.449                   144953897.078 0                        41.000  
                  27583712.144   111068572.921          46.000  
  26193321.270                   137647364.890 0                        43.000  
                  26193321.180   105470056.795          48.000  
 22  1 19 23  0 30.0000000  0  8G01G08G10G16G21G23G27G32
  24463691.175    24463690.621   128558315.341 0 100175310.753 0        35.000  
        35.000                                                  
  20788572.009    20788569.472   109243926.770 0  85125139.140 0        49.000  
        49.000                                                  
  20963391.398    20963387.806   110164057.241 0  85841160.153 0        51.000  
        48.000                                                  
  24143755.736                   126875927.430 0                        42.000  
                                                                
  22469202.241                   118075899.875 0                        47.000  
                                                                
  22897122.259    22897116.737   120324411.969 0  93760191.574 0        43.000  
        43.000                                                  
  20381534.983    20381531.302   107104943.471 0  83459182.638 0        50.000  
        49.000                                                  
  23019752.950    23019749.483   120970129.823 0  94261887.084 0        44.000  
        42.000                                                  
 22  1 19 23  0 29.0000000  0  0
 22  1 19 23  0 30.0000000  0  7E02E04E11E12E19E24E25
  27438892.880                   144192919.439 0                        40.000  
                  27438891.468   110485482.824          45.000  
  26366456.288                   138556075.474 0                        43.000  
                  26366454.179   106166443.600          47.000  
  22891453.704                   120295417.071 0                        46.000  
                  22891448.540    92174397.222          49.000  
  22392601.277                   117674604.179 0                        44.000  
                  22392597.489    90166265.390          50.000  
  24818455.913                   130421919.160 0                        41.000  
                  24818453.161    99933680.802          45.000  
  27584275.698                   144956852.261 0                        41.000  
                  27584274.500   111070837.296          46.000  
  26193557.695                   137648607.347 0                        43.000  
                  26193557.712   105471008.815          48.000  
 22  1 19 23  0 31.0000000  0  8G01G08G10G16G21G23G27G32
  24463083.700    24463083.074   128555122.802 0 100172823.013 0        35.000  
        35.000                                                  
  20788343.929    20788341.481   109242728.564 0  85124205.482 0        49.000  
        49.000                                                  
  20963647.264    20963643.601   110165401.368 0  85842207.525 0        51.000  
        48.000                                                  
  24144432.275                   126879482.602 0                        42.000  
                                                                
  22468834.764                   118073968.735 0                        46.000  
                                                                
  22897705.629    22897700.125   120327477.567 0  93762580.354 0        43.000  
        43.000                                                  
  20381751.823    20381748.249   107106083.495 0  83460070.966 0        50.000  
        49.000                                                  
  23019215.539    23019212.108   120967305.630 0  94259686.415 0        44.000  
        42.000                                                  
 22  1 19 23  0 30.0000000  0  0
 22  1 19 23  0 31.0000000  0  7E02E04E11E12E19E24E25
  27438678.666                   144191794.131 0                        40.000  
                  27438677.505   110484620.571          45.000  
  26365907.048                   138553189.732 0                        43.000  
                  26365905.118   106164232.453          47.000  
  22891191.780                   120294040.407 0                        46.000  
                  22891186.616    92173342.366          49.000  
  22392768.657                   117675484.558 0                        44.000  
                  22392764.922    90166939.965          50.000  
  24818363.352                   130421432.916 0                        41.000  
                  24818360.689    99933308.237          45.000  
  27584838.000                   144959807.424 0                        41.000  
                  27584836.821   111073101.630          46.000  
  26193794.120                   137649850.145 0                        43.000  
                  26193794.102   105471961.079          48.000  
 22  1 19 23  0 32.0000000  0  8G01G08G10G16G21G23G27G32
  24462476.224    24462475.635   128551930.603 0 100170335.583 0        35.000  
        35.000                                                  
  20788116.081    20788113.508   109241531.204 0  85123272.474 0        49.000  
        48.000                                                  
  20963903.149    20963899.593   110166746.258 0  85843255.491 0        51.000  
        48.000                                                  
  24145108.796                   126883038.168 0                        42.000  
                                                                
  22468467.449                   118072038.047 0                        47.000  
                                                                
  22898289.088    22898283.692   120330543.722 0  93764969.563 0        43.000  
        43.000                                                  
  20381968.950    20381965.394   107107224.383 0  83460959.972 0        50.000  
        49.000                                                  
  23018678.199    23018674.929   120964482.028 0  94257486.219 0        44.000  
        42.000                                                  
 22  1 19 23  0 31.0000000  0  0
 22  1 19 23  0 32.0000000  0  7E02E04E11E12E19E24E25
  27438464.399                   144190669.556 0                        40.000  
                  27438463.362   110483758.882          45.000  
  26365358.165                   138550304.447 0                        43.000  
                  26365355.985   106162021.646          47.000  
  22890930.070                   120292664.154 0                        46.000  
                  22890924.656    92172287.834          49.000  
  22392936.411                   117676365.406 0                        44.000  
                  22392932.569    90167614.899          50.000  
  24818271.058                   130420947.464 0                        41.000  
                  24818268.146    99932936.265          45.000  
  27585400.481                   144962762.927 0                        41.000  
                  27585399.230   111075366.232          46.000  
  26194030.795                   137651093.650 0                        44.000  
                  26194030.723   105472913.894          48.000  
 22  1 19 23  0 33.0000000  0  8G01G08G10G16G21G23G27G32
  24461868.964    24461868.142   128548738.715 0 100167848.432 0        35.000  
        35.000                                                  
  20787888.358    20787885.821   109240334.644 0  85122340.088 0        49.000  
        49.000                                                  
  20964159.301    20964155.620   110168091.885 0  85844304.040 0        51.000  
        48.000                                                  
  24145785.425                   126886594.071 0                        42.000  
                                                                
  22468100.223                   118070107.781 0                        47.000  
                                                                
  22898872.619    22898867.151   120333610.352 0  93767359.137 0        43.000  
        43.000                                                  
  20382186.309    20382182.717   107108366.103 0  83461849.626 0        50.000  
        49.000                                                  
  23018140.967    23018137.804   120961659.006 0  94255286.448 0        44.000  
        42.000                                                  
 22  1 19 23  0 32.0000000  0  0
 22  1 19 23  0 33.0000000  0  7E02E04E11E12E19E24E25
  27438250.524                   144189545.686 0                        40.000  
                  27438249.452   110482897.743          45.000  
  26364809.175                   138547419.585 0                        43.000  
                  26364807.031   106159811.170          47.000  
  22890668.218                   120291288.273 0                        46.000  
                  22890662.732    92171233.597          49.000  
  22393104.058                   117677246.685 0                        44.000  
                  22393100.252    90168290.165          50.000  
  24818178.711                   130420462.755 0                        41.000  
                  24818175.959    99932564.864          45.000  
  27585963.052                   144965718.738 0                        41.000  
                  27585961.783   111077631.072          46.000  
  26194267.649                   137652337.859 0                        44.000  
                  26194267.542   105473867.249          48.000  
 22  1 19 23  0 34.0000000  0  8G01G08G10G16G21G23G27G32
  24461261.488    24461260.774   128545546.986 0 100165361.357 0        35.000  
        35.000                                                  
  20787660.761    20787658.205   109239138.695 0  85121408.177 0        49.000  
        48.000                                                  
  20964415.507    20964411.755   110169438.075 0  85845353.019 0        51.000  
        48.000                                                  
  24146462.178                   126890150.150 0                        42.000  
                                                                
  22467732.960                   118068177.798 0                        46.000  
                                                                
  22899456.239    22899450.789   120336677.274 0  93769748.966 0        43.000  
        43.000                                                  
  20382403.721    20382400.111   107109508.496 0  83462739.800 0        50.000  
        49.000                                                  
  23017603.842    23017600.519   120958836.375 0  94253087.002 0        44.000  
        42.000                                                  
 22  1 19 23  0 33.0000000  0  0
 22  1 19 23  0 34.0000000  0  7E02E04E11E12E19E24E25
  27438036.936                   144188422.371 0                        40.000  
                  27438035.739   110482037.012          45.000  
  26364260.221                   138544534.972 0                        43.000  
                  26364258.077   106157600.884          47.000  
  22890406.294                   120289912.627 0                        46.000  
                  22890400.969    92170179.522          49.000  
  22393271.652                   117678128.226 0                        44.000  
                  22393268.078    90168965.640          50.000  
  24818086.561                   130419978.621 0                        41.000  
                  24818083.898    99932193.904          45.000  
  27586525.586                   144968674.678 0                        40.000  
                  27586524.353   111079896.022          46.000  
  26194504.431                   137653582.576 0                        43.000  
                  26194504.413   105474820.996          48.000  
 22  1 19 23  0 35.0000000  0  8G01G08G10G16G21G23G27G32
  24460654.031    24460653.477   128542355.028 0 100162874.156 0        35.000  
        35.000                                                  
  20787433.306    20787430.751   109237943.001 0  85120476.465 0        49.000  
        49.000                                                  
  20964671.713    20964667.996   110170784.464 0  85846402.156 0        51.000  
        48.000                                                  
  24147138.878                   126893706.053 0                        41.000  
                                                                
  22467365.770                   118066247.694 0                        47.000  
                                                                
  22900039.877    22900034.355   120339744.168 0  93772138.761 0        42.000  
        43.000                                                  
  20382621.223    20382617.434   107110651.170 0  83463630.195 0        50.000  
        49.000                                                  
  23017066.825    23017063.465   120956013.773 0  94250887.570 0        44.000  
        42.000                                                  
 22  1 19 23  0 34.0000000  0  0
 22  1 19 23  0 35.0000000  0  7E02E04E11E12E19E24E25
  27437823.133                   144187299.202 0                        39.000  
                  27437822.079   110481176.411          45.000  
  26363711.392                   138541650.257 0                        43.000  
                  26363709.158   106155390.514          47.000  
  22890144.530                   120288536.826 0                        46.000  
                  22890139.187    92169125.343          49.000  
  22393439.549                   117679009.678 0                        44.000  
                  22393435.743    90169641.036          50.000  
  24817994.732                   130419494.695 0                        41.000  
                  24817991.783    99931823.100          45.000  
  27587088.103                   144971630.437 0                        40.000  
                  27587086.656   111082160.815          46.000  
  26194741.374                   137654827.457 0                        43.000  
                  26194741.303   105475774.859          48.000  
 22  1 19 23  0 36.0000000  0  8G01G08G10G16G21G23G27G32
  24460046.538    24460045.984   128539162.654 0 100160386.586 0        35.000  
        35.000                                                  
  20787205.780    20787203.224   109236747.337 0  85119544.781 0        49.000  
        49.000                                                  
  20964927.883    20964924.185   110172130.833 0  85847451.266 0        51.000  
        48.000                                                  
  24147815.506                   126897261.548 0                        41.000  
                                                                
  22466998.544                   118064317.261 0                        47.000  
                                                                
  22900623.426    22900617.904   120342810.814 0  93774528.350 0        43.000  
        43.000                                                  
  20382838.581    20382834.883   107111793.938 0  83464520.660 0        50.000  
        49.000                                                  
  23016529.628    23016526.394   120953190.983 0  94248687.991 0        44.000  
        42.000                                                  
 22  1 19 23  0 35.0000000  0  0
 22  1 19 23  0 36.0000000  0  7E02E04E11E12E19E24E25
  27437609.312                   144186176.027 0                        39.000  
                  27437608.187   110480315.785          45.000  
  26363162.402                   138538765.213 0                        44.000  
                  26363160.061   106153179.893          47.000  
  22889882.588                   120287160.681 0                        46.000  
                  22889877.371    92168070.888          49.000  
  22393607.125                   117679890.823 0                        44.000  
                  22393603.390    90170316.194          50.000  
  24817902.510                   130419010.761 0                        41.000  
                  24817899.686    99931452.299          45.000  
  27587650.334                   144974585.755 0                        40.000  
                  27587649.065   111084425.270          46.000  
  26194978.121                   137656072.279 0                        43.000  
                  26194978.157   105476728.690          48.000  
 22  1 19 23  0 37.0000000  0  8G01G08G10G16G21G23G27G32
  24459439.080    24459438.437   128535970.575 0 100157899.193 0        35.000  
        35.000                                                  
  20786978.343    20786975.895   109235552.350 0  85118613.627 0        49.000  
        49.000                                                  
  20965184.286    20965180.480   110173477.842 0  85848500.883 0        51.000  
        48.000                                                  
  24148492.135                   126900817.307 0                        41.000  
                                                                
  22466631.282                   118062387.157 0                        46.000  
                                                                
  22901207.082    22901201.524   120345877.840 0  93776918.227 0        42.000  
        43.000                                                  
  20383056.173    20383052.509   107112937.434 0  83465411.702 0        50.000  
        49.000                                                  
  23015992.628    23015989.448   120950368.660 0  94246488.787 0        44.000  
        42.000                                                  
 22  1 19 23  0 36.0000000  0  0
 22  1 19 23  0 37.0000000  0  7E02E04E11E12E19E24E25
  27437395.527                   144185053.439 0                        39.000  
                  27437394.580   110479455.625          45.000  
  26362613.269                   138535880.483 0                        43.000  
                  26362611.196   106150969.525          47.000  
  22889620.861                   120285784.812 0                        46.000  
                  22889615.625    92167016.653          49.000  
  22393774.879                   117680772.287 0                        44.000  
                  22393771.198    90170991.607          50.000  
  24817810.466                   130418527.477 0                        41.000  
                  24817807.661    99931081.991          45.000  
  27588212.779                   144977541.246 0                        40.000  
                  27588211.475   111086689.899          46.000  
  26195215.100                   137657317.700 0                        43.000  
                  26195215.064   105477682.963          48.000  
 22  1 19 23  0 38.0000000  0  8G01G08G10G16G21G23G27G32
  24458831.641    24458831.033   128532778.767 0 100155412.109 0        35.000  
        35.000                                                  
  20786751.138    20786748.672   109234358.203 0  85117683.116 0        49.000  
        49.000                                                  
  20965440.760    20965436.972   110174825.625 0  85849551.099 0        51.000  
        48.000                                                  
  24149168.817                   126904373.436 0                        41.000  
                                                                
  22466264.037                   118060457.525 0                        46.000  
                                                                
  22901790.720    22901785.287   120348945.395 0  93779308.539 0        42.000  
        43.000                                                  
  20383273.942    20383270.297   107114081.798 0  83466303.410 0        50.000  
        49.000                                                  
  23015455.700    23015452.376   120947546.968 0  94244290.059 0        44.000  
        42.000                                                  
 22  1 19 23  0 37.0000000  0  0
 22  1 19 23  0 38.0000000  0  7E02E04E11E12E19E24E25
  27437182.064                   144183931.611 0                        39.000  
                  27437181.224   110478596.036          45.000  
  26362064.672                   138532996.234 0                        44.000  
                  26362062.385   106148759.511          47.000  
  22889359.169                   120284409.389 0                        46.000  
                  22889353.772    92165962.757          49.000  
  22393942.723                   117681654.238 0                        44.000  
                  22393938.988    90171667.385          50.000  
  24817718.494                   130418044.972 0                        41.000  
                  24817715.903    99930712.275          45.000  
  27588775.225                   144980497.154 0                        40.000  
                  27588773.938   111088954.793          46.000  
  26195452.472                   137658563.846 0                        43.000  
                  26195452.258   105478637.804          48.000  
 22  1 19 23  0 39.0000000  0  8G01G08G10G16G21G23G27G32
  24458224.326    24458223.772   128529587.355 0 100152925.280 0        35.000  
        35.000                                                  
  20786524.023    20786521.610   109233164.877 0  85116753.254 0        49.000  
        49.000                                                  
  20965697.413    20965693.589   110176174.171 0  85850601.926 0        51.000  
        48.000                                                  
  24149845.570                   126907929.946 0                        41.000  
                                                                
  22465897.008                   118058528.354 0                        47.000  
                                                                
  22902374.501    22902369.033   120352013.470 0  93781699.242 0        42.000  
        43.000                                                  
  20383491.891    20383488.263   107115227.031 0  83467195.802 0        50.000  
        49.000                                                  
  23014918.861    23014915.501   120944725.842 0  94242091.781 0        44.000  
        42.000                                                  
 22  1 19 23  0 38.0000000  0  0
 22  1 19 23  0 39.0000000  0  7E02E04E11E12E19E24E25
  27436968.708                   144182810.517 0                        39.000  
                  27436967.779   110477737.018          45.000  
  26361515.914                   138530112.428 0                        44.000  
                  26361513.538   106146549.846          47.000  
  22889097.388                   120283034.383 0                        46.000  
                  22889092.027    92164909.185          49.000  
  22394110.692                   117682536.668 0                        44.000  
                  22394106.904    90172343.528          50.000  
  24817626.844                   130417563.232 0                        41.000  
                  24817624.325    99930343.157          45.000  
  27589337.652                   144983453.376 0                        40.000  
                  27589336.473   111091219.964          46.000  
  26195689.683                   137659810.711 0                        43.000  
                  26195689.576   105479593.194          48.000  
 22  1 19 23  0 40.0000000  0  8G01G08G10G16G21G23G27G32
  24457616.994    24457616.404   128526395.822 0 100150438.399 0        35.000  
        35.000                                                  
  20786297.086    20786294.602   109231971.924 0  85115823.680 0        49.000  
        49.000                                                  
  20965954.155    20965950.331   110177523.029 0  85851652.984 0        51.000  
        48.000                                                  
  24150522.360                   126911486.404 0                        41.000  
                                                                
  22465529.942                   118056599.189 0                        46.000  
                                                                
  22902958.264    22902952.957   120355081.600 0  93784090.013 0        42.000  
        43.000                                                  
  20383709.857    20383706.283   107116372.672 0  83468088.511 0        50.000  
        49.000                                                  
  23014382.004    23014378.787   120941904.881 0  94239893.625 0        44.000  
        42.000                                                  
 22  1 19 23  0 39.0000000  0  0
 22  1 19 23  0 40.0000000  0  7E02E04E11E12E19E24E25
  27436755.370                   144181689.725 0                        39.000  
                  27436754.673   110476878.229          45.000  
  26360967.353                   138527228.649 0                        44.000  
                  26360964.726   106144340.195          47.000  
  22888835.732                   120281659.350 0                        46.000  
                  22888830.442    92163855.587          49.000  
  22394278.732                   117683419.104 0                        44.000  
                  22394274.819    90173019.687          50.000  
  24817535.140                   130417081.833 0                        41.000  
                  24817532.674    99929974.288          45.000  
  27589900.276                   144986409.513 0                        40.000  
                  27589898.936   111093485.047          46.000  
  26195926.948                   137661057.845 0                        43.000  
                  26195926.895   105480548.795          48.000  
 22  1 19 23  0 41.0000000  0  8G01G08G10G16G21G23G27G32
  24457009.572    24457008.965   128523204.029 0 100147951.287 0        35.000  
        35.000                                                  
  20786070.060    20786067.612   109230779.206 0  85114894.289 0        49.000  
        49.000                                                  
  20966210.844    20966207.055   110178872.083 0  85852704.192 0        51.000  
        48.000                                                  
  24151199.077                   126915042.633 0                        42.000  
                                                                
  22465162.841                   118054669.907 0                        46.000  
                                                                
  22903542.170    22903536.809   120358149.686 0  93786480.704 0        42.000  
        43.000                                                  
  20383927.895    20383924.268   107117518.604 0  83468981.440 0        50.000  
        49.000                                                  
  23013845.183    23013841.966   120939083.916 0  94237695.471 0        44.000  
        42.000                                                  
 22  1 19 23  0 40.0000000  0  0
 22  1 19 23  0 41.0000000  0  7E02E04E11E12E19E24E25
  27436541.960                   144180569.082 0                        39.000  
                  27436541.406   110476019.557          45.000  
  26360418.524                   138524344.732 0                        43.000  
                  26360415.969   106142130.438          47.000  
  22888574.075                   120280284.156 0                        46.000  
                  22888568.786    92162801.862          49.000  
  22394446.558                   117684301.428 0                        44.000  
                  22394442.734    90173695.749          50.000  
  24817443.687                   130416600.625 0                        41.000  
                  24817441.078    99929605.574          45.000  
  27590462.740                   144989365.415 0                        40.000  
                  27590461.399   111095749.952          46.000  
  26196164.249                   137662305.136 0                        44.000  
                  26196164.356   105481504.500          48.000  
 22  1 19 23  0 42.0000000  0  8G01G08G10G16G21G23G27G32
  24456402.258    24456401.632   128520012.364 0 100145464.269 0        35.000  
        35.000                                                  
  20785843.302    20785840.765   109229587.057 0  85113965.340 0        49.000  
        49.000                                                  
  20966467.711    20966463.940   110180221.633 0  85853755.778 0        51.000  
        48.000                                                  
  24151875.777                   126918598.991 0                        42.000  
                                                                
  22464795.668                   118052740.815 0                        47.000  
                                                                
  22904126.076    22904120.679   120361218.036 0  93788871.629 0        42.000  
        43.000                                                  
  20384146.022    20384142.466   107118665.140 0  83469874.840 0        50.000  
        49.000                                                  
  23013308.451    23013305.306   120936263.301 0  94235497.603 0        44.000  
        42.000                                                  
 22  1 19 23  0 41.0000000  0  0
 22  1 19 23  0 42.0000000  0  7E02E04E11E12E19E24E25
  27436328.943                   144179448.915 0                        39.000  
                  27436328.211   110475161.252          45.000  
  26359869.713                   138521461.011 0                        44.000  
                  26359867.211   106139920.827          47.000  
  22888312.312                   120278909.106 0                        46.000  
                  22888307.041    92161748.257          49.000  
  22394614.473                   117685183.963 0                        44.000  
                  22394610.685    90174371.975          50.000  
  24817352.483                   130416119.933 0                        41.000  
                  24817349.642    99929237.238          45.000  
  27591025.328                   144992321.397 0                        40.000  
                  27591023.952   111098014.927          46.000  
  26196401.889                   137663552.884 0                        44.000  
                  26196401.764   105482460.562          48.000  
 22  1 19 23  0 43.0000000  0  8G01G08G10G16G21G23G27G32
  24455794.979    24455794.139   128516820.837 0 100142977.340 0        35.000  
        35.000                                                  
  20785616.527    20785614.007   109228395.483 0  85113036.845 0        49.000  
        49.000                                                  
  20966724.578    20966720.826   110181571.705 0  85854807.792 0        51.000  
        48.000                                                  
  24152552.620                   126922155.498 0                        42.000  
                                                                
  22464428.549                   118050811.946 0                        47.000  
                                                                
  22904710.125    22904704.621   120364286.651 0  93791262.778 0        42.000  
        43.000                                                  
  20384364.364    20384360.772   107119812.286 0  83470768.728 0        50.000  
        49.000                                                  
  23012771.862    23012768.645   120933443.049 0  94233299.990 0        44.000  
        42.000                                                  
 22  1 19 23  0 42.0000000  0  0
 22  1 19 23  0 43.0000000  0  7E02E04E11E12E19E24E25
  27436116.141                   144178329.274 0                        40.000  
                  27436115.248   110474303.333          45.000  
  26359320.812                   138518577.493 0                        43.000  
                  26359318.560   106137711.396          47.000  
  22888050.692                   120277534.249 0                        46.000  
                  22888045.456    92160694.795          49.000  
  22394782.496                   117686066.721 0                        44.000  
                  22394778.725    90175048.386          50.000  
  24817260.994                   130415639.760 0                        41.000  
                  24817258.188    99928869.334          45.000  
  27591587.952                   144995277.493 0                        40.000  
                  27591586.415   111100279.988          46.000  
  26196639.458                   137664801.098 0                        44.000  
                  26196639.261   105483416.995          48.000  
 22  1 19 23  0 44.0000000  0  8G01G08G10G16G21G23G27G32
  24455187.718    24455186.789   128513629.563 0 100140490.662 0        35.000  
        35.000                                                  
  20785389.947    20785387.356   109227204.678 0  85112108.938 0        49.000  
        48.000                                                  
  20966981.624    20966977.889   110182922.508 0  85855860.358 0        51.000  
        48.000                                                  
  24153229.517                   126925712.352 0                        42.000  
                                                                
  22464061.609                   118048883.482 0                        46.000  
                                                                
  22905294.085    22905288.724   120367355.761 0  93793654.276 0        42.000  
        43.000                                                  
  20384582.848    20384579.239   107120960.272 0  83471663.250 0        50.000  
        49.000                                                  
  23012235.148    23012232.057   120930623.344 0  94231102.826 0        44.000  
        42.000                                                  
 22  1 19 23  0 43.0000000  0  0
 22  1 19 23  0 44.0000000  0  7E02E04E11E12E19E24E25
  27435903.339                   144177210.307 0                        40.000  
                  27435902.267   110473445.955          45.000  
  26358772.233                   138515694.415 0                        44.000  
                  26358769.803   106135502.271          47.000  
  22887789.214                   120276159.786 0                        46.000  
                  22887783.907    92159641.630          49.000  
  22394950.464                   117686949.917 0                        44.000  
                  22394946.837    90175725.107          50.000  
  24817169.665                   130415160.353 0                        41.000  
                  24817166.949    99928501.976          45.000  
  27592150.522                   144998233.894 0                        40.000  
                  27592149.004   111102545.282          46.000  
  26196877.116                   137666050.014 0                        44.000  
                  26196876.794   105484373.954          48.000  
 22  1 19 23  0 45.0000000  0  8G01G08G10G16G21G23G27G32
  24454580.404    24454579.403   128510437.972 0 100138003.690 0        35.000  
        35.000                                                  
  20785163.368    20785160.741   109226013.972 0  85111181.123 0        49.000  
        48.000                                                  
  20967238.777    20967234.899   110184273.349 0  85856912.964 0        51.000  
        48.000                                                  
  24153906.288                   126929268.845 0                        42.000  
                                                                
  22463694.526                   118046954.781 0                        46.000  
                                                                
  22905878.062    22905872.666   120370424.657 0  93796045.615 0        42.000  
        43.000                                                  
  20384801.315    20384797.598   107122108.386 0  83472557.892 0        50.000  
        49.000                                                  
  23011698.595    23011695.521   120927803.524 0  94228905.562 0        44.000  
        42.000                                                  
 22  1 19 23  0 44.0000000  0  0
 22  1 19 23  0 45.0000000  0  7E02E04E11E12E19E24E25
  27435690.322                   144176091.369 0                        40.000  
                  27435689.322   110472588.585          45.000  
  26358223.404                   138512811.061 0                        43.000  
                  26358221.045   106133292.950          47.000  
  22887527.594                   120274785.011 0                        46.000  
                  22887522.287    92158588.234          49.000  
  22395118.540                   117687832.854 0                        44.000  
                  22395114.788    90176401.643          50.000  
  24817078.426                   130414680.976 0                        41.000  
                  24817075.746    99928134.657          45.000  
  27592713.218                   145001189.919 0                        40.000  
                  27592711.503   111104810.286          46.000  
  26197114.667                   137667298.924 0                        44.000  
                  26197114.559   105485330.902          48.000  
 22  1 19 23  0 46.0000000  0  8G01G08G10G16G21G23G27G32
  24453973.107    24453972.071   128507246.340 0 100135516.713 0        35.000  
        34.000                                                  
  20784936.932    20784934.216   109224823.731 0  85110253.657 0        49.000  
        48.000                                                  
  20967495.912    20967492.070   110185624.598 0  85857965.888 0        51.000  
        48.000                                                  
  24154583.113                   126932825.364 0                        42.000  
                                                                
  22463327.567                   118045026.162 0                        46.000  
                                                                
  22906461.932    22906456.768   120373493.717 0  93798437.090 0        42.000  
        43.000                                                  
  20385019.925    20385016.315   107123257.003 0  83473452.918 0        50.000  
        49.000                                                  
  23011162.095    23011159.004   120924983.947 0  94226708.484 0        44.000  
        42.000                                                  
 22  1 19 23  0 45.0000000  0  0
 22  1 19 23  0 46.0000000  0  7E02E04E11E12E19E24E25
  27435477.484                   144174972.813 0                        40.000  
                  27435476.430   110471731.516          45.000  
  26357674.825                   138509927.784 0                        43.000  
                  26357672.448   106131083.697          47.000  
  22887265.992                   120273410.302 0                        46.000  
                  22887260.720    92157534.892          49.000  
  22395286.527                   117688715.889 0                        44.000  
                  22395282.775    90177078.260          50.000  
  24816987.365                   130414202.012 0                        41.000  
                  24816984.542    99927767.670          45.000  
  27593275.699                   145004145.953 0                        40.000  
                  27593274.109   111107075.277          46.000  
  26197352.503                   137668548.192 0                        44.000  
                  26197352.164   105486288.138          48.000  
 22  1 19 23  0 47.0000000  0  8G01G08G10G16G21G23G27G32
  24453365.846    24453364.702   128504055.106 0 100133030.024 0        36.000  
        35.000                                                  
  20784710.496    20784707.887   109223634.328 0  85109326.855 0        49.000  
        48.000                                                  
  20967753.155    20967749.277   110186976.633 0  85859019.424 0        51.000  
        48.000                                                  
  24155259.992                   126936382.288 0                        42.000  
                                                                
  22462960.770                   118043098.032 0                        46.000  
                                                                
  22907045.981    22907040.746   120376563.300 0  93800828.982 0        42.000  
        43.000                                                  
  20385238.624    20385235.032   107124406.514 0  83474348.634 0        50.000  
        49.000                                                  
  23010625.631    23010622.504   120922164.984 0  94224511.887 0        44.000  
        42.000                                                  
 22  1 19 23  0 46.0000000  0  0
 22  1 19 23  0 47.0000000  0  7E02E04E11E12E19E24E25
  27435264.897                   144173855.038 0                        40.000  
                  27435263.807   110470875.027          45.000  
  26357126.121                   138507045.020 0                        43.000  
                  26357123.851   106128874.819          47.000  
  22887004.318                   120272036.041 0                        45.000  
                  22886999.189    92156481.893          49.000  
  22395454.782                   117689599.436 0                        44.000  
                  22395451.047    90177755.262          50.000  
  24816896.251                   130413723.859 0                        41.000  
                  24816893.660    99927401.292          45.000  
  27593838.270                   145007102.328 0                        40.000  
                  27593836.679   111109340.576          46.000  
  26197590.197                   137669798.208 0                        44.000  
                  26197590.072   105487245.948          48.000  
 22  1 19 23  0 48.0000000  0  8G01G08G10G16G21G23G27G32
  24452758.675    24452757.477   128500864.014 0 100130543.461 0        36.000  
        35.000                                                  
  20784484.274    20784481.665   109222445.525 0  85108400.510 0        49.000  
        48.000                                                  
  20968010.540    20968006.645   110188329.205 0  85860073.374 0        51.000  
        48.000                                                  
  24155936.924                   126939939.359 0                        41.000  
                                                                
  22462593.919                   118041170.138 0                        46.000  
                                                                
  22907630.298    22907624.902   120379633.209 0  93803221.116 0        42.000  
        43.000                                                  
  20385457.519    20385454.035   107125556.668 0  83475244.856 0        50.000  
        49.000                                                  
  23010089.257    23010086.112   120919346.393 0  94222315.578 0        44.000  
        42.000                                                  
 22  1 19 23  0 47.0000000  0  0
 22  1 19 23  0 48.0000000  0  7E02E04E11E12E19E24E25
  27435052.202                   144172737.755 0                        40.000  
                  27435051.201   110470018.935          45.000  
  26356577.720                   138504162.473 0                        43.000  
                  26356575.344   106126666.110          47.000  
  22886742.822                   120270661.979 0                        46.000  
                  22886737.658    92155429.032          49.000  
  22395622.858                   117690483.222 0                        44.000  
                  22395619.123    90178432.439          50.000  
  24816805.352                   130413246.251 0                        41.000  
                  24816802.635    99927035.337          45.000  
  27594400.840                   145010058.837 0                        40.000  
                  27594399.250   111111605.949          46.000  
  26197828.320                   137671048.735 0                        44.000  
                  26197828.034   105488204.132          48.000  
 22  1 19 23  0 49.0000000  0  8G01G08G10G16G21G23G27G32
  24452151.449    24452150.288   128497672.980 0 100128056.964 0        35.000  
        35.000                                                  
  20784258.195    20784255.568   109221257.290 0  85107474.615 0        49.000  
        48.000                                                  
  20968268.015    20968264.137   110189682.309 0  85861127.745 0        51.000  
        48.000                                                  
  24156613.910                   126943496.573 0                        41.000  
                                                                
  22462227.068                   118039242.461 0                        46.000  
                                                                
  22908214.508    22908209.201   120382703.378 0  93805613.456 0        42.000  
        43.000                                                  
  20385676.486    20385673.037   107126707.439 0  83476141.562 0        50.000  
        49.000                                                  
  23009552.954    23009549.827   120916528.181 0  94220119.558 0        44.000  
        42.000                                                  
 22  1 19 23  0 48.0000000  0  0
 22  1 19 23  0 49.0000000  0  7E02E04E11E12E19E24E25
  27434839.810                   144171620.989 0                        40.000  
                  27434838.703   110469163.224          45.000  
  26356029.266                   138501280.155 0                        43.000  
                  26356026.890   106124457.572          47.000  
  22886481.416                   120269288.100 0                        46.000  
                  22886476.306    92154376.315          49.000  
  22395791.095                   117691367.224 0                        44.000  
                  22395787.360    90179109.806          50.000  
  24816714.505                   130412769.183 0                        41.000  
                  24816711.914    99926669.785          45.000  
  27594963.607                   145013015.467 0                        40.000  
                  27594961.731   111113871.414          46.000  
  26198066.389                   137672299.729 0                        44.000  
                  26198066.013   105489162.699          48.000  
 22  1 19 23  0 50.0000000  0  8G01G08G10G16G21G23G27G32
  24451544.171    24451543.099   128494482.052 0 100125570.481 0        35.000  
        35.000                                                  
  20784032.152    20784029.597   109220069.587 0  85106549.120 0        49.000  
        48.000                                                  
  20968525.561    20968521.701   110191035.891 0  85862182.484 0        51.000  
        48.000                                                  
  24157290.949                   126947053.864 0                        42.000  
                                                                
  22461860.270                   118037314.951 0                        46.000  
                                                                
  22908798.754    22908793.465   120385773.791 0  93808005.977 0        42.000  
        43.000                                                  
  20385895.525    20385892.165   107127858.784 0  83477038.719 0        50.000  
        49.000                                                  
  23009016.669    23009013.452   120913710.260 0  94217923.779 0        44.000  
        42.000                                                  
 22  1 19 23  0 49.0000000  0  0
 22  1 19 23  0 50.0000000  0  7E02E04E11E12E19E24E25
  27434627.366                   144170504.681 0                        40.000  
                  27434626.329   110468307.873          45.000  
  26355480.741                   138498397.981 0                        43.000  
                  26355478.364   106122249.168          47.000  
  22886219.993                   120267914.326 0                        46.000  
                  22886214.989    92153323.692          49.000  
  22395959.367                   117692251.427 0                        44.000  
                  22395955.704    90179787.300          50.000  
  24816623.892                   130412292.590 0                        41.000  
                  24816621.193    99926304.617          45.000  
  27595526.338                   145015972.130 0                        41.000  
                  27595524.462   111116136.915          46.000  
  26198304.547                   137673551.174 0                        44.000  
                  26198304.261   105490121.585          48.000  
 22  1 19 23  0 51.0000000  0  8G01G08G10G16G21G23G27G32
  24450937.017    24450935.909   128491290.948 0 100123083.915 0        35.000  
        35.000                                                  
  20783806.234    20783803.625   109218882.183 0  85105623.880 0        49.000  
        48.000                                                  
  20968783.125    20968779.248   110192389.710 0  85863237.409 0        51.000  
        48.000                                                  
  24157967.828                   126950611.015 0                        42.000  
                                                                
  22461493.473                   118035387.379 0                        46.000  
                                                                
  22909383.071    22909377.692   120388844.184 0  93810398.497 0        42.000  
        43.000                                                  
  20386114.760    20386111.311   107129010.473 0  83477936.132 0        50.000  
        49.000                                                  
  23008480.545    23008477.149   120910892.400 0  94215728.056 0        44.000  
        42.000                                                  
 22  1 19 23  0 50.0000000  0  0
 22  1 19 23  0 51.0000000  0  7E02E04E11E12E19E24E25
  27434415.028                   144169388.573 0                        40.000  
                  27434413.831   110467452.675          45.000  
  26354932.394                   138495515.760 0                        43.000  
                  26354929.785   106120040.711          47.000  
  22885958.604                   120266540.473 0                        46.000  
                  22885953.422    92152271.002          49.000  
  22396127.658                   117693135.546 0                        44.000  
                  22396123.905    90180464.747          50.000  
  24816533.421                   130411816.259 0                        41.000  
                  24816530.562    99925939.627          45.000  
  27596088.909                   145018928.636 0                        41.000  
                  27596087.032   111118402.286          46.000  
  26198542.795                   137674802.796 0                        44.000  
                  26198542.473   105491080.625          48.000  
 22  1 19 23  0 52.0000000  0  8G01G08G10G16G21G23G27G32
  24450329.845    24450328.613   128488099.853 0 100120597.357 0        35.000  
        35.000                                                  
  20783580.298    20783577.743   109217695.248 0  85104698.998 0        49.000  
        48.000                                                  
  20969040.868    20969036.937   110193743.935 0  85864292.653 0        51.000  
        48.000                                                  
  24158644.813                   126954168.200 0                        42.000  
                                                                
  22461126.693                   118033459.898 0                        46.000  
                                                                
  22909967.406    22909962.027   120391914.767 0  93812791.153 0        42.000  
        43.000                                                  
  20386333.977    20386330.492   107130162.664 0  83478833.945 0        50.000  
        49.000                                                  
  23007944.385    23007940.972   120908074.796 0  94213532.513 0        45.000  
        42.000                                                  
 22  1 19 23  0 51.0000000  0  0
 22  1 19 23  0 52.0000000  0  7E02E04E11E12E19E24E25
  27434202.726                   144168272.860 0                        40.000  
                  27434201.583   110466597.781          45.000  
  26354383.815                   138492633.635 0                        43.000  
                  26354381.367   106117832.325          47.000  
  22885697.216                   120265166.696 0                        46.000  
                  22885692.106    92151218.359          49.000  
  22396296.091                   117694019.807 0                        44.000  
                  22396292.160    90181142.291          50.000  
  24816442.735                   130411340.338 0                        41.000  
                  24816440.055    99925574.972          45.000  
  27596651.461                   145021885.119 0                        41.000  
                  27596649.639   111120667.645          46.000  
  26198781.096                   137676054.808 0                        44.000  
                  26198780.774   105492039.952          48.000  
 22  1 19 23  0 53.0000000  0  8G01G08G10G16G21G23G27G32
  24449722.692    24449721.459   128484909.007 0 100118110.963 0        35.000  
        35.000                                                  
  20783354.558    20783351.985   109216509.062 0  85103774.692 0        49.000  
        48.000                                                  
  20969298.593    20969294.787   110195098.852 0  85865348.426 0        51.000  
        48.000                                                  
  24159321.728                   126957725.676 0                        42.000  
                                                                
  22460760.021                   118031532.808 0                        46.000  
                                                                
  22910551.777    22910546.452   120394985.750 0  93815184.126 0        42.000  
        43.000                                                  
  20386553.355    20386549.888   107131315.650 0  83479732.371 0        50.000  
        49.000                                                  
  23007408.350    23007404.847   120905257.713 0  94211337.377 0        45.000  
        42.000                                                  
 22  1 19 23  0 52.0000000  0  0
 22  1 19 23  0 53.0000000  0  7E02E04E11E12E19E24E25
  27433990.603                   144167157.811 0                        40.000  
                  27433989.263   110465743.395          45.000  
  26353835.469                   138489751.884 0                        43.000  
                  26353832.949   106115624.232          47.000  
  22885435.793                   120263793.248 0                        46.000  
                  22885430.611    92150165.983          49.000  
  22396464.292                   117694904.435 0                        44.000  
                  22396460.468    90181820.129          50.000  
  24816352.336                   130410865.131 0                        41.000  
                  24816349.709    99925210.838          45.000  
  27597213.978                   145024841.884 0                        40.000  
                  27597212.227   111122933.214          46.000  
  26199019.522                   137677307.444 0                        44.000  
                  26199019.165   105492999.766          48.000  
 22  1 19 23  0 54.0000000  0  8G01G08G10G16G21G23G27G32
  24449115.538    24449114.269   128481718.311 0 100115624.681 0        36.000  
        35.000                                                  
  20783128.998    20783126.389   109215323.469 0  85102850.860 0        49.000  
        48.000                                                  
  20969556.532    20969552.833   110196454.294 0  85866404.621 0        51.000  
        48.000                                                  
  24159998.803                   126961283.313 0                        42.000  
                                                                
  22460393.367                   118029605.961 0                        46.000  
                                                                
  22911136.165    22911130.876   120398057.029 0  93817577.342 0        42.000  
        43.000                                                  
  20386772.876    20386769.463   107132469.255 0  83480631.284 0        50.000  
        49.000                                                  
  23006872.350    23006868.955   120902441.013 0  94209142.561 0        45.000  
        42.000                                                  
 22  1 19 23  0 53.0000000  0  0
 22  1 19 23  0 54.0000000  0  7E02E04E11E12E19E24E25
  27433778.837                   144166043.275 0                        40.000  
                  27433777.354   110464889.391          45.000  
  26353287.104                   138486870.361 0                        43.000  
                  26353284.549   106113416.314          47.000  
  22885174.547                   120262420.012 0                        46.000  
                  22885169.294    92149113.758          49.000  
  22396632.458                   117695789.315 0                        44.000  
                  22396628.723    90182498.154          50.000  
  24816262.187                   130410390.469 0                        42.000  
                  24816259.346    99924847.139          45.000  
  27597776.549                   145027798.770 0                        40.000  
                  27597774.994   111125198.881          46.000  
  26199257.931                   137678560.580 0                        44.000  
                  26199257.645   105493959.966          48.000  
 22  1 19 23  0 55.0000000  0  8G01G08G10G16G21G23G27G32
  24448508.527    24448507.098   128478527.632 0 100113138.461 0        36.000  
        35.000                                                  
  20782903.562    20782900.971   109214138.430 0  85101927.449 0        49.000  
        48.000                                                  
  20969814.489    20969810.916   110197810.229 0  85867461.192 0        51.000  
        48.000                                                  
  24160675.824                   126964841.024 0                        42.000  
                                                                
  22460026.694                   118027679.261 0                        46.000  
                                                                
  22911720.607    22911715.443   120401128.566 0  93819970.750 0        42.000  
        43.000                                                  
  20386992.432    20386989.055   107133623.449 0  83481530.664 0        50.000  
        49.000                                                  
  23006336.476    23006332.938   120899624.614 0  94206947.963 0        45.000  
        42.000                                                  
 22  1 19 23  0 54.0000000  0  0
 22  1 19 23  0 55.0000000  0  7E02E04E11E12E19E24E25
  27433567.054                   144164929.209 0                        40.000  
                  27433565.195   110464035.749          45.000  
  26352738.614                   138483989.020 0                        43.000  
                  26352736.238   106111208.536          47.000  
  22884913.392                   120261046.904 0                        46.000  
                  22884908.085    92148061.641          49.000  
  22396800.945                   117696674.380 0                        44.000  
                  22396797.210    90183176.325          50.000  
  24816171.913                   130409916.289 0                        42.000  
                  24816169.179    99924483.803          45.000  
  27598339.244                   145030755.711 0                        40.000  
                  27598337.582   111127464.596          46.000  
  26199496.464                   137679814.159 0                        44.000  
                  26199496.179   105494920.505          48.000  
 22  1 19 23  0 56.0000000  0  8G01G08G10G16G21G23G27G32
  24447901.356    24447900.069   128475337.004 0 100110652.275 0        36.000  
        35.000                                                  
  20782678.055    20782675.482   109212953.872 0  85101004.419 0        49.000  
        48.000                                                  
  20970072.643    20970069.016   110199166.590 0  85868518.101 0        51.000  
        48.000                                                  
  24161352.935                   126968398.805 0                        42.000  
                                                                
  22459660.058                   118025752.704 0                        46.000  
                                                                
  22912305.121    22912300.046   120404200.285 0  93822364.290 0        42.000  
        43.000                                                  
  20387212.132    20387208.844   107134778.170 0  83482430.446 0        50.000  
        49.000                                                  
  23005800.548    23005797.046   120896808.491 0  94204753.575 0        45.000  
        42.000                                                  
 22  1 19 23  0 55.0000000  0  0
 22  1 19 23  0 56.0000000  0  7E02E04E11E12E19E24E25
  27433355.431                   144163815.544 0                        41.000  
                  27433353.233   110463182.420          45.000  
  26352190.428                   138481107.814 0                        43.000  
                  26352188.016   106109000.848          47.000  
  22884652.075                   120259673.890 0                        46.000  
                  22884646.786    92147009.587          49.000  
  22396969.414                   117697559.588 0                        44.000  
                  22396965.804    90183854.595          50.000  
  24816081.728                   130409442.557 0                        42.000  
                  24816078.976    99924120.810          45.000  
  27598901.975                   145033712.663 0                        41.000  
                  27598900.331   111129730.309          46.000  
  26199735.177                   137681068.131 0                        44.000  
                  26199734.784   105495881.334          48.000  
 22  1 19 23  0 57.0000000  0  8G01G08G10G16G21G23G27G32
  24447294.167    24447292.880   128472146.325 0 100108166.029 0        36.000  
        35.000                                                  
  20782452.673    20782450.082   109211769.737 0  85100081.714 0        49.000  
        48.000                                                  
  20970330.815    20970327.170   110200523.338 0  85869575.300 0        51.000  
        48.000                                                  
  24162029.993                   126971956.553 0                        42.000  
                                                                
  22459293.385                   118023826.213 0                        46.000  
                                                                
  22912889.652    22912884.703   120407272.124 0  93824757.933 0        42.000  
        43.000                                                  
  20387432.010    20387428.633   107135933.374 0  83483330.603 0        50.000  
        49.000                                                  
  23005264.692    23005261.244   120893992.583 0  94202559.349 0        45.000  
        42.000                                                  
 22  1 19 23  0 56.0000000  0  0
 22  1 19 23  0 57.0000000  0  7E02E04E11E12E19E24E25
  27433143.558                   144162702.215 0                        41.000  
                  27433141.396   110462329.365          45.000  
  26351642.189                   138478226.650 0                        43.000  
                  26351639.777   106106793.213          47.000  
  22884390.562                   120258300.906 0                        46.000  
                  22884385.559    92145957.556          49.000  
  22397137.776                   117698444.867 0                        44.000  
                  22397134.220    90184532.923          50.000  
  24815991.703                   130408969.207 0                        42.000  
                  24815988.898    99923758.122          45.000  
  27599464.868                   145036669.587 0                        41.000  
                  27599462.956   111131996.008          46.000  
  26199973.853                   137682322.426 0                        44.000  
                  26199973.514   105496842.417          48.000  
 22  1 19 23  0 58.0000000  0  8G01G08G10G16G21G23G27G32
  24446686.941    24446685.673   128468955.605 0 100105679.763 0        36.000  
        35.000                                                  
  20782227.452    20782224.843   109210586.028 0  85099159.345 0        49.000  
        48.000                                                  
  20970589.076    20970585.520   110201880.427 0  85870632.772 0        51.000  
        48.000                                                  
  24162706.996                   126975514.287 0                        42.000  
                                                                
  22458926.731                   118021899.791 0                        46.000  
                                                                
  22913474.309    22913469.234   120410344.072 0  93827151.663 0        42.000  
        43.000                                                  
  20387651.907    20387648.494   107137089.027 0  83484231.112 0        50.000  
        49.000                                                  
  23004728.890    23004725.494   120891176.859 0  94200365.292 0        45.000  
        42.000                                                  
 22  1 19 23  0 57.0000000  0  0
 22  1 19 23  0 58.0000000  0  7E02E04E11E12E19E24E25
  27432931.828                   144161589.249 0                        40.000  
                  27432929.523   110461476.564          45.000  
  26351093.842                   138475345.555 0                        43.000  
                  26351091.394   106104585.617          47.000  
  22884129.335                   120256927.927 0                        46.000  
                  22884124.314    92144905.535          49.000  
  22397306.352                   117699330.211 0                        44.000  
                  22397302.564    90185211.306          50.000  
  24815901.590                   130408496.230 0                        42.000  
                  24815898.981    99923395.709          45.000  
  27600027.474                   145039626.445 0                        40.000  
                  27600025.615   111134261.653          46.000  
  26200212.566                   137683577.046 0                        44.000  
                  26200212.208   105497803.747          48.000  
 22  1 19 23  0 59.0000000  0  8G01G08G10G16G21G23G27G32
  24446079.716    24446078.519   128465765.065 0 100103193.600 0        36.000  
        35.000                                                  
  20782002.213    20781999.711   109209402.923 0  85098237.441 0        49.000  
        48.000                                                  
  20970847.444    20970843.924   110203238.084 0  85871690.683 0        51.000  
        48.000                                                  
  24163384.054                   126979072.180 0                        42.000  
                                                                
  22458560.166                   118019973.608 0                        46.000  
                                                                
  22914058.930    22914053.873   120413416.345 0  93829545.625 0        42.000  
        43.000                                                  
  20387871.928    20387868.443   107138245.344 0  83485132.135 0        50.000  
        49.000                                                  
  23004193.087    23004189.799   120888361.535 0  94198171.531 0        45.000  
        42.000                                                  
 22  1 19 23  0 58.0000000  0  0
 22  1 19 23  0 59.0000000  0  7E02E04E11E12E19E24E25
  27432719.972                   144160476.802 0                        40.000  
                  27432717.846   110460624.172          45.000  
  26350545.603                   138472464.716 0                        43.000  
                  26350543.119   106102378.212          47.000  
  22883868.107                   120255555.172 0                        46.000  
                  22883863.015    92143853.684          49.000  
  22397474.821                   117700215.810 0                        44.000  
                  22397471.176    90185889.882          50.000  
  24815811.709                   130408023.825 0                        42.000  
                  24815809.100    99923033.734          45.000  
  27600590.223                   145042583.454 0                        41.000  
                  27600588.364   111136527.401          46.000  
  26200451.385                   137684832.177 0                        44.000  
                  26200451.135   105498765.468          48.000  
 22  1 19 23  1  0.0000000  0  8G01G08G10G16G21G23G27G32
  24445472.580    24445471.365   128462574.615 0 100100707.565 0        35.000  
        35.000                                                  
  20781777.296    20781774.669   109208220.434 0  85097316.016 0        49.000  
        48.000                                                  
  20971105.991    20971102.328   110204596.285 0  85872749.023 0        51.000  
        48.000                                                  
  24164061.164                   126982630.243 0                        42.000  
                                                                
  22458193.672                   118018047.665 0                        46.000  
                                                                
  22914643.550    22914638.636   120416488.918 0  93831939.842 0        42.000  
        43.000                                                  
  20388092.092    20388088.625   107139402.303 0  83486033.664 0        50.000  
        49.000                                                  
  23003657.427    23003654.050   120885546.595 0  94195978.062 0        45.000  
        43.000                                                  
 22  1 19 23  0 59.0000000  0  0
 22  1 19 23  1  0.0000000  0  7E02E04E11E12E19E24E25
  27432508.296                   144159364.884 0                        40.000  
                  27432506.241   110459772.187          45.000  
  26349997.524                   138469584.106 0                        43.000  
                  26349995.022   106100170.996          47.000  
  22883607.005                   120254182.619 0                        46.000  
                  22883601.984    92142801.999          49.000  
  22397643.398                   117701101.676 0                        44.000  
                  22397639.717    90186568.655          50.000  
  24815722.167                   130407551.971 0                        41.000  
                  24815719.308    99922672.190          45.000  
  27601153.079                   145045540.580 0                        41.000  
                  27601150.917   111138793.255          46.000  
  26200690.455                   137686087.807 0                        44.000  
                  26200690.026   105499727.577          48.000  
 22  1 19 23  1  1.0000000  0  8G01G08G10G16G21G23G27G32
  24444865.534    24444864.337   128459384.201 0 100098221.503 0        35.000  
        35.000                                                  
  20781552.396    20781549.787   109207038.385 0  85096394.944 0        49.000  
        48.000                                                  
  20971364.448    20971360.732   110205954.894 0  85873807.679 0        51.000  
        48.000                                                  
  24164738.240                   126986188.329 0                        42.000  
                                                                
  22457827.107                   118016121.848 0                        46.000  
                                                                
  22915228.189    22915223.347   120419561.629 0  93834334.176 0        41.000  
        43.000                                                  
  20388312.364    20388309.004   107140559.775 0  83486935.586 0        50.000  
        49.000                                                  
  23003121.893    23003118.623   120882731.895 0  94193784.787 0        45.000  
        43.000                                                  
 22  1 19 23  1  0.0000000  0  0
 22  1 19 23  1  1.0000000  0  7E02E04E11E12E19E24E25
  27432296.691                   144158253.339 0                        40.000  
                  27432294.708   110458920.485          45.000  
  26349449.374                   138466703.593 0                        43.000  
                  26349446.819   106097963.856          47.000  
  22883345.867                   120252810.151 0                        46.000  
                  22883340.668    92141750.361          49.000  
  22397812.028                   117701987.642 0                        44.000  
                  22397808.436    90187247.514          50.000  
  24815632.411                   130407080.540 0                        41.000  
                  24815629.588    99922310.962          45.000  
  27601715.828                   145048497.708 0                        41.000  
                  27601713.756   111141059.094          46.000  
  26200929.453                   137687343.807 0                        44.000  
                  26200928.988   105500689.964          48.000  
 22  1 19 23  1  2.0000000  0  8G01G08G10G16G21G23G27G32
  24444258.505    24444257.326   128456194.059 0 100095735.685 0        36.000  
        35.000                                                  
  20781327.604    20781325.013   109205857.149 0  85095474.505 0        49.000  
        48.000                                                  
  20971623.103    20971619.404   110207314.233 0  85874866.904 0        51.000  
        48.000                                                  
  24165415.440                   126989746.752 0                        42.000  
                                                                
  22457460.810                   118014196.450 0                        46.000  
                                                                
  22915812.971    22915808.146   120422634.848 0  93836728.894 0        41.000  
        43.000                                                  
  20388532.832    20388529.472   107141718.067 0  83487838.158 0        50.000  
        49.000                                                  
  23002586.287    23002583.142   120879917.756 0  94191591.968 0        45.000  
        43.000                                                  
 22  1 19 23  1  1.0000000  0  0
 22  1 19 23  1  2.0000000  0  7E02E04E11E12E19E24E25
  27432085.301                   144157142.518 0                        40.000  
                  27432083.317   110458069.337          45.000  
  26348901.081                   138463823.520 0                        43.000  
                  26348898.615   106095757.049          47.000  
  22883084.604                   120251438.076 0                        46.000  
                  22883079.565    92140699.022          49.000  
  22397980.765                   117702874.051 0                        44.000  
                  22397977.066    90187926.713          50.000  
  24815542.744                   130406609.867 0                        41.000  
                  24815540.046    99921950.318          45.000  
  27602278.524                   145051455.134 0                        41.000  
                  27602276.451   111143325.191          46.000  
  26201168.737                   137688600.522 0                        44.000  
                  26201168.165   105501652.891          48.000  
 22  1 19 23  1  3.0000000  0  8G01G08G10G16G21G23G27G32
  24443651.441    24443650.351   128453004.044 0 100093249.959 0        35.000  
        35.000                                                  
  20781102.936    20781100.345   109204676.462 0  85094554.485 0        49.000  
        48.000                                                  
  20971881.882    20971878.129   110208674.059 0  85875926.512 0        51.000  
        48.000                                                  
  24166092.586                   126993305.276 0                        42.000  
                                                                
  22457094.477                   118012271.223 0                        46.000  
                                                                
  22916397.788    22916393.035   120425708.313 0  93839123.804 0        41.000  
        43.000                                                  
  20388753.317    20388749.994   107142876.948 0  83488741.184 0        50.000  
        49.000                                                  
  23002050.931    23002047.732   120877103.958 0  94189399.384 0        45.000  
        43.000                                                  
 22  1 19 23  1  2.0000000  0  0
 22  1 19 23  1  3.0000000  0  7E02E04E11E12E19E24E25
  27431873.946                   144156032.167 0                        40.000  
                  27431872.123   110457218.553          45.000  
  26348352.984                   138460943.623 0                        43.000  
                  26348350.679   106093550.363          47.000  
  22882823.359                   120250066.131 0                        46.000  
                  22882818.499    92139647.802          49.000  
  22398149.359                   117703760.644 0                        44.000  
                  22398145.821    90188606.056          50.000  
  24815453.256                   130406139.677 0                        41.000  
                  24815450.487    99921590.038          45.000  
  27602841.291                   145054412.638 0                        41.000  
                  27602839.200   111145591.331          46.000  
  26201407.878                   137689857.658 0                        44.000  
                  26201407.360   105502616.152          48.000  
 22  1 19 23  1  4.0000000  0  8G01G08G10G16G21G23G27G32
  24443044.323    24443043.340   128449813.855 0 100090764.082 0        36.000  
        35.000                                                  
  20780878.359    20780875.803   109203496.069 0  85093634.709 0        49.000  
        48.000                                                  
  20972140.697    20972136.926   110210034.141 0  85876986.306 0        51.000  
        48.000                                                  
  24166769.733                   126996863.661 0                        42.000  
                                                                
  22456728.162                   118010345.935 0                        46.000  
                                                                
  22916982.677    22916977.888   120428781.757 0  93841518.702 0        42.000  
        43.000                                                  
  20388973.839    20388970.569   107144036.178 0  83489644.476 0        50.000  
        49.000                                                  
  23001515.575    23001512.305   120874290.224 0  94187206.866 0        45.000  
        43.000                                                  
 22  1 19 23  1  3.0000000  0  0
 22  1 19 23  1  4.0000000  0  7E02E04E11E12E19E24E25
  27431662.716                   144154922.035 0                        41.000  
                  27431660.893   110456367.922          45.000  
  26347804.888                   138458063.650 0                        43.000  
                  26347802.654   106091343.649          47.000  
  22882562.418                   120248694.079 0                        46.000  
                  22882557.415    92138596.490          49.000  
  22398318.096                   117704647.194 0                        44.000  
                  22398314.522    90189285.360          50.000  
  24815363.768                   130405669.740 0                        41.000  
                  24815361.195    99921229.959          45.000  
  27603404.129                   145057369.966 0                        41.000  
                  27603402.021   111147857.324          46.000  
  26201646.983                   137691114.993 0                        44.000  
                  26201646.590   105503579.574          48.000  
 22  1 19 23  1  5.0000000  0  8G01G08G10G16G21G23G27G32
  24442437.241    24442436.312   128446623.576 0 100088278.136 0        35.000  
        35.000                                                  
  20780653.763    20780651.225   109202316.077 0  85092715.223 0        49.000  
        48.000                                                  
  20972399.422    20972395.884   110211394.542 0  85878046.371 0        51.000  
        48.000                                                  
  24167446.737                   127000422.006 0                        42.000  
                                                                
  22456361.775                   118008420.684 0                        47.000  
                                                                
  22917567.512    22917562.741   120431855.331 0  93843913.688 0        42.000  
        43.000                                                  
  20389194.521    20389191.287   107145195.846 0  83490548.111 0        50.000  
        49.000                                                  
  23000980.219    23000976.931   120871476.666 0  94185014.497 0        45.000  
        43.000                                                  
 22  1 19 23  1  4.0000000  0  0
 22  1 19 23  1  5.0000000  0  7E02E04E11E12E19E24E25
  27431451.504                   144153812.212 0                        41.000  
                  27431449.664   110455517.538          45.000  
  26347256.773                   138455183.726 0                        43.000  
                  26347254.558   106089136.947          47.000  
  22882301.369                   120247322.025 0                        46.000  
                  22882296.259    92137545.176          49.000  
  22398486.905                   117705533.782 0                        44.000  
                  22398483.277    90189964.689          50.000  
  24815274.316                   130405200.163 0                        41.000  
                  24815271.814    99920870.145          45.000  
  27603966.861                   145060327.236 0                        41.000  
                  27603964.752   111150123.282          46.000  
  26201886.482                   137692372.621 0                        44.000  
                  26201885.982   105504543.207          48.000  
 22  1 19 23  1  6.0000000  0  8G01G08G10G16G21G23G27G32
  24441830.016    24441829.230   128443433.196 0 100085792.149 0        35.000  
        35.000                                                  
  20780429.221    20780426.701   109201136.458 0  85091796.038 0        49.000  
        48.000                                                  
  20972658.362    20972654.878   110212755.275 0  85879106.680 0        51.000  
        48.000                                                  
  24168123.865                   127003980.262 0                        42.000  
                                                                
  22455995.407                   118006495.454 0                        47.000  
                                                                
  22918152.312    22918147.594   120434928.948 0  93846308.708 0        41.000  
        43.000                                                  
  20389415.293    20389412.023   107146355.927 0  83491452.071 0        50.000  
        49.000                                                  
  23000444.827    23000441.486   120868663.278 0  94182822.228 0        45.000  
        43.000                                                  
 22  1 19 23  1  5.0000000  0  0
 22  1 19 23  1  6.0000000  0  7E02E04E11E12E19E24E25
  27431240.435                   144152702.691 0                        41.000  
                  27431238.470   110454667.379          45.000  
  26346708.730                   138452303.797 0                        43.000  
                  26346706.568   106086930.255          47.000  
  22882040.321                   120245949.950 0                        46.000  
                  22882035.246    92136493.846          49.000  
  22398655.642                   117706420.393 0                        44.000  
                  22398652.015    90190644.043          50.000  
  24815184.989                   130404730.916 0                        41.000  
                  24815182.505    99920510.598          45.000  
  27604529.503                   145063284.376 0                        41.000  
                  27604527.465   111152389.152          46.000  
  26202125.980                   137693630.540 0                        44.000  
                  26202125.355   105505507.064          48.000  
 22  1 19 23  1  7.0000000  0  8G01G08G10G16G21G23G27G32
  24441222.898    24441222.273   128440243.322 0 100083306.555 0        35.000  
        35.000                                                  
  20780204.875    20780202.284   109199957.799 0  85090877.604 0        49.000  
        48.000                                                  
  20972917.517    20972913.854   110214116.912 0  85880167.696 0        51.000  
        48.000                                                  
  24168801.101                   127007539.047 0                        42.000  
                                                                
  22455629.163                   118004570.814 0                        46.000  
                                                                
  22918737.308    22918732.537   120438003.229 0  93848704.247 0        41.000  
        43.000                                                  
  20389636.279    20389632.902   107147517.027 0  83492356.824 0        50.000  
        49.000                                                  
  22999909.578    22999906.362   120865850.624 0  94180630.554 0        45.000  
        43.000                                                  
 22  1 19 23  1  6.0000000  0  0
 22  1 19 23  1  7.0000000  0  7E02E04E11E12E19E24E25
  27431029.438                   144151594.060 0                        41.000  
                  27431027.454   110453817.910          45.000  
  26346160.813                   138449424.496 0                        43.000  
                  26346158.525   106084724.030          47.000  
  22881779.183                   120244578.451 0                        46.000  
                  22881774.269    92135442.961          49.000  
  22398824.558                   117707307.624 0                        44.000  
                  22398820.805    90191323.871          50.000  
  24815095.840                   130404262.581 0                        41.000  
                  24815093.446    99920151.739          45.000  
  27605092.341                   145066242.031 0                        41.000  
                  27605090.250   111154655.399          46.000  
  26202365.604                   137694889.312 0                        44.000  
                  26202364.836   105506471.581          48.000  
 22  1 19 23  1  8.0000000  0  8G01G08G10G16G21G23G27G32
  24440616.084    24440615.298   128437053.902 0 100080821.266 0        35.000  
        35.000                                                  
  20779980.833    20779978.135   109198780.052 0  85089959.882 0        49.000  
        48.000                                                  
  20973176.796    20973173.169   110215479.409 0  85881229.381 0        51.000  
        48.000                                                  
  24169478.391                   127011098.304 0                        42.000  
                                                                
  22455263.027                   118002646.728 0                        47.000  
                                                                
  22919322.322    22919317.622   120441078.126 0  93851100.270 0        41.000  
        43.000                                                  
  20389857.462    20389854.031   107148679.074 0  83493262.313 0        50.000  
        49.000                                                  
  22999374.562    22999371.292   120863038.668 0  94178439.424 0        45.000  
        43.000                                                  
 22  1 19 23  1  7.0000000  0  0
 22  1 19 23  1  8.0000000  0  7E02E04E11E12E19E24E25
  27430818.708                   144150486.262 0                        41.000  
                  27430816.725   110452969.075          45.000  
  26345612.930                   138446545.737 0                        43.000  
                  26345610.750   106082518.231          46.000  
  22881518.331                   120243207.474 0                        46.000  
                  22881513.345    92134392.472          49.000  
  22398993.349                   117708195.417 0                        44.000  
                  22398989.721    90192004.124          50.000  
  24815007.067                   130403795.123 0                        41.000  
                  24815004.529    99919793.566          45.000  
  27605655.197                   145069200.113 0                        41.000  
                  27605653.160   111156921.993          46.000  
  26202605.299                   137696148.913 0                        44.000  
                  26202604.567   105507436.722          48.000  
 22  1 19 23  1  9.0000000  0  8G01G08G10G16G21G23G27G32
  24440008.984    24440008.305   128433864.030 0 100078335.672 0        35.000  
        35.000                                                  
  20779756.756    20779754.093   109197602.338 0  85089042.175 0        49.000  
        48.000                                                  
  20973435.986    20973432.448   110216841.865 0  85882291.037 0        51.000  
        48.000                                                  
  24170155.627                   127014657.135 0                        42.000  
                                                                
  22454896.927                   118000722.300 0                        47.000  
                                                                
  22919907.318    22919902.708   120444152.732 0  93853496.067 0        41.000  
        43.000                                                  
  20390078.609    20390075.161   107149841.189 0  83494167.861 0        50.000  
        49.000                                                  
  22998839.492    22998836.240   120860226.510 0  94176248.125 0        45.000  
        43.000                                                  
 22  1 19 23  1  8.0000000  0  0
 22  1 19 23  1  9.0000000  0  7E02E04E11E12E19E24E25
  27430608.015                   144149378.410 0                        41.000  
                  27430605.960   110452120.200          45.000  
  26345064.995                   138443666.641 0                        43.000  
                  26345062.940   106080312.170          46.000  
  22881257.300                   120241836.118 0                        46.000  
                  22881252.404    92133341.693          49.000  
  22399162.265                   117709082.880 0                        44.000  
                  22399158.655    90192684.125          50.000  
  24814917.990                   130403327.642 0                        41.000  
                  24814915.399    99919435.364          45.000  
  27606217.947                   145072157.749 0                        41.000  
                  27606215.927   111159188.232          46.000  
  26202844.869                   137697408.431 0                        44.000  
                  26202844.083   105508401.807          48.000  
 22  1 19 23  1 10.0000000  0  8G01G08G10G16G21G23G27G32
  24439401.902    24439401.205   128430673.915 0 100075849.841 0        35.000  
        35.000                                                  
  20779532.750    20779530.016   109196424.817 0  85088124.638 0        49.000  
        48.000                                                  
  20973695.320    20973691.782   110218204.476 0  85883352.806 0        51.000  
        48.000                                                  
  24170832.863                   127018215.741 0                        42.000  
                                                                
  22454530.772                   117998797.718 0                        47.000  
                                                                
  22920492.403    22920487.757   120447227.242 0  93855891.792 0        41.000  
        43.000                                                  
  20390299.756    20390296.433   107151003.548 0  83495073.589 0        50.000  
        49.000                                                  
  22998304.440    22998301.134   120857414.355 0  94174056.831 0        46.000  
        43.000                                                  
 22  1 19 23  1  9.0000000  0  0
 22  1 19 23  1 10.0000000  0  7E02E04E11E12E19E24E25
  27430397.357                   144148270.697 0                        41.000  
                  27430395.070   110451271.428          45.000  
  26344517.309                   138440787.381 0                        43.000  
                  26344514.915   106078105.979          46.000  
  22880996.520                   120240464.571 0                        46.000  
                  22880991.373    92132290.770          49.000  
  22399331.252                   117709970.195 0                        44.000  
                  22399327.410    90193364.019          50.000  
  24814829.020                   130402860.311 0                        41.000  
                  24814826.500    99919077.279          45.000  
  27606780.749                   145075115.104 0                        41.000  
                  27606778.641   111161454.255          46.000  
  26203084.546                   137698668.052 0                        44.000  
                  26203083.885   105509366.976          48.000  
 22  1 19 23  1 11.0000000  0  8G01G08G10G16G21G23G27G32
  24438794.891    24438794.230   128427483.973 0 100073364.169 0        35.000  
        35.000                                                  
  20779308.744    20779306.045   109195247.986 0  85087207.615 0        50.000  
        48.000                                                  
  20973954.778    20973951.275   110219567.682 0  85884415.051 0        51.000  
        48.000                                                  
  24171510.224                   127021774.552 0                        43.000  
                                                                
  22454164.636                   117996873.448 0                        47.000  
                                                                
  22921077.542    22921072.986   120450302.118 0  93858287.799 0        41.000  
        43.000                                                  
  20390521.011    20390517.705   107152166.610 0  83495979.876 0        50.000  
        49.000                                                  
  22997769.423    22997766.118   120854602.619 0  94171865.873 0        46.000  
        43.000                                                  
 22  1 19 23  1 10.0000000  0  0
 22  1 19 23  1 11.0000000  0  7E02E04E11E12E19E24E25
  27430186.753                   144147163.536 0                        41.000  
                  27430184.430   110450423.090          45.000  
  26343969.391                   138437908.426 0                        43.000  
                  26343967.104   106075900.031          46.000  
  22880735.292                   120239093.274 0                        46.000  
                  22880730.414    92131240.033          49.000  
  22399500.096                   117710857.813 0                        44.000  
                  22399496.362    90194044.144          50.000  
  24814740.246                   130402393.616 0                        41.000  
                  24814737.655    99918719.678          45.000  
  27607343.409                   145078072.661 0                        41.000  
                  27607341.497   111163720.435          46.000  
  26203324.474                   137699928.230 0                        44.000  
                  26203323.723   105510332.569          48.000  
 22  1 19 23  1 12.0000000  0  8G01G08G10G16G21G23G27G32
  24438187.827    24438187.201   128424294.116 0 100070878.605 0        35.000  
        35.000                                                  
  20779084.952    20779082.218   109194071.706 0  85086291.038 0        50.000  
        48.000                                                  
  20974214.290    20974210.752   110220931.403 0  85885477.691 0        51.000  
        48.000                                                  
  24172187.496                   127025333.489 0                        43.000  
                                                                
  22453798.482                   117994949.374 0                        47.000  
                                                                
  22921662.806    22921658.196   120453377.262 0  93860684.024 0        41.000  
        43.000                                                  
  20390742.443    20390739.156   107153330.287 0  83496886.636 0        50.000  
        49.000                                                  
  22997234.389    22997231.155   120851791.244 0  94169675.198 0        46.000  
        43.000                                                  
 22  1 19 23  1 11.0000000  0  0
 22  1 19 23  1 12.0000000  0  7E02E04E11E12E19E24E25
  27429976.202                   144146056.870 0                        41.000  
                  27429973.915   110449575.137          45.000  
  26343421.581                   138435029.676 0                        43.000  
                  26343419.365   106073694.238          46.000  
  22880474.423                   120237722.162 0                        46.000  
                  22880469.527    92130189.443          49.000  
  22399668.959                   117711745.660 0                        44.000  
                  22399665.420    90194724.442          50.000  
  24814651.562                   130401927.438 0                        41.000  
                  24814649.079    99918362.481          45.000  
  27607906.319                   145081030.315 0                        41.000  
                  27607904.300   111165986.698          46.000  
  26203564.151                   137701188.895 0                        44.000  
                  26203563.526   105511298.534          48.000  
 22  1 19 23  1 13.0000000  0  8G01G08G10G16G21G23G27G32
  24437580.941    24437580.226   128421104.573 0 100068393.224 0        35.000  
        35.000                                                  
  20778861.285    20778858.551   109192896.146 0  85085375.015 0        50.000  
        49.000                                                  
  20974473.873    20974470.353   110222295.801 0  85886540.854 0        50.000  
        48.000                                                  
  24172864.750                   127028892.720 0                        43.000  
                                                                
  22453432.399                   117993025.667 0                        47.000  
                                                                
  22922248.124    22922243.460   120456452.828 0  93863080.571 0        41.000  
        43.000                                                  
  20390964.001    20390960.731   107154494.734 0  83497793.996 0        50.000  
        49.000                                                  
  22996699.462    22996696.335   120848980.374 0  94167484.914 0        45.000  
        43.000                                                  
 22  1 19 23  1 12.0000000  0  0
 22  1 19 23  1 13.0000000  0  7E02E04E11E12E19E24E25
  27429765.955                   144144950.874 0                        41.000  
                  27429763.453   110448727.681          45.000  
  26342874.074                   138432151.276 0                        43.000  
                  26342871.447   106071488.710          46.000  
  22880213.606                   120236351.361 0                        46.000  
                  22880208.692    92129139.082          49.000  
  22399838.035                   117712633.882 0                        44.000  
                  22399834.336    90195405.023          50.000  
  24814562.932                   130401461.946 0                        41.000  
                  24814560.430    99918005.803          45.000  
  27608469.390                   145083988.213 0                        41.000  
                  27608467.281   111168253.133          46.000  
  26203804.346                   137702450.186 0                        44.000  
                  26203803.596   105512264.968          48.000  
 22  1 19 23  1 14.0000000  0  8G01G08G10G16G21G23G27G32
  24436974.020    24436973.269   128417914.983 0 100065907.791 0        35.000  
        35.000                                                  
  20778637.672    20778634.992   109191721.028 0  85084459.346 0        50.000  
        48.000                                                  
  20974733.599    20974730.168   110223660.581 0  85887604.323 0        51.000  
        48.000                                                  
  24173542.182                   127032451.936 0                        43.000  
                                                                
  22453066.388                   117991102.048 0                        47.000  
                                                                
  22922833.424    22922828.760   120459528.511 0  93865477.212 0        41.000  
        43.000                                                  
  20391185.828    20391182.397   107155659.661 0  83498701.724 0        50.000  
        49.000                                                  
  22996164.589    22996161.408   120846169.719 0  94165294.793 0        45.000  
        43.000                                                  
 22  1 19 23  1 13.0000000  0  0
 22  1 19 23  1 14.0000000  0  7E02E04E11E12E19E24E25
  27429555.672                   144143845.241 0                        41.000  
                  27429553.117   110447880.499          45.000  
  26342326.299                   138429272.978 0                        43.000  
                  26342323.762   106069283.266          46.000  
  22879952.844                   120234980.598 0                        46.000  
                  22879947.787    92128088.768          49.000  
  22400007.040                   117713522.181 0                        44.000  
                  22400003.342    90196085.672          50.000  
  24814474.516                   130400996.830 0                        41.000  
                  24814472.015    99917649.418          45.000  
  27609032.300                   145086946.078 0                        41.000  
                  27609030.066   111170519.547          46.000  
  26204044.524                   137703711.814 0                        44.000  
                  26204043.684   105513231.670          48.000  
 22  1 19 23  1 15.0000000  0  8G01G08G10G16G21G23G27G32
  24436367.045    24436366.383   128414725.496 0 100063422.510 0        35.000  
        35.000                                                  
  20778414.238    20778411.522   109190546.547 0  85083544.161 0        50.000  
        48.000                                                  
  20974993.379    20974989.948   110225025.918 0  85888668.215 0        50.000  
        48.000                                                  
  24174219.525                   127036011.307 0                        43.000  
                                                                
  22452700.359                   117989178.670 0                        47.000  
                                                                
  22923418.831    22923414.078   120462604.529 0  93867874.098 0        41.000  
        43.000                                                  
  20391407.725    20391404.115   107156825.241 0  83499609.968 0        50.000  
        49.000                                                  
  22995629.822    22995626.624   120843359.471 0  94163104.976 0        45.000  
        43.000                                                  
 22  1 19 23  1 14.0000000  0  0
 22  1 19 23  1 15.0000000  0  7E02E04E11E12E19E24E25
  27429345.425                   144142740.136 0                        41.000  
                  27429342.745   110447033.724          45.000  
  26341778.560                   138426394.924 0                        43.000  
                  26341776.058   106067077.999          46.000  
  22879691.974                   120233610.072 0                        46.000  
                  22879687.024    92127038.617          49.000  
  22400176.064                   117714410.746 0                        44.000  
                  22400172.400    90196766.519          50.000  
  24814385.904                   130400532.295 0                        41.000  
                  24814383.545    99917293.475          45.000  
  27609595.120                   145089904.073 0                        41.000  
                  27609592.833   111172786.066          46.000  
  26204284.809                   137704973.946 0                        44.000  
                  26204283.951   105514198.763          48.000  
 22  1 19 23  1 16.0000000  0  8G01G08G10G16G21G23G27G32
  24435760.105    24435759.587   128411536.129 0 100060937.285 0        35.000  
        35.000                                                  
  20778190.875    20778188.070   109189372.592 0  85082629.391 0        49.000  
        49.000                                                  
  20975253.195    20975249.853   110226391.719 0  85889732.476 0        51.000  
        48.000                                                  
  24174896.976                   127039570.793 0                        43.000  
                                                                
  22452334.419                   117987255.476 0                        47.000  
                                                                
  22924004.274    22923999.467   120465680.761 0  93870271.169 0        41.000  
        43.000                                                  
  20391629.640    20391625.995   107157991.400 0  83500518.663 0        50.000  
        49.000                                                  
  22995095.110    22995091.857   120840549.531 0  94160915.410 0        45.000  
        43.000                                                  
 22  1 19 23  1 15.0000000  0  0
 22  1 19 23  1 16.0000000  0  7E02E04E11E12E19E24E25
  27429135.000                   144141635.481 0                        41.000  
                  27429132.695   110446187.301          45.000  
  26341230.964                   138423517.028 0                        43.000  
                  26341228.390   106064872.863          46.000  
  22879431.175                   120232239.679 0                        46.000  
                  22879426.333    92125988.580          49.000  
  22400345.319                   117715299.497 0                        44.000  
                  22400341.656    90197447.505          50.000  
  24814297.613                   130400068.253 0                        41.000  
                  24814295.290    99916937.904          45.000  
  27610158.155                   145092862.123 0                        41.000  
                  27610155.779   111175052.631          46.000  
  26204525.111                   137706236.516 0                        44.000  
                  26204524.146   105515166.182          48.000  
 22  1 19 23  1 17.0000000  0  8G01G08G10G16G21G23G27G32
  24435153.148    24435152.719   128408346.545 0 100058451.869 0        35.000  
        35.000                                                  
  20777967.548    20777964.636   109188198.886 0  85081714.810 0        49.000  
        49.000                                                  
  20975513.100    20975509.722   110227757.725 0  85890796.894 0        51.000  
        48.000                                                  
  24175574.319                   127043130.065 0                        43.000  
                                                                
  22451968.372                   117985332.180 0                        47.000  
                                                                
  22924589.592    22924584.910   120468756.953 0  93872668.205 0        41.000  
        43.000                                                  
  20391851.663    20391847.946   107159157.858 0  83501427.592 0        50.000  
        49.000                                                  
  22994560.451    22994557.198   120837739.618 0  94158725.872 0        45.000  
        43.000                                                  
 22  1 19 23  1 16.0000000  0  0
 22  1 19 23  1 17.0000000  0  7E02E04E11E12E19E24E25
  27428924.932                   144140531.013 0                        41.000  
                  27428922.341   110445341.019          45.000  
  26340683.260                   138420639.036 0                        43.000  
                  26340680.758   106062667.643          46.000  
  22879170.341                   120230869.133 0                        46.000  
                  22879165.463    92124938.428          49.000  
  22400514.342                   117716188.139 0                        44.000  
                  22400510.715    90198128.422          50.000  
  24814209.286                   130399604.408 0                        41.000  
                  24814207.124    99916582.497          45.000  
  27610721.030                   145095819.971 0                        41.000  
                  27610718.742   111177319.034          46.000  
  26204765.289                   137707499.251 0                        44.000  
                  26204764.395   105516133.732          48.000  
 22  1 19 23  1 18.0000000  0  8G01G08G10G16G21G23G27G32
  24434546.227    24434545.798   128405157.090 0 100055966.591 0        35.000  
        36.000                                                  
  20777744.364    20777741.487   109187025.799 0  85080800.726 0        49.000  
        48.000                                                  
  20975773.165    20975769.860   110229124.286 0  85891861.751 0        51.000  
        48.000                                                  
  24176251.662                   127046689.525 0                        43.000  
                                                                
  22451602.397                   117983409.133 0                        46.000  
                                                                
  22925174.945    22925170.406   120471833.446 0  93875065.487 0        41.000  
        43.000                                                  
  20392073.686    20392070.023   107160324.976 0  83502337.034 0        50.000  
        49.000                                                  
  22994025.774    22994022.664   120834930.115 0  94156536.637 0        45.000  
        43.000                                                  
 22  1 19 23  1 17.0000000  0  0
 22  1 19 23  1 18.0000000  0  7E02E04E11E12E19E24E25
  27428714.863                   144139427.077 0                        41.000  
                  27428712.344   110444495.145          45.000  
  26340135.682                   138417761.310 0                        43.000  
                  26340133.127   106060462.635          46.000  
  22878909.507                   120229498.822 0                        46.000  
                  22878904.683    92123888.449          49.000  
  22400683.615                   117717077.063 0                        44.000  
                  22400679.916    90198809.545          50.000  
  24814121.103                   130399141.147 0                        41.000  
                  24814118.941    99916227.539          45.000  
  27611283.922                   145098777.956 0                        41.000  
                  27611281.581   111179585.540          46.000  
  26205005.502                   137708762.495 0                        44.000  
                  26205004.841   105517101.673          48.000  
 22  1 19 23  1 19.0000000  0  8G01G08G10G16G21G23G27G32
  24433939.270    24433939.020   128401967.776 0 100053481.421 0        35.000  
        36.000                                                  
  20777521.287    20777518.410   109185853.349 0  85079887.121 0        49.000  
        48.000                                                  
  20976033.392    20976029.997   110230491.422 0  85892927.054 0        51.000  
        48.000                                                  
  24176929.095                   127050249.172 0                        43.000  
                                                                
  22451236.511                   117981486.356 0                        47.000  
                                                                
  22925760.406    22925755.849   120474910.277 0  93877463.013 0        41.000  
        44.000                                                  
  20392295.833    20392292.367   107161492.766 0  83503246.998 0        50.000  
        49.000                                                  
  22993491.133    22993488.148   120832121.023 0  94154347.746 0        45.000  
        43.000                                                  
 22  1 19 23  1 18.0000000  0  0
 22  1 19 23  1 19.0000000  0  7E02E04E11E12E19E24E25
  27428504.759                   144138323.683 0                        41.000  
                  27428502.347   110443649.692          45.000  
  26339588.032                   138414883.846 0                        43.000  
                  26339585.584   106058257.809          46.000  
  22878648.852                   120228128.734 0                        46.000  
                  22878643.938    92122838.632          49.000  
  22400852.853                   117717966.271 0                        44.000  
                  22400849.029    90199490.882          50.000  
  24814033.080                   130398678.466 0                        41.000  
                  24814030.918    99915873.009          45.000  
  27611846.707                   145101736.106 0                        41.000  
                  27611844.527   111181852.161          46.000  
  26205246.055                   137710026.268 0                        44.000  
                  26205245.179   105518070.023          48.000  
 22  1 19 23  1 20.0000000  0  8G01G08G10G16G21G23G27G32
  24433332.438    24433332.259   128398778.668 0 100050996.394 0        35.000  
        36.000                                                  
  20777298.282    20777295.459   109184681.533 0  85078974.018 0        49.000  
        48.000                                                  
  20976293.761    20976290.134   110231859.142 0  85893992.803 0        51.000  
        48.000                                                  
  24177606.456                   127053809.007 0                        43.000  
                                                                
  22450870.607                   117979563.847 0                        46.000  
                                                                
  22926345.974    22926341.560   120477987.442 0  93879860.804 0        41.000  
        44.000                                                  
  20392518.213    20392514.622   107162661.228 0  83504157.486 0        50.000  
        49.000                                                  
  22992956.688    22992953.704   120829312.354 0  94152159.175 0        45.000  
        43.000                                                  
 22  1 19 23  1 19.0000000  0  0
 22  1 19 23  1 20.0000000  0  7E02E04E11E12E19E24E25
  27428294.941                   144137220.864 0                        41.000  
                  27428292.475   110442804.667          45.000  
  26339040.561                   138412006.648 0                        43.000  
                  26339038.059   106056053.210          46.000  
  22878388.214                   120226758.860 0                        46.000  
                  22878383.300    92121789.004          49.000  
  22401022.090                   117718855.746 0                        44.000  
                  22401018.409    90200172.426          50.000  
  24813944.950                   130398216.379 0                        41.000  
                  24813942.841    99915518.949          45.000  
  27612409.795                   145104694.394 0                        41.000  
                  27612407.508   111184118.910          46.000  
  26205486.536                   137711290.587 0                        44.000  
                  26205485.839   105519038.782          48.000  
 22  1 19 23  1 21.0000000  0  8G01G08G10G16G21G23G27G32
  24432725.516    24432725.445   128395589.436 0 100048511.308 0        35.000  
        36.000                                                  
  20777075.259    20777072.596   109183510.089 0  85078061.207 0        50.000  
        48.000                                                  
  20976554.095    20976550.414   110233227.164 0  85895058.788 0        51.000  
        48.000                                                  
  24178283.870                   127057368.760 0                        43.000  
                                                                
  22450504.667                   117977641.340 0                        46.000  
                                                                
  22926931.506    22926927.128   120481064.654 0  93882258.627 0        41.000  
        44.000                                                  
  20392740.593    20392737.162   107163830.098 0  83505068.296 0        50.000  
        49.000                                                  
  22992422.297    22992419.295   120826503.814 0  94149970.700 0        45.000  
        43.000                                                  
 22  1 19 23  1 20.0000000  0  0
 22  1 19 23  1 21.0000000  0  7E02E04E11E12E19E24E25
  27428085.195                   144136118.322 0                        41.000  
                  27428082.693   110441959.859          45.000  
  26338493.018                   138409129.445 0                        43.000  
                  26338490.606   106053848.602          46.000  
  22878127.684                   120225388.975 0                        46.000  
                  22878122.645    92120739.334          49.000  
  22401191.399                   117719745.230 0                        44.000  
                  22401187.683    90200853.976          50.000  
  24813857.070                   130397754.602 0                        41.000  
                  24813854.944    99915165.127          45.000  
  27612972.687                   145107652.579 0                        41.000  
                  27612970.400   111186385.567          46.000  
  26205727.196                   137712555.158 0                        44.000  
                  26205726.464   105520007.739          48.000  
 22  1 19 23  1 22.0000000  0  8G01G08G10G16G21G23G27G32
  24432118.738    24432118.595   128392400.436 0 100046026.352 0        35.000  
        36.000                                                  
  20776852.468    20776849.698   109182339.326 0  85077148.924 0        49.000  
        48.000                                                  
  20976814.661    20976810.855   110234595.797 0  85896125.252 0        51.000  
        48.000                                                  
  24178961.213                   127060928.739 0                        43.000  
                                                                
  22450138.906                   117975719.150 0                        46.000  
                                                                
  22927517.163    22927512.749   120484142.248 0  93884656.750 0        41.000  
        44.000                                                  
  20392963.241    20392959.739   107164999.690 0  83505979.660 0        50.000  
        49.000                                                  
  22991887.977    22991884.958   120823695.735 0  94147782.591 0        45.000  
        43.000                                                  
 22  1 19 23  1 21.0000000  0  0
 22  1 19 23  1 22.0000000  0  7E02E04E11E12E19E24E25
  27427875.520                   144135016.378 0                        41.000  
                  27427872.964   110441115.505          45.000  
  26337945.404                   138406252.571 0                        43.000  
                  26337943.081   106051644.241          46.000  
  22877867.136                   120224019.368 0                        46.000  
                  22877861.918    92119689.893          49.000  
  22401360.762                   117720635.043 0                        44.000  
                  22401356.938    90201535.781          50.000  
  24813769.333                   130397293.477 0                        41.000  
                  24813767.296    99914811.781          45.000  
  27613535.544                   145110610.973 0                        41.000  
                  27613533.382   111188652.383          46.000  
  26205968.106                   137713820.320 0                        44.000  
                  26205967.302   105520977.140          48.000  
 22  1 19 23  1 23.0000000  0  8G01G08G10G16G21G23G27G32
  24431511.852    24431511.691   128389211.256 0 100043541.273 0        35.000  
        35.000                                                  
  20776629.748    20776626.979   109181168.889 0  85076236.891 0        49.000  
        48.000                                                  
  20977075.210    20977071.296   110235964.705 0  85897191.934 0        51.000  
        48.000                                                  
  24179638.521                   127064488.612 0                        42.000  
                                                                
  22449773.020                   117973796.925 0                        46.000  
                                                                
  22928102.820    22928098.371   120487219.856 0  93887054.893 0        41.000  
        44.000                                                  
  20393185.872    20393182.316   107166169.637 0  83506891.311 0        50.000  
        49.000                                                  
  22991353.765    22991350.656   120820887.758 0  94145594.557 0        45.000  
        43.000                                                  
 22  1 19 23  1 22.0000000  0  0
 22  1 19 23  1 23.0000000  0  7E02E04E11E12E19E24E25
  27427665.559                   144133914.686 0                        41.000  
                  27427663.379   110440271.359          45.000  
  26337398.183                   138403375.649 0                        43.000  
                  26337395.592   106049439.860          46.000  
  22877606.355                   120222649.687 0                        46.000  
                  22877601.334    92118640.406          49.000  
  22401530.017                   117721524.833 0                        44.000  
                  22401526.283    90202217.570          50.000  
  24813681.578                   130396832.622 0                        41.000  
                  24813679.684    99914458.658          45.000  
  27614098.561                   145113569.214 0                        41.000  
                  27614096.435   111190919.092          46.000  
  26206208.909                   137715085.698 0                        44.000  
                  26206208.069   105521946.724          48.000  
 22  1 19 23  1 24.0000000  0  8G01G08G10G16G21G23G27G32
  24430904.985    24430904.842   128386022.074 0 100041056.189 0        36.000  
        36.000                                                  
  20776407.118    20776404.259   109179998.857 0  85075325.182 0        49.000  
        48.000                                                  
  20977335.740    20977331.880   110237333.978 0  85898258.902 0        51.000  
        48.000                                                  
  24180315.953                   127068048.453 0                        42.000  
                                                                
  22449407.348                   117971874.758 0                        46.000  
                                                                
  22928688.531    22928684.028   120490297.588 0  93889453.121 0        41.000  
        44.000                                                  
  20393408.573    20393404.999   107167340.065 0  83507803.333 0        50.000  
        49.000                                                  
  22990819.392    22990816.372   120818079.999 0  94143406.695 0        45.000  
        43.000                                                  
 22  1 19 23  1 23.0000000  0  0
 22  1 19 23  1 24.0000000  0  7E02E04E11E12E19E24E25
  27427456.008                   144132813.329 0                        41.000  
                  27427453.739   110439427.462          45.000  
  26336850.891                   138400498.807 0                        43.000  
                  26336848.139   106047235.511          46.000  
  22877345.825                   120221280.034 0                        46.000  
                  22877340.750    92117590.927          49.000  
  22401699.523                   117722414.689 0                        44.000  
                  22401695.645    90202899.404          50.000  
  24813594.038                   130396372.134 0                        41.000  
                  24813591.965    99914105.830          45.000  
  27614661.382                   145116527.402 0                        41.000  
                  27614659.309   111193185.751          46.000  
  26206449.837                   137716351.399 0                        44.000  
                  26206448.819   105522916.542          48.000  
 22  1 19 23  1 25.0000000  0  8G01G08G10G16G21G23G27G32
  24430298.188    24430298.045   128382833.427 0 100038571.522 0        36.000  
        36.000                                                  
  20776184.684    20776181.825   109178829.832 0  85074414.253 0        49.000  
        48.000                                                  
  20977596.485    20977592.643   110238704.198 0  85899326.604 0        51.000  
        48.000                                                  
  24180993.493                   127071608.846 0                        42.000  
                                                                
  22449041.677                   117969953.232 0                        46.000  
                                                                
  22929274.313    22929269.900   120493376.030 0  93891851.904 0        41.000  
        44.000                                                  
  20393631.489    20393628.005   107168511.538 0  83508716.165 0        50.000  
        49.000                                                  
  22990285.162    22990282.249   120815273.014 0  94141219.427 0        45.000  
        43.000                                                  
 22  1 19 23  1 24.0000000  0  0
 22  1 19 23  1 25.0000000  0  7E02E04E11E12E19E24E25
  27427246.584                   144131712.911 0                        41.000  
                  27427244.511   110438584.289          45.000  
  26336303.563                   138397622.601 0                        43.000  
                  26336300.936   106045031.670          46.000  
  22877085.366                   120219910.993 0                        46.000  
                  22877080.166    92116541.922          49.000  
  22401868.957                   117723305.203 0                        44.000  
                  22401865.044    90203581.748          50.000  
  24813506.641                   130395912.614 0                        41.000  
                  24813504.550    99913753.724          45.000  
  27615224.363                   145119486.112 0                        41.000  
                  27615222.380   111195452.815          46.000  
  26206690.801                   137717618.009 0                        44.000  
                  26206689.979   105523887.062          48.000  
 22  1 19 23  1 26.0000000  0  8G01G08G10G16G21G23G27G32
  24429691.481    24429691.338   128379644.896 0 100036086.978 0        36.000  
        36.000                                                  
  20775962.287    20775959.481   109177661.443 0  85073503.825 0        49.000  
        48.000                                                  
  20977857.283    20977853.566   110240074.981 0  85900394.760 0        51.000  
        48.000                                                  
  24181671.033                   127075169.432 0                        42.000  
                                                                
  22448675.987                   117968031.990 0                        46.000  
                                                                
  22929860.149    22929855.753   120496454.786 0  93894250.935 0        41.000  
        44.000                                                  
  20393854.495    20393851.064   107169683.683 0  83509629.524 0        50.000  
        49.000                                                  
  22989751.003    22989748.180   120812466.452 0  94139032.500 0        45.000  
        43.000                                                  
 22  1 19 23  1 25.0000000  0  0
 22  1 19 23  1 26.0000000  0  7E02E04E11E12E19E24E25
  27427037.302                   144130613.029 0                        41.000  
                  27427035.175   110437741.529          45.000  
  26335756.288                   138394746.660 0                        43.000  
                  26335753.572   106042828.024          46.000  
  22876824.907                   120218542.164 0                        46.000  
                  22876819.743    92115493.081          49.000  
  22402038.355                   117724195.999 0                        44.000  
                  22402034.478    90204264.306          50.000  
  24813419.207                   130395453.684 0                        41.000  
                  24813417.063    99913402.074          45.000  
  27615787.309                   145122444.978 0                        41.000  
                  27615785.379   111197719.998          46.000  
  26206932.015                   137718885.148 0                        44.000  
                  26206931.014   105524857.987          48.000  
 22  1 19 23  1 27.0000000  0  8G01G08G10G16G21G23G27G32
  24429084.703    24429084.560   128376456.040 0 100033602.159 0        36.000  
        36.000                                                  
  20775739.942    20775737.101   109176493.166 0  85072593.479 0        49.000  
        48.000                                                  
  20978118.189    20978114.383   110241445.829 0  85901462.945 0        51.000  
        48.000                                                  
  24182348.555                   127078729.663 0                        42.000  
                                                                
  22448310.315                   117966110.475 0                        46.000  
                                                                
  22930445.985    22930441.589   120499533.348 0  93896649.814 0        41.000  
        44.000                                                  
  20394077.607    20394074.033   107170855.977 0  83510543.007 0        50.000  
        49.000                                                  
  22989216.844    22989214.039   120809659.778 0  94136845.500 0        45.000  
        43.000                                                  
 22  1 19 23  1 26.0000000  0  0
 22  1 19 23  1 27.0000000  0  7E02E04E11E12E19E24E25
  27426828.002                   144129513.207 0                        41.000  
                  27426825.857   110436898.795          45.000  
  26335209.031                   138391870.478 0                        43.000  
                  26335206.280   106040624.196          46.000  
  22876564.252                   120217173.065 0                        46.000  
                  22876559.177    92114444.026          49.000  
  22402207.771                   117725086.552 0                        44.000  
                  22402204.073    90204946.677          50.000  
  24813331.810                   130394994.815 0                        41.000  
                  24813329.898    99913050.478          45.000  
  27616350.129                   145125403.486 0                        41.000  
                  27616348.396   111199986.911          46.000  
  26207173.068                   137720152.302 0                        44.000  
                  26207172.175   105525828.925          48.000  
 22  1 19 23  1 28.0000000  0  8G01G08G10G16G21G23G27G32
  24428477.871    24428477.764   128373267.110 0 100031117.256 0        35.000  
        36.000                                                  
  20775517.634    20775514.864   109175325.291 0  85071683.451 0        49.000  
        48.000                                                  
  20978379.094    20978375.288   110242817.009 0  85902531.401 0        51.000  
        48.000                                                  
  24183026.023                   127082289.871 0                        42.000  
                                                                
  22447944.626                   117964189.009 0                        46.000  
                                                                
  22931031.839    22931027.515   120502612.010 0  93899048.769 0        41.000  
        44.000                                                  
  20394300.702    20394297.200   107172028.706 0  83511456.827 0        50.000  
        49.000                                                  
  22988682.829    22988679.987   120806853.274 0  94134658.614 0        45.000  
        43.000                                                  
 22  1 19 23  1 27.0000000  0  0
 22  1 19 23  1 28.0000000  0  7E02E04E11E12E19E24E25
  27426618.970                   144128413.675 0                        41.000  
                  27426616.540   110436056.307          45.000  
  26334661.685                   138388994.319 0                        43.000  
                  26334659.023   106038420.384          46.000  
  22876303.775                   120215803.945 0                        46.000  
                  22876298.611    92113394.970          49.000  
  22402377.206                   117725977.139 0                        44.000  
                  22402373.596    90205629.082          50.000  
  24813244.520                   130394536.302 0                        41.000  
                  24813242.679    99912699.160          45.000  
  27616913.182                   145128361.912 0                        41.000  
                  27616911.360   111202253.752          46.000  
  26207414.282                   137721419.734 0                        44.000  
                  26207413.442   105526800.083          48.000  
 22  1 19 23  1 29.0000000  0  8G01G08G10G16G21G23G27G32
  24427871.021    24427870.985   128370078.254 0 100028632.451 0        36.000  
        36.000                                                  
  20775295.450    20775292.770   109174157.970 0  85070773.841 0        49.000  
        48.000                                                  
  20978640.232    20978636.408   110244188.664 0  85903600.218 0        51.000  
        48.000                                                  
  24183703.527                   127085850.152 0                        42.000  
                                                                
  22447578.936                   117962267.712 0                        46.000  
                                                                
  22931617.746    22931613.333   120505690.892 0  93901447.898 0        41.000  
        44.000                                                  
  20394523.975    20394520.473   107173202.025 0  83512371.094 0        50.000  
        49.000                                                  
  22988148.777    22988145.954   120804047.114 0  94132471.980 0        45.000  
        43.000                                                  
 22  1 19 23  1 28.0000000  0  0
