     2.11           OBSERVATION DATA    M (Mixed)           RINEX VERSION / TYPE
RTCM3TORINEX on                         2021-12-30 03:59    PGM / RUN BY / DATE
RTCM3TORINEX                                                MARKER NAME
                                                            OBSERVER / AGENCY
                                                            REC # / TYPE / VERS
                                                            ANT # / TYPE
         .0000         .0000         .0000                  APPROX POSITION XYZ
         .0000         .0000         .0000                  ANTENNA: DELTA H/E/N
     1     1                                                WAVELENGTH FACT L1/2
     9    C1    C2    L1    L2    S1    S2    C7    L7    S7# / TYPES OF OBSERV
  2021    12    30     3    59   20.0010000     GPS         TIME OF FIRST OBS
                                                            END OF HEADER
 21 12 30  3 59 20.0010000  0  6E03E05E08E13E15E18
  23439038.298                   123173140.844 0                        48.000  
                  23439037.655    94379629.156          53.000  
  26098925.332                   137150569.862 0                        43.000  
                  26098925.207   105089742.200          46.000  
  23333543.839                   122617959.315 0                        46.000  
                  23333541.874    93954022.906          50.000  
  24963750.279                   131185692.409 0                        46.000  
                  24963749.189   100518909.644          50.000  
  23101059.863                   121396761.139 0                        48.000  
                  23101060.024    93018301.446          53.000  
  20813679.684                   109377190.475 0                        47.000  
                  20813678.719    83808495.885          51.000  
 21 12 30  3 59 21.0010000  0  9G01G03G04G17G19G21G22G31G32
  20068109.961    20068107.531   105458641.356 0  82175963.247 0        50.000  
        50.000                                                  
  20608012.626    20608009.803   108295135.051 0  84385824.219 0        49.000  
        49.000                                                  
  22397531.001    22397527.052   117699113.892 0  91713596.549 0        45.000  
        45.000                                                  
  22653296.295    22653290.452   119044067.686 0  92761611.763 0        46.000  
        43.000                                                  
  23464523.134                   123306370.292 0                        42.000  
                                                                
  21578058.716                   113392815.192 0                        48.000  
                                                                
  20588802.319                   108194887.473 0                        44.000  
                                                                
  22692181.523    22692176.502   119247592.498 0  92920205.704 0        44.000  
        41.000                                                  
  24278231.784    24278227.299   127582957.312 0  99414810.397 0        41.000  
        38.000                                                  
 21 12 30  3 59 20.0000000  0  0
 21 12 30  3 59 21.0010000  0  6E03E05E08E13E15E18
  23439075.662                   123173337.769 0                        48.000  
                  23439075.055    94379780.054          53.000  
  26099389.999                   137153012.565 0                        43.000  
                  26099389.963   105091613.881          47.000  
  23333110.569                   122615682.339 0                        46.000  
                  23333108.622    93952278.198          50.000  
  24963347.833                   131183578.318 0                        46.000  
                  24963346.886   100517289.754          50.000  
  23101164.808                   121397312.046 0                        48.000  
                  23101164.790    93018723.570          53.000  
  20814599.564                   109382023.444 0                        47.000  
                  20814598.456    83812199.067          51.000  
 21 12 30  3 59 22.0010000  0  9G01G03G04G17G19G21G22G31G32
  20068269.925    20068267.512   105459482.357 0  82176618.570 0        50.000  
        50.000                                                  
  20607804.023    20607801.254   108294038.527 0  84384969.787 0        49.000  
        49.000                                                  
  22396937.857    22396933.801   117695996.877 0  91711167.708 0        45.000  
        45.000                                                  
  22653135.992    22653130.113   119043225.065 0  92760955.177 0        46.000  
        43.000                                                  
  23464083.878                   123304061.609 0                        42.000  
                                                                
  21578400.140                   113394609.640 0                        48.000  
                                                                
  20588861.733                   108195199.546 0                        44.000  
                                                                
  22692003.137    22691997.990   119246655.051 0  92919475.218 0        44.000  
        41.000                                                  
  24278862.078    24278857.486   127586269.591 0  99417391.389 0        41.000  
        38.000                                                  
 21 12 30  3 59 21.0000000  0  0
 21 12 30  3 59 22.0010000  0  6E03E05E08E13E15E18
  23439113.116                   123173535.084 0                        48.000  
                  23439112.562    94379931.234          53.000  
  26099855.076                   137155455.402 0                        43.000  
                  26099854.754   105093485.663          47.000  
  23332677.263                   122613405.606 0                        46.000  
                  23332675.387    93950533.695          50.000  
  24962945.476                   131181464.477 0                        46.000  
                  24962944.779   100515670.052          50.000  
  23101269.467                   121397863.373 0                        48.000  
                  23101269.753    93019146.016          53.000  
  20815519.407                   109386857.350 0                        47.000  
                  20815518.353    83815902.964          51.000  
 21 12 30  3 59 23.0010000  0  9G01G03G04G17G19G21G22G31G32
  20068430.103    20068427.690   105460324.077 0  82177274.454 0        50.000  
        50.000                                                  
  20607595.385    20607592.686   108292942.475 0  84384115.721 0        49.000  
        49.000                                                  
  22396344.820    22396340.674   117692880.364 0  91708739.238 0        45.000  
        45.000                                                  
  22652975.886    22652969.900   119042383.219 0  92760299.184 0        46.000  
        43.000                                                  
  23463644.586                   123301753.639 0                        42.000  
                                                                
  21578741.670                   113396404.648 0                        48.000  
                                                                
  20588921.183                   108195512.109 0                        44.000  
                                                                
  22691824.929    22691819.800   119245718.389 0  92918745.354 0        44.000  
        41.000                                                  
  24279492.408    24279487.744   127589582.176 0  99419972.649 0        41.000  
        38.000                                                  
 21 12 30  3 59 22.0000000  0  0
 21 12 30  3 59 23.0010000  0  6E03E05E08E13E15E18
  23439150.998                   123173732.916 0                        48.000  
                  23439150.248    94380082.824          53.000  
  26100319.902                   137157898.550 0                        43.000  
                  26100319.813   105095357.684          46.000  
  23332244.118                   122611129.293 0                        46.000  
                  23332242.242    93948789.507          50.000  
  24962543.370                   131179351.019 0                        46.000  
                  24962542.423   100514050.655          50.000  
  23101374.519                   121398415.278 0                        48.000  
                  23101374.751    93019568.900          53.000  
  20816439.608                   109391692.332 0                        47.000  
                  20816438.358    83819607.695          51.000  
 21 12 30  3 59 24.0010000  0  9G01G03G04G17G19G21G22G31G32
  20068590.513    20068587.975   105461166.534 0  82177930.922 0        50.000  
        50.000                                                  
  20607386.835    20607384.191   108291846.946 0  84383262.057 0        49.000  
        49.000                                                  
  22395751.872    22395747.780   117689764.341 0  91706311.179 0        45.000  
        45.000                                                  
  22652815.762    22652809.758   119041542.139 0  92759643.806 0        46.000  
        43.000                                                  
  23463205.508                   123299446.391 0                        42.000  
                                                                
  21579083.290                   113398200.210 0                        48.000  
                                                                
  20588980.848                   108195825.138 0                        45.000  
                                                                
  22691646.846    22691641.646   119244782.553 0  92918016.131 0        44.000  
        41.000                                                  
  24280122.845    24280118.253   127592895.077 0  99422554.108 0        41.000  
        38.000                                                  
 21 12 30  3 59 23.0000000  0  0
 21 12 30  3 59 24.0010000  0  6E03E05E08E13E15E18
  23439188.773                   123173931.281 0                        48.000  
                  23439187.987    94380234.819          53.000  
  26100784.837                   137160341.986 0                        43.000  
                  26100784.729   105097229.927          47.000  
  23331811.027                   122608853.411 0                        46.000  
                  23331809.025    93947045.647          50.000  
  24962141.317                   131177237.976 0                        46.000  
                  24962140.298   100512431.565          50.000  
  23101479.767                   121398967.759 0                        48.000  
                  23101479.928    93019992.226          53.000  
  20817359.809                   109396528.405 0                        47.000  
                  20817358.648    83823313.256          51.000  
 21 12 30  3 59 25.0010000  0  9G01G03G04G17G19G21G22G31G32
  20068750.923    20068748.332   105462009.463 0  82178587.739 0        50.000  
        50.000                                                  
  20607178.500    20607175.695   108290751.639 0  84382408.578 0        49.000  
        49.000                                                  
  22395158.996    22395154.832   117686648.534 0  91703883.271 0        45.000  
        45.000                                                  
  22652655.691    22652649.866   119040701.537 0  92758988.796 0        46.000  
        43.000                                                  
  23462766.592                   123297139.609 0                        42.000  
                                                                
  21579424.964                   113399996.022 0                        48.000  
                                                                
  20589040.477                   108196138.393 0                        45.000  
                                                                
  22691468.817    22691463.635   119243847.235 0  92917287.303 0        44.000  
        41.000                                                  
  24280753.211    24280748.672   127596207.996 0  99425135.630 0        41.000  
        38.000                                                  
 21 12 30  3 59 24.0000000  0  0
 21 12 30  3 59 25.0010000  0  6E03E05E08E13E15E18
  23439226.530                   123174129.908 0                        48.000  
                  23439225.637    94380387.006          53.000  
  26101249.860                   137162785.440 0                        43.000  
                  26101249.753   105099102.193          47.000  
  23331377.846                   122606577.646 0                        46.000  
                  23331376.005    93945301.887          50.000  
  24961739.192                   131175125.053 0                        46.000  
                  24961738.263   100510812.570          50.000  
  23101584.748                   121399520.521 0                        48.000  
                  23101585.052    93020415.778          53.000  
  20818279.975                   109401365.289 0                        47.000  
                  20818279.028    83827019.437          51.000  
 21 12 30  3 59 26.0010000  0  9G01G03G04G17G19G21G22G31G32
  20068911.423    20068908.814   105462852.650 0  82179244.775 0        50.000  
        50.000                                                  
  20606970.005    20606967.253   108289656.371 0  84381555.123 0        49.000  
        49.000                                                  
  22394566.173    22394561.902   117683532.755 0  91701455.391 0        45.000  
        45.000                                                  
  22652495.763    22652489.938   119039861.237 0  92758334.005 0        46.000  
        43.000                                                  
  23462327.675                   123294833.089 0                        42.000  
                                                                
  21579766.727                   113401791.937 0                        48.000  
                                                                
  20589099.945                   108196451.669 0                        45.000  
                                                                
  22691290.895    22691285.749   119242912.270 0  92916558.766 0        44.000  
        41.000                                                  
  24281383.666    24281379.037   127599520.783 0  99427716.995 0        42.000  
        38.000                                                  
 21 12 30  3 59 25.0000000  0  0
 21 12 30  3 59 26.0010000  0  6E03E05E08E13E15E18
  23439264.323                   123174328.585 0                        48.000  
                  23439263.609    94380539.251          53.000  
  26101714.884                   137165228.750 0                        43.000  
                  26101714.794   105100974.339          47.000  
  23330944.790                   122604301.853 0                        46.000  
                  23330943.039    93943558.094          50.000  
  24961337.282                   131173012.065 0                        46.000  
                  24961336.228   100509193.532          50.000  
  23101690.104                   121400073.415 0                        48.000  
                  23101690.372    93020839.420          53.000  
  20819200.623                   109406202.801 0                        47.000  
                  20819199.640    83830726.102          51.000  
 21 12 30  3 59 27.0010000  0  9G01G03G04G17G19G21G22G31G32
  20069072.029    20069069.420   105463696.545 0  82179902.362 0        50.000  
        50.000                                                  
  20606761.741    20606758.954   108288561.567 0  84380702.035 0        49.000  
        49.000                                                  
  22393973.368    22393969.098   117680417.442 0  91699027.886 0        45.000  
        45.000                                                  
  22652335.978    22652330.153   119039021.673 0  92757679.802 0        46.000  
        43.000                                                  
  23461888.865                   123292527.255 0                        42.000  
                                                                
  21580108.579                   113403588.368 0                        48.000  
                                                                
  20589159.735                   108196765.394 0                        45.000  
                                                                
  22691113.098    22691107.934   119241978.074 0  92915830.841 0        44.000  
        41.000                                                  
  24282014.067    24282009.582   127602833.822 0  99430298.598 0        42.000  
        38.000                                                  
 21 12 30  3 59 26.0000000  0  0
 21 12 30  3 59 27.0010000  0  6E03E05E08E13E15E18
  23439302.313                   123174527.790 0                        48.000  
                  23439301.455    94380691.884          53.000  
  26102179.907                   137167672.324 0                        43.000  
                  26102179.621   105102846.688          46.000  
  23330511.806                   122602026.449 0                        46.000  
                  23330510.019    93941814.599          50.000  
  24960935.158                   131170899.447 0                        46.000  
                  24960934.228   100507574.772          50.000  
  23101795.245                   121400626.843 0                        48.000  
                  23101795.549    93021263.484          53.000  
  20820121.288                   109411041.360 0                        47.000  
                  20820120.448    83834433.571          51.000  
 21 12 30  3 59 28.0010000  0  9G01G03G04G17G19G21G22G31G32
  20069232.797    20069230.206   105464541.273 0  82180560.578 0        50.000  
        50.000                                                  
  20606553.567    20606550.708   108287467.361 0  84379849.398 0        49.000  
        49.000                                                  
  22393380.706    22393376.346   117677302.695 0  91696600.813 0        45.000  
        45.000                                                  
  22652176.444    22652170.511   119038182.946 0  92757026.265 0        46.000  
        43.000                                                  
  23461450.234                   123290222.252 0                        42.000  
                                                                
  21580450.592                   113405385.436 0                        48.000  
                                                                
  20589219.596                   108197079.688 0                        45.000  
                                                                
  22690935.552    22690930.388   119241044.773 0  92915103.587 0        44.000  
        41.000                                                  
  24282644.665    24282640.179   127606147.260 0  99432880.496 0        42.000  
        38.000                                                  
 21 12 30  3 59 27.0000000  0  0
 21 12 30  3 59 28.0010000  0  6E03E05E08E13E15E18
  23439340.213                   123174727.594 0                        48.000  
                  23439339.498    94380844.980          53.000  
  26102644.984                   137170116.291 0                        43.000  
                  26102644.770   105104719.327          47.000  
  23330078.839                   122599751.535 0                        46.000  
                  23330077.177    93940071.483          50.000  
  24960533.283                   131168787.319 0                        46.000  
                  24960532.300   100505956.389          50.000  
  23101900.708                   121401180.937 0                        48.000  
                  23101901.083    93021688.041          53.000  
  20821042.133                   109415881.096 0                        47.000  
                  20821041.293    83838141.938          51.000  
 21 12 30  3 59 29.0010000  0  9G01G03G04G17G19G21G22G31G32
  20069393.725    20069390.884   105465386.497 0  82181219.196 0        50.000  
        50.000                                                  
  20606345.393    20606342.570   108286373.431 0  84378996.987 0        49.000  
        49.000                                                  
  22392788.134    22392783.684   117674188.244 0  91694173.961 0        45.000  
        45.000                                                  
  22652016.927    22652010.959   119037344.780 0  92756373.134 0        46.000  
        43.000                                                  
  23461011.764                   123287917.750 0                        42.000  
                                                                
  21580792.694                   113407182.830 0                        48.000  
                                                                
  20589279.422                   108197394.238 0                        45.000  
                                                                
  22690758.059    22690752.841   119240112.058 0  92914376.798 0        44.000  
        41.000                                                  
  24283275.155    24283270.759   127609460.775 0  99435462.480 0        42.000  
        38.000                                                  
 21 12 30  3 59 28.0000000  0  0
 21 12 30  3 59 29.0010000  0  6E03E05E08E13E15E18
  23439378.203                   123174927.700 0                        48.000  
                  23439377.559    94380998.312          53.000  
  26103110.007                   137172560.313 0                        43.000  
                  26103109.936   105106592.033          47.000  
  23329646.248                   122597476.810 0                        46.000  
                  23329644.229    93938328.514          50.000  
  24960131.498                   131166675.373 0                        46.000  
                  24960130.462   100504338.144          50.000  
  23102006.367                   121401735.375 0                        48.000  
                  23102006.475    93022112.874          53.000  
  20821963.585                   109420721.685 0                        47.000  
                  20821962.369    83841850.966          51.000  
 21 12 30  3 59 30.0010000  0  9G01G03G04G17G19G21G22G31G32
  20069554.743    20069551.813   105466232.246 0  82181878.212 0        50.000  
        50.000                                                  
  20606137.165    20606134.521   108285279.782 0  84378144.791 0        49.000  
        49.000                                                  
  22392195.508    22392191.058   117671074.061 0  91691747.316 0        45.000  
        45.000                                                  
  22651857.464    22651851.549   119036507.156 0  92755720.431 0        46.000  
        43.000                                                  
  23460573.312                   123285613.765 0                        42.000  
                                                                
  21581134.743                   113408980.555 0                        48.000  
                                                                
  20589339.319                   108197709.072 0                        45.000  
                                                                
  22690580.691    22690575.580   119239179.928 0  92913650.468 0        44.000  
        42.000                                                  
  24283905.664    24283901.268   127612774.386 0  99438044.479 0        42.000  
        38.000                                                  
 21 12 30  3 59 29.0000000  0  0
 21 12 30  3 59 30.0010000  0  6E03E05E08E13E15E18
  23439416.317                   123175128.140 0                        48.000  
                  23439415.656    94381151.890          53.000  
  26103574.959                   137175004.421 0                        43.000  
                  26103574.924   105108464.789          47.000  
  23329213.264                   122595202.301 0                        46.000  
                  23329211.531    93936585.706          51.000  
  24959729.499                   131164563.612 0                        46.000  
                  24959728.552   100502720.041          50.000  
  23102111.866                   121402290.179 0                        48.000  
                  23102112.134    93022537.980          53.000  
  20822884.768                   109425563.144 0                        47.000  
                  20822883.714    83845560.655          51.000  
 21 12 30  3 59 31.0010000  0  9G01G03G04G17G19G21G22G31G32
  20069715.707    20069712.848   105467078.444 0  82182537.592 0        50.000  
        50.000                                                  
  20605928.955    20605926.346   108284186.354 0  84377292.774 0        49.000  
        49.000                                                  
  22391603.025    22391598.450   117667960.083 0  91689320.853 0        45.000  
        45.000                                                  
  22651698.144    22651692.283   119035670.020 0  92755068.124 0        46.000  
        43.000                                                  
  23460135.039                   123283310.214 0                        42.000  
                                                                
  21581476.935                   113410778.541 0                        48.000  
                                                                
  20589399.323                   108198024.105 0                        45.000  
                                                                
  22690403.377    22690398.337   119238248.325 0  92912924.539 0        44.000  
        41.000                                                  
  24284536.208    24284531.830   127616088.009 0  99440626.541 0        41.000  
        38.000                                                  
 21 12 30  3 59 30.0000000  0  0
 21 12 30  3 59 31.0010000  0  6E03E05E08E13E15E18
  23439454.646                   123175328.812 0                        48.000  
                  23439453.842    94381305.652          53.000  
  26104040.001                   137177448.556 0                        43.000  
                  26104040.019   105110337.576          47.000  
  23328780.476                   122592927.913 0                        46.000  
                  23328778.618    93934842.995          50.000  
  24959327.607                   131162451.971 0                        46.000  
                  24959326.695   100501102.031          50.000  
  23102217.633                   121402845.260 0                        48.000  
                  23102217.758    93022963.308          53.000  
  20823806.167                   109430405.409 0                        47.000  
                  20823805.220    83849270.962          51.000  
 21 12 30  3 59 32.0010000  0  9G01G03G04G17G19G21G22G31G32
  20069876.761    20069873.884   105467924.894 0  82183197.168 0        50.000  
        50.000                                                  
  20605720.906    20605718.369   108283092.955 0  84376440.768 0        49.000  
        49.000                                                  
  22391010.381    22391005.824   117664846.137 0  91686894.397 0        45.000  
        45.000                                                  
  22651538.895    22651533.034   119034833.156 0  92754416.029 0        46.000  
        43.000                                                  
  23459696.676                   123281006.930 0                        42.000  
                                                                
  21581819.127                   113412576.601 0                        48.000  
                                                                
  20589459.220                   108198339.148 0                        45.000  
                                                                
  22690226.098    22690221.148   119237317.046 0  92912198.874 0        44.000  
        42.000                                                  
  24285166.681    24285162.356   127619401.465 0  99443208.445 0        42.000  
        38.000                                                  
 21 12 30  3 59 31.0000000  0  0
 21 12 30  3 59 32.0010000  0  6E03E05E08E13E15E18
  23439492.850                   123175529.552 0                        48.000  
                  23439492.082    94381459.468          53.000  
  26104504.917                   137179892.529 0                        43.000  
                  26104505.078   105112210.224          47.000  
  23328347.635                   122590653.481 0                        46.000  
                  23328345.866    93933100.244          50.000  
  24958925.589                   131160340.245 0                        46.000  
                  24958924.892   100499483.958          50.000  
  23102323.292                   121403400.460 0                        48.000  
                  23102323.346    93023388.710          53.000  
  20824727.690                   109435248.300 0                        47.000  
                  20824726.815    83852981.737          51.000  
 21 12 30  3 59 33.0010000  0  9G01G03G04G17G19G21G22G31G32
  20070038.047    20070035.152   105468772.463 0  82183857.604 0        50.000  
        50.000                                                  
  20605512.964    20605510.445   108282000.413 0  84375589.434 0        49.000  
        49.000                                                  
  22390418.005    22390413.430   117661733.051 0  91684468.616 0        45.000  
        45.000                                                  
  22651379.878    22651374.125   119033997.428 0  92753764.813 0        46.000  
        43.000                                                  
  23459258.527                   123278704.741 0                        42.000  
                                                                
  21582161.497                   113414375.577 0                        48.000  
                                                                
  20589519.438                   108198655.035 0                        45.000  
                                                                
  22690049.141    22690044.102   119236386.946 0  92911474.123 0        44.000  
        42.000                                                  
  24285797.296    24285792.954   127622715.587 0  99445790.878 0        42.000  
        38.000                                                  
 21 12 30  3 59 32.0000000  0  0
 21 12 30  3 59 33.0010000  0  6E03E05E08E13E15E18
  23439531.162                   123175731.175 0                        48.000  
                  23439530.393    94381613.960          53.000  
  26104970.369                   137182337.153 0                        43.000  
                  26104970.316   105114083.371          47.000  
  23327915.026                   122588379.826 0                        46.000  
                  23327913.167    93931358.093          50.000  
  24958524.055                   131158229.300 0                        46.000  
                  24958523.107   100497866.478          50.000  
  23102429.113                   121403956.591 0                        48.000  
                  23102429.149    93023814.843          53.000  
  20825649.499                   109440092.616 0                        47.000  
                  20825648.606    83856693.621          51.000  
 21 12 30  3 59 34.0010000  0  9G01G03G04G17G19G21G22G31G32
  20070199.493    20070196.581   105469620.645 0  82184518.534 0        50.000  
        50.000                                                  
  20605305.219    20605302.539   108280908.282 0  84374738.429 0        49.000  
        49.000                                                  
  22389825.611    22389821.179   117658620.350 0  91682043.132 0        45.000  
        45.000                                                  
  22651220.898    22651215.233   119033162.360 0  92753114.108 0        46.000  
        43.000                                                  
  23458820.397                   123276403.168 0                        42.000  
                                                                
  21582503.814                   113416175.001 0                        48.000  
                                                                
  20589579.568                   108198971.313 0                        45.000  
                                                                
  22689872.363    22689867.181   119235457.548 0  92910749.916 0        44.000  
        41.000                                                  
  24286427.966    24286423.695   127626029.909 0  99448373.480 0        42.000  
        38.000                                                  
 21 12 30  3 59 33.0000000  0  0
 21 12 30  3 59 34.0010000  0  6E03E05E08E13E15E18
  23439569.544                   123175933.247 0                        48.000  
                  23439568.955    94381768.788          53.000  
  26105435.607                   137184781.977 0                        42.000  
                  26105435.589   105115956.684          47.000  
  23327482.274                   122586106.488 0                        46.000  
                  23327480.701    93929616.196          51.000  
  24958122.377                   131156118.654 0                        46.000  
                  24958121.555   100496249.232          50.000  
  23102534.844                   121404513.197 0                        48.000  
                  23102535.148    93024241.331          53.000  
  20826571.505                   109444937.931 0                        47.000  
                  20826570.737    83860406.262          51.000  
 21 12 30  3 59 35.0010000  0  9G01G03G04G17G19G21G22G31G32
  20070360.940    20070358.027   105470469.111 0  82185179.672 0        50.000  
        50.000                                                  
  20605097.438    20605094.740   108279816.194 0  84373887.450 0        49.000  
        49.000                                                  
  22389233.235    22389228.893   117655507.695 0  91679617.687 0        45.000  
        45.000                                                  
  22651062.042    22651056.378   119032327.607 0  92752463.646 0        46.000  
        43.000                                                  
  23458382.480                   123274101.877 0                        42.000  
                                                                
  21582846.256                   113417974.528 0                        48.000  
                                                                
  20589639.733                   108199287.614 0                        45.000  
                                                                
  22689695.656    22689690.385   119234528.507 0  92910025.993 0        44.000  
        41.000                                                  
  24287058.617    24287054.364   127629344.101 0  99450955.956 0        42.000  
        38.000                                                  
 21 12 30  3 59 34.0000000  0  0
 21 12 30  3 59 35.0010000  0  6E03E05E08E13E15E18
  23439608.231                   123176135.378 0                        48.000  
                  23439607.427    94381923.669          53.000  
  26105900.899                   137187226.654 0                        43.000  
                  26105900.720   105117829.867          47.000  
  23327049.772                   122583833.106 0                        46.000  
                  23327048.003    93927874.243          51.000  
  24957720.788                   131154007.952 0                        46.000  
                  24957719.877   100494631.938          50.000  
  23102640.682                   121405069.924 0                        48.000  
                  23102641.093    93024667.911          53.000  
  20827493.690                   109449783.861 0                        47.000  
                  20827492.814    83864119.380          51.000  
 21 12 30  3 59 36.0010000  0  9G01G03G04G17G19G21G22G31G32
  20070522.333    20070519.617   105471318.185 0  82185841.291 0        50.000  
        50.000                                                  
  20604889.729    20604887.013   108278724.477 0  84373036.766 0        49.000  
        49.000                                                  
  22388641.037    22388636.749   117652395.408 0  91677192.535 0        45.000  
        45.000                                                  
  22650903.258    22650897.629   119031493.484 0  92751813.687 0        46.000  
        43.000                                                  
  23457944.564                   123271801.193 0                        42.000  
                                                                
  21583188.716                   113419774.469 0                        48.000  
                                                                
  20589699.898                   108199604.273 0                        45.000  
                                                                
  22689518.985    22689513.642   119233600.139 0  92909302.594 0        44.000  
        41.000                                                  
  24287689.340    24287685.034   127632658.452 0  99453538.577 0        42.000  
        38.000                                                  
 21 12 30  3 59 35.0000000  0  0
 21 12 30  3 59 36.0010000  0  6E03E05E08E13E15E18
  23439646.631                   123176337.916 0                        48.000  
                  23439645.827    94382078.864          53.000  
  26106365.851                   137189671.490 0                        43.000  
                  26106365.976   105119703.190          47.000  
  23326617.181                   122581560.015 0                        46.000  
                  23326615.501    93926132.533          51.000  
  24957319.111                   131151897.523 0                        46.000  
                  24957318.253   100493014.857          50.000  
  23102746.842                   121405627.093 0                        48.000  
                  23102747.181    93025094.838          53.000  
  20828416.124                   109454630.751 0                        47.000  
                  20828415.070    83867833.228          51.000  
 21 12 30  3 59 37.0010000  0  9G01G03G04G17G19G21G22G31G32
  20070684.137    20070681.188   105472167.966 0  82186503.455 0        50.000  
        50.000                                                  
  20604682.055    20604679.375   108277633.235 0  84372186.443 0        50.000  
        49.000                                                  
  22388048.804    22388044.587   117649283.578 0  91674767.732 0        45.000  
        45.000                                                  
  22650744.653    22650738.952   119030660.095 0  92751164.280 0        46.000  
        43.000                                                  
  23457506.738                   123269501.190 0                        42.000  
                                                                
  21583531.283                   113421574.932 0                        48.000  
                                                                
  20589760.349                   108199921.379 0                        45.000  
                                                                
  22689342.403    22689337.203   119232672.533 0  92908579.782 0        44.000  
        41.000                                                  
  24288320.099    24288315.792   127635973.082 0  99456121.419 0        42.000  
        38.000                                                  
 21 12 30  3 59 36.0000000  0  0
 21 12 30  3 59 37.0010000  0  6E03E05E08E13E15E18
  23439685.228                   123176540.957 0                        48.000  
                  23439684.478    94382234.435          53.000  
  26106831.303                   137192116.605 0                        43.000  
                  26106831.267   105121576.710          47.000  
  23326184.661                   122579287.311 0                        46.000  
                  23326182.910    93924391.106          50.000  
  24956917.754                   131149787.464 0                        46.000  
                  24956916.718   100491398.051          50.000  
  23102853.055                   121406184.803 0                        48.000  
                  23102853.234    93025522.167          53.000  
  20829338.809                   109459478.689 0                        47.000  
                  20829337.594    83871547.884          51.000  
 21 12 30  3 59 38.0010000  0  9G01G03G04G17G19G21G22G31G32
  20070845.923    20070843.010   105473018.343 0  82187166.093 0        50.000  
        50.000                                                  
  20604474.506    20604471.754   108276542.354 0  84371336.410 0        50.000  
        49.000                                                  
  22387456.768    22387452.479   117646172.115 0  91672343.213 0        45.000  
        45.000                                                  
  22650586.136    22650580.579   119029827.322 0  92750515.377 0        46.000  
        43.000                                                  
  23457069.232                   123267201.797 0                        42.000  
                                                                
  21583874.100                   113423375.800 0                        48.000  
                                                                
  20589820.764                   108200238.842 0                        45.000  
                                                                
  22689165.982    22689160.854   119231745.623 0  92907857.514 0        44.000  
        41.000                                                  
  24288950.929    24288946.640   127639287.891 0  99458704.389 0        41.000  
        38.000                                                  
 21 12 30  3 59 37.0000000  0  0
 21 12 30  3 59 38.0010000  0  6E03E05E08E13E15E18
  23439723.950                   123176744.379 0                        48.000  
                  23439723.254    94382390.311          53.000  
  26107296.702                   137194561.880 0                        42.000  
                  26107296.541   105123450.368          47.000  
  23325752.266                   122577014.895 0                        46.000  
                  23325750.497    93922649.908          50.000  
  24956516.166                   131147677.669 0                        46.000  
                  24956515.219   100489781.460          50.000  
  23102959.287                   121406742.952 0                        48.000  
                  23102959.501    93025949.847          53.000  
  20830261.512                   109464327.577 0                        47.000  
                  20830260.458    83875263.264          51.000  
 21 12 30  3 59 39.0010000  0  9G01G03G04G17G19G21G22G31G32
  20071007.763    20071004.796   105473868.910 0  82187828.866 0        50.000  
        50.000                                                  
  20604266.940    20604264.206   108275451.431 0  84370486.343 0        50.000  
        49.000                                                  
  22386864.696    22386860.461   117643060.581 0  91669918.653 0        45.000  
        45.000                                                  
  22650427.656    22650422.117   119028994.769 0  92749866.637 0        46.000  
        43.000                                                  
  23456631.656                   123264902.589 0                        42.000  
                                                                
  21584216.792                   113425176.677 0                        48.000  
                                                                
  20589881.090                   108200556.244 0                        45.000  
                                                                
  22688989.526    22688984.540   119230818.959 0  92907135.434 0        44.000  
        41.000                                                  
  24289581.705    24289577.363   127642602.450 0  99461287.137 0        41.000  
        38.000                                                  
 21 12 30  3 59 38.0000000  0  0
 21 12 30  3 59 39.0010000  0  6E03E05E08E13E15E18
  23439762.637                   123176947.800 0                        48.000  
                  23439761.904    94382546.175          53.000  
  26107761.922                   137197006.892 0                        42.000  
                  26107761.940   105125323.823          47.000  
  23325319.747                   122574742.338 0                        46.000  
                  23325318.049    93920908.596          50.000  
  24956114.649                   131145567.724 0                        45.000  
                  24956113.756   100488164.755          50.000  
  23103065.625                   121407301.134 0                        48.000  
                  23103065.679    93026377.540          53.000  
  20831184.358                   109469176.997 0                        47.000  
                  20831183.196    83878979.051          51.000  
 21 12 30  3 59 40.0010000  0  9G01G03G04G17G19G21G22G31G32
  20071169.996    20071166.815   105474720.326 0  82188492.307 0        50.000  
        50.000                                                  
  20604059.427    20604056.746   108274361.134 0  84369636.756 0        50.000  
        49.000                                                  
  22386272.659    22386268.389   117639949.661 0  91667494.571 0        45.000  
        45.000                                                  
  22650269.515    22650263.851   119028163.105 0  92749218.582 0        46.000  
        43.000                                                  
  23456194.347                   123262604.215 0                        42.000  
                                                                
  21584559.645                   113426978.211 0                        48.000  
                                                                
  20589941.701                   108200874.250 0                        45.000  
                                                                
  22688813.355    22688808.495   119229893.214 0  92906414.090 0        44.000  
        41.000                                                  
  24290212.607    24290208.193   127645917.414 0  99463870.242 0        41.000  
        38.000                                                  
 21 12 30  3 59 39.0000000  0  0
 21 12 30  3 59 40.0010000  0  6E03E05E08E13E15E18
  23439801.556                   123177151.850 0                        48.000  
                  23439800.680    94382702.529          53.000  
  26108227.356                   137199452.335 0                        43.000  
                  26108227.267   105127197.601          47.000  
  23324887.566                   122572470.315 0                        46.000  
                  23324885.726    93919167.695          50.000  
  24955713.168                   131143458.305 0                        45.000  
                  24955712.257   100486548.447          50.000  
  23103171.982                   121407860.006 0                        48.000  
                  23103171.964    93026805.767          53.000  
  20832107.364                   109474027.614 0                        47.000  
                  20832106.185    83882695.761          51.000  
 21 12 30  3 59 41.0010000  0  9G01G03G04G17G19G21G22G31G32
  20071332.211    20071328.994   105475572.489 0  82189156.326 0        50.000  
        50.000                                                  
  20603852.021    20603849.376   108273271.350 0  84368787.567 0        50.000  
        49.000                                                  
  22385680.748    22385676.531   117636839.272 0  91665070.882 0        45.000  
        46.000                                                  
  22650111.482    22650105.763   119027332.210 0  92748571.146 0        46.000  
        43.000                                                  
  23455757.110                   123260306.603 0                        42.000  
                                                                
  21584902.570                   113428780.314 0                        48.000  
                                                                
  20590002.384                   108201192.758 0                        45.000  
                                                                
  22688637.327    22688632.503   119228968.311 0  92905693.375 0        44.000  
        41.000                                                  
  24290843.491    24290839.113   127649232.698 0  99466453.576 0        41.000  
        38.000                                                  
 21 12 30  3 59 40.0000000  0  0
 21 12 30  3 59 41.0010000  0  6E03E05E08E13E15E18
  23439840.403                   123177356.466 0                        48.000  
                  23439839.724    94382859.311          53.000  
  26108692.648                   137201898.078 0                        42.000  
                  26108692.648   105129071.614          47.000  
  23324455.404                   122570198.732 0                        46.000  
                  23324453.349    93917427.127          50.000  
  24955311.687                   131141349.293 0                        45.000  
                  24955310.954   100484932.449          50.000  
  23103278.267                   121408419.465 0                        48.000  
                  23103278.392    93027234.438          53.000  
  20833030.478                   109478879.337 0                        47.000  
                  20833029.459    83886413.311          51.000  
 21 12 30  3 59 42.0010000  0  9G01G03G04G17G19G21G22G31G32
  20071494.515    20071491.298   105476425.275 0  82189820.837 0        50.000  
        50.000                                                  
  20603644.722    20603642.024   108272181.960 0  84367938.689 0        50.000  
        49.000                                                  
  22385088.962    22385084.727   117633729.270 0  91662647.494 0        45.000  
        45.000                                                  
  22649953.466    22649947.855   119026501.987 0  92747924.203 0        46.000  
        43.000                                                  
  23455320.052                   123258009.617 0                        42.000  
                                                                
  21585245.530                   113430582.855 0                        48.000  
                                                                
  20590063.121                   108201511.636 0                        45.000  
                                                                
  22688461.317    22688456.654   119228044.098 0  92904973.225 0        44.000  
        41.000                                                  
  24291474.392    24291469.978   127652548.205 0  99469037.074 0        42.000  
        38.000                                                  
 21 12 30  3 59 41.0000000  0  0
 21 12 30  3 59 42.0010000  0  6E03E05E08E13E15E18
  23439879.429                   123177561.499 0                        48.000  
                  23439878.786    94383016.407          53.000  
  26109158.189                   137204344.029 0                        42.000  
                  26109158.100   105130945.787          47.000  
  23324023.153                   122567927.457 0                        46.000  
                  23324021.258    93915686.802          50.000  
  24954910.491                   131139240.601 0                        45.000  
                  24954909.741   100483316.691          50.000  
  23103384.802                   121408979.398 0                        48.000  
                  23103385.070    93027663.478          53.000  
  20833954.164                   109483732.028 0                        47.000  
                  20833952.913    83890131.600          51.000  
 21 12 30  3 59 43.0010000  0  9G01G03G04G17G19G21G22G31G32
  20071656.855    20071653.621   105477278.243 0  82190485.494 0        50.000  
        50.000                                                  
  20603437.406    20603434.654   108271092.514 0  84367089.779 0        49.000  
        49.000                                                  
  22384497.193    22384492.887   117630619.195 0  91660224.066 0        45.000  
        46.000                                                  
  22649795.504    22649789.821   119025671.949 0  92747277.427 0        46.000  
        43.000                                                  
  23454882.993                   123255712.792 0                        42.000  
                                                                
  21585588.562                   113432385.387 0                        48.000  
                                                                
  20590123.733                   108201830.449 0                        45.000  
                                                                
  22688285.397    22688280.787   119227120.140 0  92904253.260 0        44.000  
        41.000                                                  
  24292105.294    24292100.826   127655863.442 0  99471620.405 0        42.000  
        38.000                                                  
 21 12 30  3 59 42.0000000  0  0
 21 12 30  3 59 43.0010000  0  6E03E05E08E13E15E18
  23439918.491                   123177766.500 0                        48.000  
                  23439917.686    94383173.492          53.000  
  26109623.713                   137206789.701 0                        42.000  
                  26109623.499   105132819.756          47.000  
  23323590.937                   122565656.038 0                        46.000  
                  23323589.060    93913946.373          50.000  
  24954509.189                   131137131.734 0                        45.000  
                  24954508.403   100481700.815          50.000  
  23103491.426                   121409539.335 0                        48.000  
                  23103491.498    93028092.528          53.000  
  20834877.849                   109488585.236 0                        47.000  
                  20834876.402    83893850.303          51.000  
 21 12 30  3 59 44.0010000  0  9G01G03G04G17G19G21G22G31G32
  20071819.284    20071816.050   105478132.009 0  82191150.762 0        50.000  
        50.000                                                  
  20603230.197    20603227.409   108270003.634 0  84366241.301 0        49.000  
        49.000                                                  
  22383905.425    22383901.261   117627509.677 0  91657801.068 0        45.000  
        46.000                                                  
  22649637.649    22649632.127   119024842.750 0  92746631.298 0        46.000  
        43.000                                                  
  23454446.131                   123253416.765 0                        42.000  
                                                                
  21585931.629                   113434188.529 0                        48.000  
                                                                
  20590184.434                   108202149.799 0                        45.000  
                                                                
  22688109.727    22688105.170   119226197.039 0  92903533.956 0        44.000  
        41.000                                                  
  24292736.249    24292731.728   127659179.055 0  99474203.956 0        42.000  
        38.000                                                  
 21 12 30  3 59 43.0000000  0  0
 21 12 30  3 59 44.0010000  0  6E03E05E08E13E15E18
  23439957.606                   123177972.102 0                        48.000  
                  23439956.855    94383331.032          53.000  
  26110088.969                   137209235.769 0                        42.000  
                  26110089.094   105134693.996          47.000  
  23323158.810                   122563385.098 0                        46.000  
                  23323156.862    93912206.300          50.000  
  24954108.208                   131135023.347 0                        45.000  
                  24954107.279   100480085.293          50.000  
  23103597.890                   121410099.917 0                        48.000  
                  23103598.247    93028522.067          53.000  
  20835801.695                   109493439.600 0                        47.000  
                  20835800.141    83897569.872          51.000  
 21 12 30  3 59 45.0010000  0  9G01G03G04G17G19G21G22G31G32
  20071981.803    20071978.605   105478986.274 0  82191816.425 0        50.000  
        50.000                                                  
  20603023.005    20603020.307   108268915.021 0  84365393.027 0        49.000  
        49.000                                                  
  22383313.817    22383309.761   117624400.435 0  91655378.268 0        45.000  
        46.000                                                  
  22649479.955    22649474.576   119024014.071 0  92745985.585 0        46.000  
        43.000                                                  
  23454009.305                   123251121.234 0                        42.000  
                                                                
  21586274.732                   113435991.985 0                        48.000  
                                                                
  20590245.207                   108202469.416 0                        45.000  
                                                                
  22687934.253    22687929.643   119225274.533 0  92902815.125 0        44.000  
        41.000                                                  
  24293367.240    24293362.683   127662494.718 0  99476787.635 0        42.000  
        38.000                                                  
 21 12 30  3 59 44.0000000  0  0
 21 12 30  3 59 45.0010000  0  6E03E05E08E13E15E18
  23439996.810                   123178177.992 0                        48.000  
                  23439996.006    94383488.789          53.000  
  26110554.475                   137211681.884 0                        42.000  
                  26110554.332   105136568.297          47.000  
  23322726.701                   122561114.351 0                        46.000  
                  23322724.754    93910466.373          50.000  
  24953706.745                   131132915.104 0                        45.000  
                  24953706.048   100478469.893          50.000  
  23103704.764                   121410660.837 0                        48.000  
                  23103705.015    93028951.858          53.000  
  20836725.720                   109498294.804 0                        47.000  
                  20836724.077    83901290.093          51.000  
 21 12 30  3 59 46.0010000  0  9G01G03G04G17G19G21G22G31G32
  20072144.447    20072141.231   105479840.856 0  82192482.328 0        50.000  
        50.000                                                  
  20602815.868    20602813.169   108267826.478 0  84364544.816 0        49.000  
        49.000                                                  
  22382722.156    22382718.153   117621291.252 0  91652955.535 0        45.000  
        46.000                                                  
  22649322.243    22649316.846   119023185.749 0  92745340.135 0        46.000  
        43.000                                                  
  23453572.497                   123248826.020 0                        42.000  
                                                                
  21586617.907                   113437795.577 0                        48.000  
                                                                
  20590306.015                   108202789.089 0                        45.000  
                                                                
  22687758.815    22687754.115   119224352.401 0  92902096.575 0        44.000  
        41.000                                                  
  24293998.195    24293993.478   127665810.281 0  99479371.172 0        42.000  
        38.000                                                  
 21 12 30  3 59 45.0000000  0  0
 21 12 30  3 59 46.0010000  0  6E03E05E08E13E15E18
  23440036.015                   123178384.005 0                        48.000  
                  23440035.247    94383646.641          53.000  
  26111019.784                   137214127.882 0                        42.000  
                  26111019.963   105138442.507          47.000  
  23322294.682                   122558843.593 0                        46.000  
                  23322292.538    93908726.439          50.000  
  24953305.514                   131130806.867 0                        45.000  
                  24953304.835   100476854.480          50.000  
  23103811.550                   121411221.918 0                        48.000  
                  23103811.728    93029381.777          53.000  
  20837649.710                   109503150.661 0                        47.000  
                  20837648.102    83905010.815          51.000  
 21 12 30  3 59 47.0010000  0  9G01G03G04G17G19G21G22G31G32
  20072307.252    20072304.053   105480696.459 0  82193149.034 0        50.000  
        50.000                                                  
  20602608.927    20602606.210   108266738.734 0  84363697.226 0        49.000  
        49.000                                                  
  22382130.620    22382126.742   117618182.861 0  91650533.415 0        45.000  
        46.000                                                  
  22649164.834    22649159.456   119022358.476 0  92744695.501 0        46.000  
        43.000                                                  
  23453135.957                   123246531.804 0                        42.000  
                                                                
  21586961.385                   113439600.004 0                        48.000  
                                                                
  20590367.002                   108203109.534 0                        45.000  
                                                                
  22687583.573    22687578.856   119223431.374 0  92901378.892 0        44.000  
        41.000                                                  
  24294629.257    24294624.433   127669126.407 0  99481955.199 0        42.000  
        38.000                                                  
 21 12 30  3 59 46.0000000  0  0
 21 12 30  3 59 47.0010000  0  6E03E05E08E13E15E18
  23440075.166                   123178590.819 0                        48.000  
                  23440074.666    94383805.116          53.000  
  26111485.344                   137216574.457 0                        42.000  
                  26111485.558   105140317.161          47.000  
  23321862.734                   122556573.542 0                        46.000  
                  23321860.518    93906987.053          50.000  
  24952904.354                   131128699.306 0                        45.000  
                  24952903.782   100475239.606          50.000  
  23103918.514                   121411783.857 0                        48.000  
                  23103918.657    93029812.353          53.000  
  20838574.003                   109508007.887 0                        47.000  
                  20838572.484    83908732.592          51.000  
 21 12 30  3 59 48.0010000  0  9G01G03G04G17G19G21G22G31G32
  20072470.217    20072466.929   105481552.455 0  82193816.042 0        50.000  
        50.000                                                  
  20602402.075    20602399.359   108265651.154 0  84362849.756 0        49.000  
        49.000                                                  
  22381539.227    22381535.277   117615074.629 0  91648111.411 0        45.000  
        46.000                                                  
  22649007.462    22649002.155   119021531.630 0  92744051.199 0        46.000  
        43.000                                                  
  23452699.470                   123244237.983 0                        42.000  
                                                                
  21587304.828                   113441404.640 0                        48.000  
                                                                
  20590428.060                   108203430.131 0                        45.000  
                                                                
  22687408.385    22687403.579   119222510.820 0  92900661.584 0        44.000  
        41.000                                                  
  24295260.320    24295255.460   127672442.539 0  99484539.189 0        42.000  
        38.000                                                  
 21 12 30  3 59 47.0000000  0  0
 21 12 30  3 59 48.0010000  0  6E03E05E08E13E15E18
  23440114.603                   123178797.841 0                        48.000  
                  23440113.942    94383963.739          53.000  
  26111950.992                   137219020.992 0                        42.000  
                  26111951.082   105142191.772          47.000  
  23321430.983                   122554303.573 0                        46.000  
                  23321428.481    93905247.720          50.000  
  24952503.445                   131126591.808 0                        45.000  
                  24952502.658   100473624.775          50.000  
  23104025.478                   121412346.029 0                        48.000  
                  23104025.621    93030243.109          53.000  
  20839498.528                   109512865.857 0                        47.000  
                  20839496.938    83912454.928          51.000  
 21 12 30  3 59 49.0010000  0  9G01G03G04G17G19G21G22G31G32
  20072633.111    20072629.930   105482408.950 0  82194483.439 0        50.000  
        50.000                                                  
  20602195.151    20602192.453   108264563.832 0  84362002.493 0        49.000  
        49.000                                                  
  22380947.762    22380943.884   117611966.643 0  91645689.604 0        45.000  
        46.000                                                  
  22648850.232    22648844.836   119020705.307 0  92743407.307 0        46.000  
        43.000                                                  
  23452263.108                   123241944.653 0                        42.000  
                                                                
  21587648.324                   113443209.590 0                        48.000  
                                                                
  20590489.119                   108203750.969 0                        45.000  
                                                                
  22687233.394    22687228.480   119221590.832 0  92899944.702 0        44.000  
        41.000                                                  
  24295891.347    24295886.540   127675758.700 0  99487123.213 0        41.000  
        38.000                                                  
 21 12 30  3 59 48.0000000  0  0
 21 12 30  3 59 49.0010000  0  6E03E05E08E13E15E18
  23440153.986                   123179005.142 0                        48.000  
                  23440153.468    94384122.578          53.000  
  26112416.481                   137221467.594 0                        42.000  
                  26112416.659   105144066.448          47.000  
  23320998.999                   122552033.768 0                        46.000  
                  23320996.712    93903508.525          50.000  
  24952102.464                   131124484.478 0                        45.000  
                  24952101.749   100472010.063          50.000  
  23104132.495                   121412908.540 0                        48.000  
                  23104132.710    93030674.121          53.000  
  20840423.018                   109517724.661 0                        47.000  
                  20840421.553    83916177.908          51.000  
 21 12 30  3 59 50.0010000  0  9G01G03G04G17G19G21G22G31G32
  20072796.363    20072793.110   105483266.425 0  82195151.608 0        50.000  
        49.000                                                  
  20601988.460    20601985.566   108263477.262 0  84361155.819 0        49.000  
        49.000                                                  
  22380356.565    22380352.741   117608859.414 0  91643268.386 0        45.000  
        46.000                                                  
  22648693.181    22648687.821   119019879.996 0  92742764.223 0        46.000  
        43.000                                                  
  23451826.908                   123239652.300 0                        42.000  
                                                                
  21587991.963                   113445015.341 0                        48.000  
                                                                
  20590550.356                   108204072.526 0                        45.000  
                                                                
  22687058.635    22687053.578   119220671.904 0  92899228.660 0        44.000  
        41.000                                                  
  24296522.606    24296517.727   127679075.452 0  99489707.695 0        42.000  
        38.000                                                  
 21 12 30  3 59 49.0000000  0  0
 21 12 30  3 59 50.0010000  0  6E03E05E08E13E15E18
  23440193.691                   123179213.215 0                        48.000  
                  23440192.887    94384282.019          53.000  
  26112882.147                   137223914.745 0                        42.000  
                  26112882.380   105145941.522          47.000  
  23320567.462                   122549764.644 0                        46.000  
                  23320564.853    93901769.846          50.000  
  24951701.626                   131122377.802 0                        45.000  
                  24951700.804   100470395.861          50.000  
  23104239.870                   121413471.875 0                        48.000  
                  23104239.781    93031105.765          53.000  
  20841347.990                   109522584.803 0                        47.000  
                  20841346.310    83919901.913          51.000  
 21 12 30  3 59 51.0010000  0  9G01G03G04G17G19G21G22G31G32
  20072959.489    20072956.308   105484124.256 0  82195820.045 0        50.000  
        49.000                                                  
  20601781.698    20601778.785   108262390.812 0  84360309.234 0        49.000  
        49.000                                                  
  22379765.261    22379761.473   117605752.291 0  91640847.265 0        45.000  
        46.000                                                  
  22648536.202    22648530.841   119019055.073 0  92742121.417 0        46.000  
        43.000                                                  
  23451390.653                   123237360.314 0                        42.000  
                                                                
  21588335.549                   113446821.256 0                        48.000  
                                                                
  20590611.504                   108204394.212 0                        45.000  
                                                                
  22686883.804    22686878.730   119219753.404 0  92898512.939 0        44.000  
        41.000                                                  
  24297153.650    24297148.736   127682392.097 0  99492292.105 0        42.000  
        38.000                                                  
 21 12 30  3 59 50.0000000  0  0
 21 12 30  3 59 51.0010000  0  6E03E05E08E13E15E18
  23440233.253                   123179421.452 0                        48.000  
                  23440232.664    94384441.577          53.000  
  26113347.850                   137226361.814 0                        42.000  
                  26113347.993   105147816.562          47.000  
  23320135.479                   122547495.559 0                        46.000  
                  23320133.048    93900031.192          50.000  
  24951300.627                   131120271.147 0                        46.000  
                  24951299.894   100468781.673          50.000  
  23104347.067                   121414035.409 0                        48.000  
                  23104347.120    93031537.562          53.000  
  20842272.909                   109527445.629 0                        47.000  
                  20842271.390    83923626.446          51.000  
 21 12 30  3 59 52.0010000  0  9G01G03G04G17G19G21G22G31G32
  20073122.722    20073119.524   105484982.127 0  82196488.518 0        50.000  
        49.000                                                  
  20601574.936    20601572.059   108261304.180 0  84359462.510 0        49.000  
        49.000                                                  
  22379173.904    22379170.223   117602644.972 0  91638425.979 0        45.000  
        46.000                                                  
  22648379.258    22648373.862   119018230.220 0  92741478.684 0        46.000  
        43.000                                                  
  23450954.471                   123235068.366 0                        42.000  
                                                                
  21588679.241                   113448627.025 0                        48.000  
                                                                
  20590672.723                   108204715.669 0                        45.000  
                                                                
  22686709.081    22686703.935   119218835.015 0  92897797.319 0        44.000  
        41.000                                                  
  24297784.695    24297779.709   127685708.356 0  99494876.193 0        42.000  
        38.000                                                  
 21 12 30  3 59 51.0000000  0  0
 21 12 30  3 59 52.0010000  0  6E03E05E08E13E15E18
  23440272.869                   123179629.522 0                        48.000  
                  23440272.172    94384601.005          53.000  
  26113813.320                   137228808.484 0                        42.000  
                  26113813.659   105149691.283          47.000  
  23319703.691                   122545226.191 0                        46.000  
                  23319701.172    93898292.332          50.000  
  24950899.718                   131118164.213 0                        46.000  
                  24950898.967   100467167.267          50.000  
  23104454.156                   121414598.814 0                        48.000  
                  23104454.316    93031969.271          53.000  
  20843197.898                   109532306.842 0                        47.000  
                  20843196.433    83927351.276          51.000  
 21 12 30  3 59 53.0010000  0  9G01G03G04G17G19G21G22G31G32
  20073286.188    20073282.900   105485840.826 0  82197157.630 0        50.000  
        49.000                                                  
  20601368.245    20601365.421   108260218.120 0  84358616.237 0        49.000  
        49.000                                                  
  22378582.707    22378579.098   117599538.242 0  91636005.158 0        45.000  
        46.000                                                  
  22648222.440    22648217.079   119017406.215 0  92740836.600 0        46.000  
        43.000                                                  
  23450518.466                   123232777.222 0                        42.000  
                                                                
  21589022.970                   113450433.436 0                        48.000  
                                                                
  20590733.996                   108205037.722 0                        45.000  
                                                                
  22686534.483    22686529.462   119217917.519 0  92897082.396 0        44.000  
        41.000                                                  
  24298415.757    24298410.897   127689024.992 0  99497460.600 0        41.000  
        38.000                                                  
 21 12 30  3 59 52.0000000  0  0
 21 12 30  3 59 53.0010000  0  6E03E05E08E13E15E18
  23440312.788                   123179838.220 0                        48.000  
                  23440311.895    94384760.912          53.000  
  26114279.094                   137231255.550 0                        42.000  
                  26114279.237   105151566.296          47.000  
  23319271.708                   122542957.329 0                        46.000  
                  23319269.492    93896553.851          50.000  
  24950498.898                   131116057.760 0                        46.000  
                  24950498.165   100465553.227          50.000  
  23104561.602                   121415162.886 0                        48.000  
                  23104561.566    93032401.484          53.000  
  20844123.228                   109537169.238 0                        47.000  
                  20844121.745    83931077.006          51.000  
 21 12 30  3 59 54.0010000  0  9G01G03G04G17G19G21G22G31G32
  20073449.708    20073446.509   105486700.258 0  82197827.326 0        50.000  
        49.000                                                  
  20601161.697    20601158.980   108259132.585 0  84357770.366 0        49.000  
        49.000                                                  
  22377991.636    22377987.973   117596432.034 0  91633584.727 0        45.000  
        46.000                                                  
  22648065.800    22648060.564   119016582.994 0  92740195.135 0        46.000  
        43.000                                                  
  23450082.552                   123230486.838 0                        42.000  
                                                                
  21589366.931                   113452240.411 0                        48.000  
                                                                
  20590795.376                   108205360.264 0                        45.000  
                                                                
  22686360.063    22686354.989   119217000.838 0  92896368.101 0        44.000  
        41.000                                                  
  24299046.837    24299042.048   127692341.990 0  99500045.259 0        41.000  
        38.000                                                  
 21 12 30  3 59 53.0000000  0  0
 21 12 30  3 59 54.0010000  0  6E03E05E08E13E15E18
  23440352.636                   123180047.449 0                        48.000  
                  23440351.796    94384921.238          53.000  
  26114744.778                   137233702.909 0                        42.000  
                  26114744.975   105153441.559          47.000  
  23318840.028                   122540688.903 0                        46.000  
                  23318837.848    93894815.704          50.000  
  24950098.221                   131113951.721 0                        46.000  
                  24950097.399   100463939.516          50.000  
  23104668.977                   121415727.547 0                        48.000  
                  23104669.031    93032834.147          53.000  
  20845048.968                   109542032.713 0                        47.000  
                  20845047.235    83934803.558          51.000  
 21 12 30  3 59 55.0010000  0  9G01G03G04G17G19G21G22G31G32
  20073613.406    20073610.136   105487560.430 0  82198497.588 0        50.000  
        49.000                                                  
  20600955.113    20600952.468   108258047.555 0  84356924.885 0        49.000  
        49.000                                                  
  22377400.689    22377396.937   117593326.296 0  91631164.672 0        45.000  
        46.000                                                  
  22647909.285    22647904.014   119015760.536 0  92739554.249 0        46.000  
        44.000                                                  
  23449646.941                   123228197.162 0                        42.000  
                                                                
  21589710.963                   113454047.925 0                        48.000  
                                                                
  20590856.899                   108205683.274 0                        45.000  
                                                                
  22686185.733    22686180.694   119216084.977 0  92895654.443 0        44.000  
        41.000                                                  
  24299678.132    24299673.415   127695659.276 0  99502630.153 0        41.000  
        38.000                                                  
 21 12 30  3 59 54.0000000  0  0
 21 12 30  3 59 55.0010000  0  6E03E05E08E13E15E18
  23440392.323                   123180257.210 0                        48.000  
                  23440391.680    94385081.963          53.000  
  26115210.642                   137236150.583 0                        42.000  
                  26115210.624   105155317.047          47.000  
  23318408.598                   122538420.886 0                        46.000  
                  23318406.168    93893077.875          50.000  
  24949697.490                   131111846.090 0                        46.000  
                  24949696.721   100462326.103          50.000  
  23104776.548                   121416292.783 0                        48.000  
                  23104776.602    93033267.250          53.000  
  20845974.423                   109546897.254 0                        47.000  
                  20845972.886    83938530.938          51.000  
 21 12 30  3 59 56.0010000  0  9G01G03G04G17G19G21G22G31G32
  20073777.140    20073773.887   105488421.163 0  82199168.289 0        50.000  
        49.000                                                  
  20600748.690    20600746.009   108256962.860 0  84356079.664 0        50.000  
        49.000                                                  
  22376809.743    22376806.026   117590220.898 0  91628744.881 0        45.000  
        46.000                                                  
  22647752.967    22647747.499   119014938.676 0  92738913.841 0        46.000  
        44.000                                                  
  23449211.330                   123225908.060 0                        42.000  
                                                                
  21590054.924                   113455855.827 0                        48.000  
                                                                
  20590918.422                   108206006.630 0                        45.000  
                                                                
  22686011.600    22686006.507   119215169.740 0  92894941.264 0        44.000  
        41.000                                                  
  24300309.463    24300304.709   127698976.670 0  99505215.139 0        41.000  
        38.000                                                  
 21 12 30  3 59 55.0000000  0  0
 21 12 30  3 59 56.0010000  0  6E03E05E08E13E15E18
  23440432.493                   123180467.334 0                        48.000  
                  23440431.600    94385242.967          53.000  
  26115676.344                   137238598.385 0                        42.000  
                  26115676.505   105157192.629          47.000  
  23317977.133                   122536153.126 0                        46.000  
                  23317974.613    93891340.241          50.000  
  24949296.831                   131109740.682 0                        46.000  
                  24949296.044   100460712.873          50.000  
  23104884.209                   121416858.422 0                        48.000  
                  23104884.317    93033700.659          53.000  
  20846900.342                   109551762.713 0                        47.000  
                  20846898.823    83942259.020          51.000  
 21 12 30  3 59 57.0010000  0  9G01G03G04G17G19G21G22G31G32
  20073940.945    20073937.782   105489282.277 0  82199839.284 0        50.000  
        49.000                                                  
  20600542.410    20600539.676   108255878.299 0  84355234.556 0        49.000  
        49.000                                                  
  22376218.779    22376215.008   117587115.633 0  91626325.198 0        45.000  
        46.000                                                  
  22647596.595    22647591.145   119014117.212 0  92738273.740 0        46.000  
        44.000                                                  
  23448775.826                   123223619.331 0                        42.000  
                                                                
  21590398.974                   113457663.917 0                        48.000  
                                                                
  20590980.017                   108206330.097 0                        45.000  
                                                                
  22685837.466    22685832.337   119214254.952 0  92894228.447 0        43.000  
        41.000                                                  
  24300940.721    24300936.058   127702294.028 0  99507800.081 0        41.000  
        38.000                                                  
 21 12 30  3 59 56.0000000  0  0
 21 12 30  3 59 57.0010000  0  6E03E05E08E13E15E18
  23440472.466                   123180677.619 0                        48.000  
                  23440471.698    94385404.090          53.000  
  26116142.208                   137241046.117 0                        42.000  
                  26116142.315   105159068.168          47.000  
  23317545.399                   122533885.411 0                        46.000  
                  23317543.130    93889602.643          50.000  
  24948896.279                   131107635.318 0                        46.000  
                  24948895.474   100459099.674          50.000  
  23104991.906                   121417424.280 0                        48.000  
                  23104991.995    93034134.232          53.000  
  20847826.369                   109556628.889 0                        47.000  
                  20847824.778    83945987.639          51.000  
 21 12 30  3 59 58.0010000  0  9G01G03G04G17G19G21G22G31G32
  20074104.929    20074101.802   105490143.963 0  82200510.723 0        50.000  
        49.000                                                  
  20600336.094    20600333.235   108254794.082 0  84354389.705 0        49.000  
        49.000                                                  
  22375627.939    22375624.187   117584010.702 0  91623905.774 0        45.000  
        46.000                                                  
  22647440.491    22647434.988   119013296.356 0  92737634.112 0        46.000  
        44.000                                                  
  23448340.429                   123221331.163 0                        42.000  
                                                                
  21590743.042                   113459472.388 0                        48.000  
                                                                
  20591041.790                   108206653.881 0                        45.000  
                                                                
  22685663.422    22685658.383   119213340.809 0  92893516.138 0        43.000  
        41.000                                                  
  24301572.016    24301567.352   127705611.496 0  99510385.127 0        41.000  
        38.000                                                  
 21 12 30  3 59 57.0000000  0  0
 21 12 30  3 59 58.0010000  0  6E03E05E08E13E15E18
  23440512.600                   123180888.275 0                        48.000  
                  23440511.706    94385565.504          53.000  
  26116607.964                   137243493.981 0                        42.000  
                  26116608.089   105160943.798          47.000  
  23317113.880                   122531617.954 0                        46.000  
                  23317111.557    93887865.241          50.000  
  24948495.834                   131105530.207 0                        46.000  
                  24948494.797   100457486.658          50.000  
  23105099.656                   121417990.541 0                        48.000  
                  23105099.674    93034568.127          53.000  
  20848752.538                   109561495.965 0                        47.000  
                  20848750.948    83949716.963          51.000  
 21 12 30  3 59 59.0010000  0  9G01G03G04G17G19G21G22G31G32
  20074269.020    20074265.947   105491006.127 0  82201182.547 0        50.000  
        50.000                                                  
  20600129.886    20600126.955   108253710.112 0  84353545.057 0        49.000  
        49.000                                                  
  22375037.225    22375033.383   117580906.017 0  91621486.541 0        45.000  
        46.000                                                  
  22647284.316    22647278.920   119012476.010 0  92736994.884 0        46.000  
        44.000                                                  
  23447904.997                   123219043.487 0                        42.000  
                                                                
  21591087.289                   113461281.162 0                        48.000  
                                                                
  20591103.420                   108206977.903 0                        45.000  
                                                                
  22685489.627    22685484.535   119212427.236 0  92892804.260 0        43.000  
        41.000                                                  
  24302203.400    24302198.701   127708929.045 0  99512970.246 0        41.000  
        38.000                                                  
 21 12 30  3 59 58.0000000  0  0
 21 12 30  3 59 59.0010000  0  6E03E05E08E13E15E18
  23440552.680                   123181099.217 0                        48.000  
                  23440551.912    94385727.135          53.000  
  26117073.738                   137245941.901 0                        42.000  
                  26117073.970   105162819.481          47.000  
  23316682.218                   122529350.667 0                        46.000  
                  23316680.199    93886127.972          50.000  
  24948095.228                   131103425.239 0                        46.000  
                  24948094.317   100455873.765          50.000  
  23105207.567                   121418557.139 0                        48.000  
                  23105207.514    93035002.271          53.000  
  20849678.743                   109566363.874 0                        47.000  
                  20849677.349    83953446.927          51.000  
 21 12 30  4  0  0.0010000  0  9G01G03G04G17G19G21G22G31G32
  20074433.183    20074430.092   105491868.914 0  82201854.845 0        50.000  
        50.000                                                  
  20599923.695    20599920.746   108252626.543 0  84352700.713 0        49.000  
        49.000                                                  
  22374446.529    22374442.651   117577801.714 0  91619067.604 0        45.000  
        46.000                                                  
  22647128.391    22647122.959   119011656.328 0  92736356.163 0        46.000  
        44.000                                                  
  23447469.779                   123216756.416 0                        42.000  
                                                                
  21591431.589                   113463090.372 0                        48.000  
                                                                
  20591165.086                   108207302.285 0                        45.000  
                                                                
  22685315.923    22685310.848   119211514.347 0  92892092.911 0        43.000  
        41.000                                                  
  24302834.749    24302830.013   127712246.776 0  99515555.480 0        41.000  
        38.000                                                  
 21 12 30  3 59 59.0000000  0  0
 21 12 30  4  0  0.0010000  0  6E03E05E08E13E15E18
  23440593.046                   123181310.577 0                        48.000  
                  23440592.028    94385889.084          53.000  
  26117539.619                   137248390.008 0                        42.000  
                  26117539.762   105164695.297          47.000  
  23316251.092                   122527083.691 0                        46.000  
                  23316248.591    93884390.932          50.000  
  24947694.783                   131101320.561 0                        46.000  
                  24947693.747   100454261.090          50.000  
  23105315.568                   121419124.189 0                        48.000  
                  23105315.460    93035436.759          53.000  
  20850605.252                   109571232.752 0                        47.000  
                  20850603.876    83957177.616          51.000  
 21 12 30  4  0  1.0010000  0  9G01G03G04G17G19G21G22G31G32
  20074597.542    20074594.290   105492732.445 0  82202527.727 0        50.000  
        50.000                                                  
  20599717.540    20599714.681   108251543.471 0  84351856.765 0        50.000  
        49.000                                                  
  22373855.850    22373851.991   117574697.910 0  91616649.055 0        45.000  
        46.000                                                  
  22646972.520    22646967.195   119010837.408 0  92735718.049 0        46.000  
        44.000                                                  
  23447034.883                   123214470.088 0                        42.000  
                                                                
  21591776.032                   113464900.129 0                        48.000  
                                                                
  20591226.824                   108207627.173 0                        45.000  
                                                                
  22685142.272    22685137.250   119210602.282 0  92891382.214 0        43.000  
        41.000                                                  
  24303466.186    24303461.397   127715564.816 0  99518140.975 0        41.000  
        38.000                                                  
 21 12 30  4  0  0.0000000  0  0
 21 12 30  4  0  1.0010000  0  6E03E05E08E13E15E18
  23440633.305                   123181522.468 0                        48.000  
                  23440632.501    94386051.446          53.000  
  26118005.428                   137250838.421 0                        42.000  
                  26118005.768   105166571.349          47.000  
  23315819.627                   122524817.144 0                        46.000  
                  23315817.501    93882654.226          50.000  
  24947294.499                   131099216.304 0                        46.000  
                  24947293.445   100452648.732          50.000  
  23105423.496                   121419691.825 0                        48.000  
                  23105423.568    93035871.706          53.000  
  20851531.921                   109576102.704 0                        47.000  
                  20851530.635    83960909.147          51.000  
 21 12 30  4  0  2.0010000  0  9G01G03G04G17G19G21G22G31G32
  20074761.866    20074758.739   105493596.206 0  82203200.783 0        50.000  
        50.000                                                  
  20599511.403    20599508.526   108250460.401 0  84351012.810 0        50.000  
        49.000                                                  
  22373265.172    22373261.259   117571594.103 0  91614230.515 0        45.000  
        46.000                                                  
  22646816.720    22646811.305   119010018.741 0  92735080.129 0        46.000  
        44.000                                                  
  23446599.808                   123212183.982 0                        42.000  
                                                                
  21592120.458                   113466709.929 0                        48.000  
                                                                
  20591288.597                   108207952.025 0                        45.000  
                                                                
  22684968.799    22684963.760   119209690.508 0  92890671.738 0        43.000  
        41.000                                                  
  24304097.570    24304092.746   127718882.656 0  99520726.293 0        41.000  
        38.000                                                  
 21 12 30  4  0  1.0000000  0  0
 21 12 30  4  0  2.0010000  0  6E03E05E08E13E15E18
  23440673.510                   123181734.388 0                        48.000  
                  23440672.760    94386213.822          53.000  
  26118471.399                   137253286.602 0                        42.000  
                  26118471.560   105168447.244          47.000  
  23315388.287                   122522550.491 0                        46.000  
                  23315386.089    93880917.445          50.000  
  24946894.037                   131097111.928 0                        46.000  
                  24946892.875   100451036.295          50.000  
  23105531.479                   121420259.530 0                        48.000  
                  23105531.479    93036306.703          53.000  
  20852458.663                   109580973.225 0                        47.000  
                  20852457.447    83964641.103          51.000  
 21 12 30  4  0  3.0010000  0  9G01G03G04G17G19G21G22G31G32
  20074926.493    20074923.259   105494461.302 0  82203874.888 0        50.000  
        50.000                                                  
  20599305.570    20599302.621   108249378.449 0  84350169.729 0        49.000  
        49.000                                                  
  22372674.708    22372670.687   117568491.411 0  91611812.817 0        45.000  
        46.000                                                  
  22646661.152    22646655.738   119009201.456 0  92734443.281 0        46.000  
        44.000                                                  
  23446164.965                   123209899.232 0                        42.000  
                                                                
  21592465.133                   113468520.901 0                        48.000  
                                                                
  20591350.584                   108208277.984 0                        45.000  
                                                                
  22684795.487    22684790.591   119208780.166 0  92889962.396 0        43.000  
        41.000                                                  
  24304729.008    24304724.201   127722201.406 0  99523312.345 0        41.000  
        38.000                                                  
 21 12 30  4  0  2.0000000  0  0
 21 12 30  4  0  3.0010000  0  6E03E05E08E13E15E18
  23440714.145                   123181947.443 0                        48.000  
                  23440713.305    94386377.077          53.000  
  26118937.495                   137255735.716 0                        42.000  
                  26118937.655   105170323.840          47.000  
  23314957.089                   122520284.873 0                        46.000  
                  23314954.963    93879181.446          50.000  
  24946493.574                   131095008.575 0                        46.000  
                  24946492.645   100449424.635          50.000  
  23105639.730                   121420828.411 0                        48.000  
                  23105639.765    93036742.601          53.000  
  20853385.815                   109585845.437 0                        47.000  
                  20853384.617    83968374.353          51.000  
 21 12 30  4  0  4.0010000  0  9G01G03G04G17G19G21G22G31G32
  20075091.156    20075087.958   105495326.375 0  82204548.971 0        50.000  
        50.000                                                  
  20599099.701    20599096.627   108248296.222 0  84349326.442 0        49.000  
        49.000                                                  
  22372084.173    22372080.170   117565388.431 0  91609394.925 0        45.000  
        46.000                                                  
  22646505.638    22646500.206   119008384.166 0  92733806.433 0        46.000  
        43.000                                                  
  23445730.265                   123207614.441 0                        42.000  
                                                                
  21592809.773                   113470331.629 0                        48.000  
                                                                
  20591412.536                   108208603.663 0                        45.000  
                                                                
  22684622.229    22684617.387   119207869.862 0  92889253.057 0        43.000  
        41.000                                                  
  24305360.481    24305355.639   127725519.695 0  99525898.018 0        41.000  
        38.000                                                  
 21 12 30  4  0  3.0000000  0  0
 21 12 30  4  0  4.0010000  0  6E03E05E08E13E15E18
  23440754.528                   123182160.255 0                        48.000  
                  23440753.707    94386540.138          53.000  
  26119403.572                   137258184.367 0                        42.000  
                  26119403.626   105172200.069          47.000  
  23314525.803                   122518018.907 0                        46.000  
                  23314523.765    93877445.188          50.000  
  24946093.433                   131092904.851 0                        46.000  
                  24946092.307   100447812.693          50.000  
  23105747.980                   121421397.110 0                        48.000  
                  23105748.052    93037178.350          53.000  
  20854313.038                   109590717.945 0                        47.000  
                  20854311.734    83972107.835          51.000  
 21 12 30  4  0  5.0010000  0  9G01G03G04G17G19G21G22G31G32
  20075255.908    20075252.621   105496191.717 0  82205223.264 0        50.000  
        50.000                                                  
  20598893.724    20598890.615   108247214.038 0  84348483.175 0        49.000  
        49.000                                                  
  22371493.619    22371489.670   117562285.492 0  91606977.044 0        45.000  
        46.000                                                  
  22646350.159    22646344.763   119007567.183 0  92733169.812 0        46.000  
        43.000                                                  
  23445295.619                   123205329.915 0                        42.000  
                                                                
  21593154.288                   113472142.453 0                        48.000  
                                                                
  20591474.345                   108208929.352 0                        45.000  
                                                                
  22684449.114    22684444.254   119206959.901 0  92888544.004 0        44.000  
        41.000                                                  
  24305991.901    24305987.094   127728837.813 0  99528483.575 0        41.000  
        38.000                                                  
 21 12 30  4  0  4.0000000  0  0
 21 12 30  4  0  5.0010000  0  6E03E05E08E13E15E18
  23440795.288                   123182373.138 0                        48.000  
                  23440794.269    94386703.261          53.000  
  26119869.418                   137260632.835 0                        42.000  
                  26119869.543   105174076.169          47.000  
  23314094.534                   122515752.888 0                        46.000  
                  23314092.550    93875708.892          50.000  
  24945692.952                   131090801.074 0                        46.000  
                  24945692.095   100446200.704          50.000  
  23105856.088                   121421965.911 0                        48.000  
                  23105856.213    93037614.190          53.000  
  20855240.333                   109595591.066 0                        47.000  
                  20855239.136    83975841.785          51.000  
 21 12 30  4  0  6.0010000  0  9G01G03G04G17G19G21G22G31G32
  20075420.625    20075417.409   105497057.588 0  82205897.966 0        50.000  
        50.000                                                  
  20598687.891    20598684.710   108246132.145 0  84347640.139 0        49.000  
        49.000                                                  
  22370903.191    22370899.170   117559182.844 0  91604559.394 0        45.000  
        46.000                                                  
  22646194.770    22646189.463   119006750.749 0  92732533.627 0        46.000  
        44.000                                                  
  23444861.152                   123203045.925 0                        42.000  
                                                                
  21593498.856                   113473953.615 0                        48.000  
                                                                
  20591536.386                   108209255.325 0                        45.000  
                                                                
  22684276.124    22684271.210   119206050.548 0  92887835.405 0        44.000  
        41.000                                                  
  24306623.375    24306618.550   127732156.038 0  99531069.172 0        41.000  
        38.000                                                  
 21 12 30  4  0  5.0000000  0  0
 21 12 30  4  0  6.0010000  0  6E03E05E08E13E15E18
  23440835.779                   123182586.346 0                        48.000  
                  23440834.939    94386866.630          53.000  
  26120335.317                   137263081.404 0                        42.000  
                  26120335.585   105175952.344          47.000  
  23313663.283                   122513487.086 0                        46.000  
                  23313661.263    93873972.758          50.000  
  24945292.704                   131088697.497 0                        46.000  
                  24945291.775   100444588.874          50.000  
  23105964.588                   121422535.100 0                        48.000  
                  23105964.570    93038050.313          53.000  
  20856167.628                   109600465.053 0                        47.000  
                  20856166.556    83979576.396          51.000  
 21 12 30  4  0  7.0010000  0  9G01G03G04G17G19G21G22G31G32
  20075585.592    20075582.358   105497924.236 0  82206573.276 0        50.000  
        50.000                                                  
  20598482.076    20598478.949   108245050.789 0  84346797.533 0        49.000  
        49.000                                                  
  22370312.906    22370308.849   117556080.733 0  91602142.169 0        45.000  
        46.000                                                  
  22646039.560    22646034.289   119005935.116 0  92731898.076 0        46.000  
        43.000                                                  
  23444426.648                   123200762.686 0                        42.000  
                                                                
  21593843.478                   113475765.364 0                        48.000  
                                                                
  20591598.517                   108209581.824 0                        44.000  
                                                                
  22684103.277    22684098.310   119205142.031 0  92887127.481 0        44.000  
        41.000                                                  
  24307254.848    24307250.131   127735474.582 0  99533655.060 0        41.000  
        38.000                                                  
 21 12 30  4  0  6.0000000  0  0
 21 12 30  4  0  7.0010000  0  6E03E05E08E13E15E18
  23440876.395                   123182800.135 0                        48.000  
                  23440875.627    94387030.434          53.000  
  26120801.109                   137265530.304 0                        42.000  
                  26120801.520   105177828.776          47.000  
  23313232.210                   122511221.741 0                        46.000  
                  23313230.227    93872236.972          50.000  
  24944892.384                   131086594.364 0                        46.000  
                  24944891.598   100442977.380          50.000  
  23106072.785                   121423104.876 0                        48.000  
                  23106072.964    93038486.906          53.000  
  20857095.406                   109605340.157 0                        47.000  
                  20857094.334    83983311.866          51.000  
 21 12 30  4  0  8.0010000  0  9G01G03G04G17G19G21G22G31G32
  20075750.577    20075747.557   105498792.052 0  82207249.497 0        50.000  
        50.000                                                  
  20598276.493    20598273.366   108243970.381 0  84345955.659 0        49.000  
        49.000                                                  
  22369722.799    22369718.761   117552979.561 0  91599725.671 0        45.000  
        46.000                                                  
  22645884.654    22645879.293   119005120.689 0  92731263.458 0        46.000  
        43.000                                                  
  23443992.395                   123198480.636 0                        42.000  
                                                                
  21594188.476                   113477578.108 0                        48.000  
                                                                
  20591660.808                   108209909.252 0                        44.000  
                                                                
  22683930.662    22683925.677   119204234.758 0  92886420.522 0        44.000  
        41.000                                                  
  24307886.500    24307881.801   127738793.889 0  99536241.551 0        41.000  
        38.000                                                  
 21 12 30  4  0  7.0000000  0  0
 21 12 30  4  0  8.0010000  0  6E03E05E08E13E15E18
  23440917.333                   123183014.875 0                        48.000  
                  23440916.386    94387194.982          53.000  
  26121267.311                   137267979.934 0                        42.000  
                  26121267.687   105179705.773          47.000  
  23312801.281                   122508957.242 0                        46.000  
                  23312799.405    93870501.848          50.000  
  24944492.422                   131084492.066 0                        46.000  
                  24944491.439   100441366.526          50.000  
  23106181.375                   121423675.682 0                        48.000  
                  23106181.554    93038924.274          53.000  
  20858023.523                   109610216.770 0                        47.000  
                  20858022.272    83987048.490          51.000  
 21 12 30  4  0  9.0010000  0  9G01G03G04G17G19G21G22G31G32
  20075915.829    20075912.756   105499660.126 0  82207925.927 0        50.000  
        50.000                                                  
  20598070.945    20598067.800   108242889.999 0  84345113.808 0        49.000  
        49.000                                                  
  22369132.639    22369128.654   117549878.413 0  91597309.180 0        45.000  
        46.000                                                  
  22645729.711    22645724.422   119004306.550 0  92730629.075 0        46.000  
        43.000                                                  
  23443558.214                   123196198.847 0                        42.000  
                                                                
  21594533.437                   113479390.914 0                        48.000  
                                                                
  20591723.118                   108210236.681 0                        45.000  
                                                                
  22683758.137    22683753.098   119203327.835 0  92885713.810 0        44.000  
        41.000                                                  
  24308518.116    24308513.470   127742112.997 0  99538827.876 0        41.000  
        38.000                                                  
 21 12 30  4  0  8.0000000  0  0
 21 12 30  4  0  9.0010000  0  6E03E05E08E13E15E18
  23440958.343                   123183229.680 0                        48.000  
                  23440957.306    94387359.565          53.000  
  26121733.389                   137270429.383 0                        42.000  
                  26121733.782   105181582.632          47.000  
  23312370.173                   122506692.693 0                        46.000  
                  23312368.475    93868766.667          50.000  
  24944092.460                   131082389.695 0                        46.000  
                  24944091.352   100439755.619          50.000  
  23106290.144                   121424246.582 0                        48.000  
                  23106290.269    93039361.715          53.000  
  20858951.408                   109615093.973 0                        47.000  
                  20858950.443    83990785.576          51.000  
 21 12 30  4  0 10.0010000  0  9G01G03G04G17G19G21G22G31G32
  20076081.100    20076078.044   105500528.588 0  82208602.639 0        50.000  
        50.000                                                  
  20597865.291    20597862.324   108241809.767 0  84344272.066 0        49.000  
        49.000                                                  
  22368542.639    22368538.530   117546777.384 0  91594892.817 0        45.000  
        46.000                                                  
  22645574.930    22645569.533   119003492.822 0  92729994.992 0        46.000  
        43.000                                                  
  23443124.175                   123193917.413 0                        42.000  
                                                                
  21594878.488                   113481203.924 0                        48.000  
                                                                
  20591785.427                   108210564.227 0                        45.000  
                                                                
  22683585.612    22683580.590   119202421.354 0  92885007.474 0        44.000  
        41.000                                                  
  24309149.697    24309145.105   127745432.087 0  99541414.184 0        41.000  
        38.000                                                  
 21 12 30  4  0  9.0000000  0  0
 21 12 30  4  0 10.0010000  0  6E03E05E08E13E15E18
  23440999.281                   123183444.655 0                        48.000  
                  23440998.173    94387524.289          53.000  
  26122199.556                   137272878.805 0                        42.000  
                  26122199.860   105183459.444          47.000  
  23311939.351                   122504428.215 0                        46.000  
                  23311937.546    93867031.547          50.000  
  24943692.372                   131080287.377 0                        46.000  
                  24943691.390   100438144.751          50.000  
  23106398.949                   121424817.708 0                        48.000  
                  23106398.931    93039799.331          53.000  
  20859879.668                   109619971.910 0                        47.000  
                  20859878.631    83994523.205          51.000  
 21 12 30  4  0 11.0010000  0  9G01G03G04G17G19G21G22G31G32
  20076246.406    20076243.369   105501397.429 0  82209279.667 0        50.000  
        50.000                                                  
  20597659.797    20597656.831   108240729.682 0  84343430.441 0        49.000  
        49.000                                                  
  22367952.569    22367948.423   117543676.529 0  91592476.569 0        45.000  
        46.000                                                  
  22645420.220    22645414.734   119002679.510 0  92729361.242 0        46.000  
        43.000                                                  
  23442690.137                   123191636.393 0                        42.000  
                                                                
  21595223.521                   113483017.132 0                        48.000  
                                                                
  20591847.736                   108210891.926 0                        45.000  
                                                                
  22683413.176    22683408.029   119201515.334 0  92884301.491 0        44.000  
        41.000                                                  
  24309781.242    24309776.793   127748751.109 0  99544000.440 0        41.000  
        38.000                                                  
 21 12 30  4  0 10.0000000  0  0
 21 12 30  4  0 11.0010000  0  6E03E05E08E13E15E18
  23441040.165                   123183659.808 0                        48.000  
                  23441039.164    94387689.153          53.000  
  26122665.795                   137275328.172 0                        42.000  
                  26122665.956   105185336.234          47.000  
  23311508.493                   122502163.798 0                        46.000  
                  23311506.581    93865296.486          50.000  
  24943292.285                   131078185.124 0                        46.000  
                  24943291.338   100436533.936          50.000  
  23106507.431                   121425389.060 0                        48.000  
                  23106507.789    93040237.126          53.000  
  20860808.160                   109624850.562 0                        47.000  
                  20860806.999    83998261.398          51.000  
 21 12 30  4  0 12.0000000  0  9G01G03G04G17G19G21G22G31G32
  20076411.284    20076408.175   105502263.772 0  82209954.739 0        50.000  
        50.000                                                  
  20597454.124    20597451.176   108239648.831 0  84342588.215 0        49.000  
        49.000                                                  
  22367362.801    22367358.566   117540576.912 0  91590061.279 0        45.000  
        46.000                                                  
  22645265.367    22645259.881   119001865.406 0  92728726.873 0        46.000  
        43.000                                                  
  23442256.134                   123189355.992 0                        42.000  
                                                                
  21595567.875                   113484826.703 0                        48.000  
                                                                
  20591909.652                   108211217.406 0                        45.000  
                                                                
  22683240.561    22683235.397   119200608.669 0  92883594.985 0        44.000  
        41.000                                                  
  24310411.768    24310407.372   127752064.759 0  99546582.496 0        41.000  
        38.000                                                  
 21 12 30  4  0 11.0000000  0  0
 21 12 30  4  0 12.0000000  0  6E03E05E08E13E15E18
  23441080.942                   123183872.917 0                        48.000  
                  23441079.691    94387852.442          53.000  
  26123130.836                   137277773.013 0                        42.000  
                  26123131.211   105187209.554          47.000  
  23311077.564                   122499899.712 0                        46.000  
                  23311075.723    93863561.658          50.000  
  24942892.323                   131076082.999 0                        46.000  
                  24942891.322   100434923.220          50.000  
  23106615.789                   121425958.055 0                        48.000  
                  23106615.950    93040673.103          53.000  
  20861735.384                   109629723.044 0                        47.000  
                  20861734.151    84001994.857          51.000  
 21 12 30  4  0 13.0000000  0  9G01G03G04G17G19G21G22G31G32
  20076576.947    20076573.785   105503134.252 0  82210633.036 0        50.000  
        50.000                                                  
  20597248.845    20597245.879   108238569.925 0  84341747.507 0        49.000  
        49.000                                                  
  22366772.963    22366768.674   117537477.216 0  91587645.926 0        45.000  
        46.000                                                  
  22645110.871    22645105.350   119001053.790 0  92728094.457 0        46.000  
        43.000                                                  
  23441822.328                   123187076.607 0                        42.000  
                                                                
  21595913.265                   113486641.173 0                        48.000  
                                                                
  20591972.248                   108211546.237 0                        45.000  
                                                                
  22683068.393    22683063.282   119199704.434 0  92882890.386 0        44.000  
        41.000                                                  
  24311043.528    24311039.060   127755384.568 0  99549169.367 0        41.000  
        38.000                                                  
 21 12 30  4  0 12.0000000  0  0
 21 12 30  4  0 13.0000000  0  6E03E05E08E13E15E18
  23441122.005                   123184089.309 0                        48.000  
                  23441120.826    94388018.247          53.000  
  26123597.164                   137280223.137 0                        42.000  
                  26123597.343   105189086.919          47.000  
  23310646.920                   122497636.305 0                        46.000  
                  23310645.062    93861827.365          50.000  
  24942492.342                   131073981.720 0                        46.000  
                  24942491.395   100433313.151          50.000  
  23106724.737                   121426530.730 0                        48.000  
                  23106724.915    93041111.906          53.000  
  20862664.144                   109634604.009 0                        47.000  
                  20862662.947    84005734.817          51.000  
 21 12 30  4  0 14.0000000  0  9G01G03G04G17G19G21G22G31G32
  20076742.736    20076739.609   105504005.340 0  82211311.811 0        50.000  
        50.000                                                  
  20597043.584    20597040.635   108237491.401 0  84340907.096 0        49.000  
        49.000                                                  
  22366183.196    22366178.854   117534377.899 0  91585230.881 0        45.000  
        46.000                                                  
  22644956.590    22644950.908   119000242.835 0  92727462.523 0        46.000  
        43.000                                                  
  23441388.736                   123184797.823 0                        42.000  
                                                                
  21596258.709                   113488456.067 0                        48.000  
                                                                
  20592034.789                   108211875.438 0                        45.000  
                                                                
  22682896.493    22682891.293   119198800.911 0  92882186.342 0        44.000  
        41.000                                                  
  24311675.287    24311670.820   127758704.556 0  99551756.356 0        41.000  
        38.000                                                  
 21 12 30  4  0 13.0000000  0  0
 21 12 30  4  0 14.0000000  0  6E03E05E08E13E15E18
  23441163.229                   123184306.115 0                        48.000  
                  23441162.157    94388184.373          53.000  
  26124063.438                   137282673.433 0                        42.000  
                  26124063.653   105190964.430          47.000  
  23310216.116                   122495373.199 0                        46.000  
                  23310214.526    93860093.300          50.000  
  24942092.505                   131071880.725 0                        46.000  
                  24942091.594   100431703.293          50.000  
  23106833.684                   121427103.855 0                        48.000  
                  23106834.041    93041551.053          53.000  
  20863593.208                   109639485.933 0                        47.000  
                  20863592.065    84009475.508          51.000  
 21 12 30  4  0 15.0000000  0  9G01G03G04G17G19G21G22G31G32
  20076908.507    20076905.380   105504876.839 0  82211990.889 0        50.000  
        50.000                                                  
  20596838.465    20596835.338   108236413.038 0  84340066.820 0        49.000  
        49.000                                                  
  22365593.357    22365589.104   117531278.749 0  91582815.949 0        45.000  
        46.000                                                  
  22644802.291    22644796.680   118999432.287 0  92726830.935 0        46.000  
        43.000                                                  
  23440955.144                   123182519.432 0                        42.000  
                                                                
  21596604.082                   113490271.170 0                        48.000  
                                                                
  20592097.510                   108212204.774 0                        45.000  
                                                                
  22682724.646    22682719.446   119197897.829 0  92881482.660 0        44.000  
        41.000                                                  
  24312307.082    24312302.650   127762024.497 0  99554343.321 0        41.000  
        38.000                                                  
 21 12 30  4  0 14.0000000  0  0
 21 12 30  4  0 15.0000000  0  6E03E05E08E13E15E18
  23441204.739                   123184523.100 0                        48.000  
                  23441203.434    94388350.632          53.000  
  26124529.641                   137285123.695 0                        42.000  
                  26124529.998   105192841.897          47.000  
  23309785.544                   122493110.173 0                        46.000  
                  23309783.882    93858359.286          50.000  
  24941692.847                   131069779.789 0                        46.000  
                  24941691.828   100430093.485          50.000  
  23106942.774                   121427677.217 0                        48.000  
                  23106943.150    93041990.380          53.000  
  20864522.397                   109644368.568 0                        47.000  
                  20864521.129    84013216.755          51.000  
 21 12 30  4  0 16.0000000  0  9G01G03G04G17G19G21G22G31G32
  20077074.510    20077071.437   105505748.811 0  82212670.347 0        50.000  
        50.000                                                  
  20596633.329    20596630.148   108235334.936 0  84339226.736 0        49.000  
        49.000                                                  
  22365003.572    22364999.337   117528179.827 0  91580401.208 0        45.000  
        46.000                                                  
  22644648.081    22644642.435   118998622.250 0  92726199.744 0        45.000  
        43.000                                                  
  23440521.624                   123180241.522 0                        42.000  
                                                                
  21596949.543                   113492086.564 0                        48.000  
                                                                
  20592160.158                   108212534.342 0                        45.000  
                                                                
  22682552.889    22682547.761   119196995.321 0  92880779.401 0        44.000  
        41.000                                                  
  24312938.734    24312934.374   127765344.479 0  99556930.318 0        41.000  
        38.000                                                  
 21 12 30  4  0 15.0000000  0  0
 21 12 30  4  0 16.0000000  0  6E03E05E08E13E15E18
  23441245.998                   123184740.360 0                        48.000  
                  23441244.747    94388517.109          53.000  
  26124996.219                   137287573.998 0                        42.000  
                  26124996.291   105194719.397          47.000  
  23309354.793                   122490847.311 0                        46.000  
                  23309353.203    93856625.407          50.000  
  24941292.974                   131067679.003 0                        46.000  
                  24941292.062   100428483.796          50.000  
  23107052.043                   121428250.904 0                        48.000  
                  23107052.258    93042429.961          53.000  
  20865451.587                   109649252.036 0                        47.000  
                  20865450.336    84016958.624          51.000  
 21 12 30  4  0 17.0000000  0  9G01G03G04G17G19G21G22G31G32
  20077240.567    20077237.458   105506621.243 0  82213350.171 0        50.000  
        50.000                                                  
  20596428.246    20596424.976   108234257.049 0  84338386.831 0        49.000  
        49.000                                                  
  22364413.877    22364409.588   117525081.129 0  91577986.654 0        45.000  
        46.000                                                  
  22644494.033    22644488.386   118997812.712 0  92725568.930 0        45.000  
        43.000                                                  
  23440088.336                   123177964.076 0                        42.000  
                                                                
  21597294.969                   113493902.248 0                        48.000  
                                                                
  20592222.861                   108212864.136 0                        45.000  
                                                                
  22682381.293    22682376.057   119196093.351 0  92880076.564 0        43.000  
        41.000                                                  
  24313570.529    24313566.133   127768664.520 0  99559517.388 0        41.000  
        38.000                                                  
 21 12 30  4  0 16.0000000  0  0
 21 12 30  4  0 17.0000000  0  6E03E05E08E13E15E18
  23441287.436                   123184957.888 0                        48.000  
                  23441286.239    94388683.786          53.000  
  26125462.333                   137290024.329 0                        42.000  
                  26125462.708   105196596.926          47.000  
  23308924.471                   122488584.593 0                        46.000  
                  23308922.595    93854891.643          50.000  
  24940893.494                   131065578.357 0                        46.000  
                  24940892.457   100426874.209          50.000  
  23107161.241                   121428824.894 0                        48.000  
                  23107161.491    93042869.769          53.000  
  20866380.847                   109654136.296 0                        46.000  
                  20866379.739    84020701.118          51.000  
 21 12 30  4  0 18.0000000  0  9G01G03G04G17G19G21G22G31G32
  20077406.642    20077403.568   105507494.332 0  82214030.496 0        50.000  
        50.000                                                  
  20596223.199    20596219.982   108233179.607 0  84337547.257 0        49.000  
        49.000                                                  
  22363824.252    22363820.071   117521982.856 0  91575572.415 0        45.000  
        46.000                                                  
  22644340.037    22644334.569   118997003.870 0  92724938.673 0        45.000  
        43.000                                                  
  23439655.119                   123175687.273 0                        42.000  
                                                                
  21597640.628                   113495718.384 0                        48.000  
                                                                
  20592285.760                   108213194.338 0                        45.000  
                                                                
  22682209.715    22682204.604   119195192.100 0  92879374.309 0        43.000  
        41.000                                                  
  24314202.306    24314197.910   127771984.760 0  99562104.581 0        41.000  
        38.000                                                  
 21 12 30  4  0 17.0000000  0  0
 21 12 30  4  0 18.0000000  0  6E03E05E08E13E15E18
  23441328.839                   123185175.862 0                        48.000  
                  23441327.624    94388850.802          53.000  
  26125928.643                   137292474.884 0                        42.000  
                  26125928.857   105198474.624          47.000  
  23308494.024                   122486322.219 0                        46.000  
                  23308492.005    93853158.133          50.000  
  24940493.746                   131063478.041 0                        46.000  
                  24940492.691   100425264.875          50.000  
  23107270.492                   121429399.374 0                        48.000  
                  23107270.814    93043309.955          53.000  
  20867310.608                   109659021.551 0                        47.000  
                  20867309.340    84024444.361          51.000  
 21 12 30  4  0 19.0000000  0  9G01G03G04G17G19G21G22G31G32
  20077572.931    20077569.786   105508368.049 0  82214711.322 0        50.000  
        50.000                                                  
  20596018.205    20596015.043   108232102.533 0  84336707.985 0        49.000  
        49.000                                                  
  22363234.843    22363230.572   117518884.991 0  91573158.476 0        45.000  
        46.000                                                  
  22644186.292    22644180.699   118996195.667 0  92724308.906 0        45.000  
        43.000                                                  
  23439221.795                   123173411.115 0                        42.000  
                                                                
  21597986.286                   113497534.978 0                        48.000  
                                                                
  20592348.694                   108213524.898 0                        45.000  
                                                                
  22682038.351    22682033.240   119194291.553 0  92878672.586 0        43.000  
        41.000                                                  
  24314834.155    24314829.813   127775305.197 0  99564691.921 0        41.000  
        38.000                                                  
 21 12 30  4  0 18.0000000  0  0
 21 12 30  4  0 19.0000000  0  6E03E05E08E13E15E18
  23441370.367                   123185394.252 0                        48.000  
                  23441369.205    94389018.145          53.000  
  26126394.970                   137294925.612 0                        42.000  
                  26126395.292   105200352.459          47.000  
  23308063.631                   122484060.152 0                        46.000  
                  23308061.594    93851424.859          50.000  
  24940094.177                   131061378.017 0                        46.000  
                  24940093.033   100423655.762          50.000  
  23107379.886                   121429974.323 0                        48.000  
                  23107380.226    93043750.506          53.000  
  20868240.530                   109663907.763 0                        46.000  
                  20868239.190    84028188.346          51.000  
 21 12 30  4  0 20.0000000  0  9G01G03G04G17G19G21G22G31G32
  20077739.381    20077736.236   105509242.876 0  82215392.996 0        50.000  
        50.000                                                  
  20595813.462    20595810.371   108231026.347 0  84335869.403 0        49.000  
        49.000                                                  
  22362645.433    22362641.287   117515787.986 0  91570745.235 0        45.000  
        46.000                                                  
  22644032.690    22644027.061   118995388.629 0  92723680.037 0        45.000  
        43.000                                                  
  23438788.936                   123171136.052 0                        42.000  
                                                                
  21598332.088                   113499352.499 0                        48.000  
                                                                
  20592411.754                   108213856.338 0                        45.000  
                                                                
  22681867.255    22681862.073   119193392.206 0  92877971.778 0        43.000  
        41.000                                                  
  24315466.093    24315461.769   127778626.312 0  99567279.803 0        41.000  
        38.000                                                  
 21 12 30  4  0 19.0000000  0  0
 21 12 30  4  0 20.0000000  0  6E03E05E08E13E15E18
  23441412.037                   123185613.555 0                        48.000  
                  23441410.893    94389186.176          53.000  
  26126861.638                   137297377.030 0                        42.000  
                  26126861.817   105202230.811          47.000  
  23307633.113                   122481798.887 0                        46.000  
                  23307631.344    93849692.199          50.000  
  24939694.840                   131059278.769 0                        46.000  
                  24939693.553   100422047.251          50.000  
  23107489.477                   121430550.232 0                        48.000  
                  23107489.763    93044191.782          53.000  
  20869170.577                   109668795.430 0                        47.000  
                  20869169.237    84031933.432          51.000  
 21 12 30  4  0 21.0000000  0  9G01G03G04G17G19G21G22G31G32
  20077905.920    20077902.740   105510117.761 0  82216074.724 0        50.000  
        50.000                                                  
  20595608.755    20595605.538   108229949.991 0  84335030.680 0        49.000  
        49.000                                                  
  22362056.041    22362051.842   117512690.799 0  91568331.844 0        45.000  
        46.000                                                  
  22643879.052    22643873.441   118994581.662 0  92723051.240 0        45.000  
        43.000                                                  
  23438356.041                   123168861.056 0                        42.000  
                                                                
  21598677.907                   113501169.885 0                        48.000  
                                                                
  20592474.707                   108214187.587 0                        45.000  
                                                                
  22681696.230    22681690.906   119192492.977 0  92877271.098 0        43.000  
        41.000                                                  
  24316098.084    24316093.689   127781947.045 0  99569867.410 0        41.000  
        38.000                                                  
 21 12 30  4  0 20.0000000  0  0
 21 12 30  4  0 21.0000000  0  6E03E05E08E13E15E18
  23441453.904                   123185832.709 0                        48.000  
                  23441452.671    94389354.101          53.000  
  26127327.966                   137299828.063 0                        42.000  
                  26127328.234   105204108.871          47.000  
  23307202.934                   122479537.357 0                        46.000  
                  23307200.968    93847959.336          50.000  
  24939295.056                   131057179.253 0                        46.000  
                  24939294.037   100420438.527          50.000  
  23107599.014                   121431126.033 0                        48.000  
                  23107599.479    93044632.977          53.000  
  20870100.695                   109673683.479 0                        47.000  
                  20870099.480    84035678.825          50.000  
 21 12 30  4  0 22.0000000  0  9G01G03G04G17G19G21G22G31G32
  20078072.406    20078069.404   105510992.963 0  82216756.705 0        50.000  
        50.000                                                  
  20595403.904    20595400.724   108228873.715 0  84334192.023 0        49.000  
        49.000                                                  
  22361466.614    22361462.450   117509593.688 0  91565918.511 0        45.000  
        46.000                                                  
  22643725.557    22643719.982   118993775.052 0  92722422.704 0        45.000  
        43.000                                                  
  23437923.057                   123166586.375 0                        42.000  
                                                                
  21599023.708                   113502987.397 0                        48.000  
                                                                
  20592537.767                   108214518.913 0                        45.000  
                                                                
  22681525.188    22681519.810   119191594.140 0  92876570.711 0        43.000  
        41.000                                                  
  24316730.022    24316725.591   127785267.679 0  99572454.921 0        41.000  
        38.000                                                  
 21 12 30  4  0 21.0000000  0  0
 21 12 30  4  0 22.0000000  0  6E03E05E08E13E15E18
  23441495.700                   123186051.968 0                        48.000  
                  23441494.449    94389522.109          53.000  
  26127794.204                   137302278.970 0                        42.000  
                  26127794.580   105205986.844          47.000  
  23306772.505                   122477275.822 0                        46.000  
                  23306770.629    93846226.472          50.000  
  24938895.522                   131055079.726 0                        46.000  
                  24938894.504   100418829.796          50.000  
  23107708.766                   121431701.986 0                        48.000  
                  23107708.998    93045074.303          53.000  
  20871031.243                   109678572.170 0                        47.000  
                  20871029.777    84039424.707          51.000  
 21 12 30  4  0 23.0000000  0  9G01G03G04G17G19G21G22G31G32
  20078239.053    20078236.033   105511868.890 0  82217439.250 0        50.000  
        50.000                                                  
  20595199.215    20595195.873   108227797.940 0  84333353.755 0        49.000  
        49.000                                                  
  22360877.329    22360873.201   117506497.082 0  91563505.578 0        45.000  
        46.000                                                  
  22643572.241    22643566.684   118992969.194 0  92721794.767 0        45.000  
        43.000                                                  
  23437490.269                   123164312.415 0                        42.000  
                                                                
  21599369.652                   113504805.464 0                        48.000  
                                                                
  20592601.023                   108214850.699 0                        45.000  
                                                                
  22681354.325    22681348.928   119190696.111 0  92875870.939 0        43.000  
        41.000                                                  
  24317361.943    24317357.618   127788588.618 0  99575042.657 0        41.000  
        38.000                                                  
 21 12 30  4  0 22.0000000  0  0
 21 12 30  4  0 23.0000000  0  6E03E05E08E13E15E18
  23441537.531                   123186271.767 0                        48.000  
                  23441536.227    94389690.522          53.000  
  26128260.693                   137304730.174 0                        42.000  
                  26128260.997   105207865.045          47.000  
  23306342.112                   122475014.700 0                        46.000  
                  23306340.378    93844493.940          50.000  
  24938496.257                   131052980.588 0                        46.000  
                  24938495.060   100417221.375          51.000  
  23107818.357                   121432278.523 0                        48.000  
                  23107818.696    93045516.059          53.000  
  20871961.718                   109683461.947 0                        47.000  
                  20871960.271    84043171.415          51.000  
 21 12 30  4  0 24.0000000  0  9G01G03G04G17G19G21G22G31G32
  20078405.949    20078403.037   105512745.915 0  82218122.648 0        50.000  
        50.000                                                  
  20594994.632    20594991.344   108226723.017 0  84332516.156 0        49.000  
        49.000                                                  
  22360288.151    22360284.131   117503401.327 0  91561093.297 0        45.000  
        46.000                                                  
  22643419.068    22643413.725   118992164.460 0  92721167.704 0        45.000  
        43.000                                                  
  23437057.874                   123162039.529 0                        42.000  
                                                                
  21599715.793                   113506624.411 0                        48.000  
                                                                
  20592664.422                   108215183.336 0                        45.000  
                                                                
  22681183.658    22681178.225   119189799.241 0  92875172.095 0        43.000  
        41.000                                                  
  24317994.041    24317989.646   127791910.184 0  99577630.897 0        41.000  
        38.000                                                  
 21 12 30  4  0 23.0000000  0  0
 21 12 30  4  0 24.0000000  0  6E03E05E08E13E15E18
  23441579.523                   123186492.440 0                        48.000  
                  23441578.255    94389859.612          53.000  
  26128727.182                   137307182.026 0                        42.000  
                  26128727.664   105209743.732          47.000  
  23305911.933                   122472754.359 0                        46.000  
                  23305910.325    93842761.988          50.000  
  24938096.866                   131050882.217 0                        46.000  
                  24938095.776   100415613.530          51.000  
  23107928.197                   121432855.978 0                        48.000  
                  23107928.626    93045958.529          53.000  
  20872892.605                   109688353.124 0                        47.000  
                  20872890.943    84046919.209          51.000  
 21 12 30  4  0 25.0000000  0  9G01G03G04G17G19G21G22G31G32
  20078572.864    20078569.915   105513622.869 0  82218805.977 0        50.000  
        50.000                                                  
  20594790.014    20594786.762   108225647.802 0  84331678.327 0        49.000  
        49.000                                                  
  22359698.974    22359694.954   117500305.261 0  91558680.787 0        45.000  
        46.000                                                  
  22643265.984    22643260.605   118991359.687 0  92720540.592 0        45.000  
        43.000                                                  
  23436625.426                   123159766.581 0                        42.000  
                                                                
  21600061.880                   113508443.112 0                        47.000  
                                                                
  20592727.643                   108215515.648 0                        45.000  
                                                                
  22681012.901    22681007.612   119188902.371 0  92874473.251 0        43.000  
        40.000                                                  
  24318625.926    24318621.637   127795231.238 0  99580218.742 0        41.000  
        38.000                                                  
 21 12 30  4  0 24.0000000  0  0
 21 12 30  4  0 25.0000000  0  6E03E05E08E13E15E18
  23441621.462                   123186712.832 0                        48.000  
                  23441620.158    94390028.483          53.000  
  26129193.796                   137309633.364 0                        42.000  
                  26129194.046   105211622.040          47.000  
  23305481.808                   122470493.628 0                        46.000  
                  23305480.021    93841029.737          50.000  
  24937697.387                   131048783.444 0                        46.000  
                  24937696.332   100414005.376          51.000  
  23108038.146                   121433433.208 0                        48.000  
                  23108038.485    93046400.819          53.000  
  20873823.688                   109693244.576 0                        47.000  
                  20873821.884    84050667.196          51.000  
 21 12 30  4  0 26.0000000  0  9G01G03G04G17G19G21G22G31G32
  20078739.885    20078736.973   105514500.407 0  82219489.780 0        50.000  
        50.000                                                  
  20594585.467    20594582.179   108224572.949 0  84330840.772 0        49.000  
        49.000                                                  
  22359109.868    22359106.026   117497209.565 0  91556268.556 0        45.000  
        46.000                                                  
  22643112.954    22643107.664   118990555.546 0  92719913.998 0        45.000  
        43.000                                                  
  23436193.085                   123157494.227 0                        42.000  
                                                                
  21600408.003                   113510262.244 0                        47.000  
                                                                
  20592790.971                   108215848.315 0                        45.000  
                                                                
  22680842.341    22680837.052   119188006.196 0  92873774.924 0        43.000  
        40.000                                                  
  24319257.953    24319253.593   127798552.479 0  99582806.702 0        41.000  
        38.000                                                  
 21 12 30  4  0 25.0000000  0  0
 21 12 30  4  0 26.0000000  0  6E03E05E08E13E15E18
  23441663.383                   123186933.632 0                        48.000  
                  23441662.257    94390197.665          53.000  
  26129660.320                   137312084.879 0                        42.000  
                  26129660.588   105213500.464          47.000  
  23305051.932                   122468233.178 0                        47.000  
                  23305049.949    93839297.700          50.000  
  24937298.157                   131046684.941 0                        46.000  
                  24937297.085   100412397.432          51.000  
  23108147.986                   121434010.877 0                        47.000  
                  23108148.451    93046843.445          53.000  
  20874754.557                   109698136.962 0                        47.000  
                  20874752.770    84054415.905          51.000  
 21 12 30  4  0 27.0000000  0  9G01G03G04G17G19G21G22G31G32
  20078907.104    20078904.066   105515378.872 0  82220174.301 0        50.000  
        50.000                                                  
  20594380.938    20594377.758   108223498.771 0  84330003.755 0        49.000  
        49.000                                                  
  22358520.887    22358516.956   117494114.538 0  91553856.849 0        45.000  
        46.000                                                  
  22642960.138    22642954.706   118989752.340 0  92719288.112 0        45.000  
        43.000                                                  
  23435760.941                   123155222.788 0                        42.000  
                                                                
  21600754.234                   113512082.092 0                        47.000  
                                                                
  20592854.334                   108216181.645 0                        45.000  
                                                                
  22680671.960    22680666.671   119187110.993 0  92873077.363 0        43.000  
        40.000                                                  
  24319889.998    24319885.674   127801874.213 0  99585395.071 0        41.000  
        38.000                                                  
 21 12 30  4  0 26.0000000  0  0
 21 12 30  4  0 27.0000000  0  6E03E05E08E13E15E18
  23441705.572                   123187155.127 0                        48.000  
                  23441704.339    94390367.382          53.000  
  26130126.773                   137314536.854 0                        42.000  
                  26130127.184   105215379.257          47.000  
  23304621.932                   122465973.321 0                        47.000  
                  23304619.842    93837566.125          50.000  
  24936899.195                   131044587.036 0                        46.000  
                  24936897.855   100410789.940          51.000  
  23108258.113                   121434589.304 0                        48.000  
                  23108258.506    93047286.653          53.000  
  20875685.855                   109703030.583 0                        47.000  
                  20875684.015    84058165.567          51.000  
 21 12 30  4  0 28.0000000  0  9G01G03G04G17G19G21G22G31G32
  20079074.519    20079071.463   105516258.720 0  82220859.891 0        50.000  
        50.000                                                  
  20594176.803    20594173.533   108222425.749 0  84329167.634 0        49.000  
        49.000                                                  
  22357932.121    22357928.315   117491020.672 0  91551446.038 0        45.000  
        46.000                                                  
  22642807.626    22642802.068   118988950.558 0  92718663.367 0        45.000  
        43.000                                                  
  23435328.778                   123152952.728 0                        42.000  
                                                                
  21601100.732                   113513903.143 0                        47.000  
                                                                
  20592918.019                   108216516.110 0                        45.000  
                                                                
  22680501.829    22680496.594   119186217.260 0  92872380.931 0        43.000  
        40.000                                                  
  24320522.294    24320517.969   127805196.868 0  99587984.146 0        41.000  
        38.000                                                  
 21 12 30  4  0 27.0000000  0  0
 21 12 30  4  0 28.0000000  0  6E03E05E08E13E15E18
  23441748.136                   123187377.807 0                        48.000  
                  23441746.652    94390538.010          53.000  
  26130593.512                   137316989.795 0                        42.000  
                  26130593.959   105217258.778          47.000  
  23304192.200                   122463714.539 0                        47.000  
                  23304189.984    93835835.367          50.000  
  24936499.948                   131042490.164 0                        46.000  
                  24936498.804   100409183.253          51.000  
  23108368.508                   121435168.946 0                        48.000  
                  23108368.740    93047730.798          53.000  
  20876617.528                   109707925.921 0                        47.000  
                  20876615.491    84061916.540          51.000  
 21 12 30  4  0 29.0000000  0  9G01G03G04G17G19G21G22G31G32
  20079241.719    20079238.824   105517138.033 0  82221545.077 0        50.000  
        50.000                                                  
  20593972.399    20593969.254   108221351.972 0  84328330.927 0        49.000  
        49.000                                                  
  22357343.265    22357339.423   117487926.032 0  91549034.635 0        45.000  
        46.000                                                  
  22642654.971    22642649.395   118988148.277 0  92718038.206 0        45.000  
        43.000                                                  
  23434896.830                   123150682.163 0                        42.000  
                                                                
  21601447.087                   113515723.484 0                        48.000  
                                                                
  20592981.508                   108216849.795 0                        45.000  
                                                                
  22680331.609    22680326.284   119185323.066 0  92871684.180 0        43.000  
        40.000                                                  
  24321154.285    24321150.068   127808518.573 0  99590572.485 0        41.000  
        38.000                                                  
 21 12 30  4  0 28.0000000  0  0
 21 12 30  4  0 29.0000000  0  6E03E05E08E13E15E18
  23441790.306                   123187599.763 0                        48.000  
                  23441788.913    94390708.077          53.000  
  26131060.001                   137319441.755 0                        42.000  
                  26131060.555   105219137.562          47.000  
  23303762.218                   122461454.931 0                        47.000  
                  23303759.984    93834103.978          50.000  
  24936100.861                   131040392.453 0                        46.000  
                  24936099.628   100407575.916          51.000  
  23108478.671                   121435747.921 0                        48.000  
                  23108478.849    93048174.424          53.000  
  20877548.933                   109712821.077 0                        47.000  
                  20877547.182    84065667.376          50.000  
 21 12 30  4  0 30.0000000  0  9G01G03G04G17G19G21G22G31G32
  20079409.009    20079406.078   105518017.531 0  82222230.398 0        50.000  
        50.000                                                  
  20593768.102    20593764.904   108220278.135 0  84327494.168 0        49.000  
        49.000                                                  
  22356754.391    22356750.460   117484831.328 0  91546623.179 0        45.000  
        46.000                                                  
  22642502.244    22642496.687   118987346.195 0  92717413.207 0        45.000  
        43.000                                                  
  23434464.704                   123148411.754 0                        42.000  
                                                                
  21601793.442                   113517543.805 0                        48.000  
                                                                
  20593044.961                   108217183.380 0                        45.000  
                                                                
  22680161.478    22680156.135   119184429.136 0  92870987.607 0        43.000  
        40.000                                                  
  24321786.384    24321782.167   127811840.037 0  99593160.634 0        41.000  
        38.000                                                  
 21 12 30  4  0 29.0000000  0  0
 21 12 30  4  0 30.0000000  0  6E03E05E08E13E15E18
  23441832.495                   123187821.675 0                        48.000  
                  23441831.173    94390878.109          53.000  
  26131526.614                   137321893.466 0                        42.000  
                  26131527.061   105221016.139          47.000  
  23303332.110                   122459195.159 0                        47.000  
                  23303329.877    93832372.469          50.000  
  24935701.470                   131038294.578 0                        46.000  
                  24935700.523   100405968.453          50.000  
  23108588.797                   121436326.891 0                        48.000  
                  23108589.083    93048618.050          53.000  
  20878480.517                   109717716.723 0                        47.000  
                  20878478.712    84069418.585          50.000  
 21 12 30  4  0 31.0000000  0  9G01G03G04G17G19G21G22G31G32
  20079576.549    20079573.654   105518898.030 0  82222916.504 0        50.000  
        50.000                                                  
  20593564.038    20593560.661   108219205.071 0  84326658.017 0        49.000  
        49.000                                                  
  22356165.821    22356161.765   117481737.413 0  91544212.327 0        45.000  
        46.000                                                  
  22642349.821    22642344.228   118986545.164 0  92716789.025 0        45.000  
        43.000                                                  
  23434032.756                   123146142.354 0                        42.000  
                                                                
  21602140.012                   113519364.959 0                        48.000  
                                                                
  20593108.503                   108217517.737 0                        45.000  
                                                                
  22679991.508    22679986.147   119183536.280 0  92870291.870 0        43.000  
        40.000                                                  
  24322418.554    24322414.409   127815162.055 0  99595749.225 0        41.000  
        38.000                                                  
 21 12 30  4  0 30.0000000  0  0
 21 12 30  4  0 31.0000000  0  6E03E05E08E13E15E18
  23441874.952                   123188044.397 0                        48.000  
                  23441873.576    94391048.766          53.000  
  26131993.282                   137324345.753 0                        42.000  
                  26131993.639   105222895.159          47.000  
  23302902.253                   122456936.089 0                        47.000  
                  23302900.055    93830641.490          50.000  
  24935302.437                   131036197.389 0                        46.000  
                  24935301.419   100404361.514          51.000  
  23108699.121                   121436906.723 0                        48.000  
                  23108699.407    93049062.340          53.000  
  20879412.476                   109722613.716 0                        47.000  
                  20879410.510    84073170.827          50.000  
 21 12 30  4  0 32.0000000  0  9G01G03G04G17G19G21G22G31G32
  20079744.107    20079741.426   105519779.177 0  82223603.112 0        50.000  
        50.000                                                  
  20593359.938    20593356.489   108218132.428 0  84325822.191 0        49.000  
        49.000                                                  
  22355577.162    22355573.088   117478643.888 0  91541801.795 0        45.000  
        46.000                                                  
  22642197.488    22642191.841   118985744.790 0  92716165.343 0        45.000  
        43.000                                                  
  23433601.058                   123143873.615 0                        42.000  
                                                                
  21602486.618                   113521186.562 0                        48.000  
                                                                
  20593172.296                   108217852.467 0                        45.000  
                                                                
  22679821.698    22679816.409   119182644.140 0  92869596.699 0        43.000  
        40.000                                                  
  24323050.760    24323046.579   127818484.279 0  99598337.971 0        41.000  
        38.000                                                  
 21 12 30  4  0 31.0000000  0  0
 21 12 30  4  0 32.0000000  0  6E03E05E08E13E15E18
  23441917.284                   123188267.541 0                        48.000  
                  23441915.979    94391219.758          53.000  
  26132460.003                   137326798.227 0                        42.000  
                  26132460.378   105224774.321          47.000  
  23302472.378                   122454677.341 0                        47.000  
                  23302470.216    93828910.759          50.000  
  24934903.315                   131034100.506 0                        46.000  
                  24934902.260   100402754.811          51.000  
  23108809.515                   121437487.028 0                        48.000  
                  23108809.873    93049506.984          53.000  
  20880344.417                   109727511.686 0                        47.000  
                  20880342.594    84076923.819          50.000  
 21 12 30  4  0 33.0000000  0  9G01G03G04G17G19G21G22G31G32
  20079912.022    20079909.234   105520661.372 0  82224290.539 0        50.000  
        50.000                                                  
  20593156.053    20593152.515   108217060.591 0  84324986.991 0        49.000  
        49.000                                                  
  22354988.628    22354984.625   117475551.202 0  91539391.905 0        45.000  
        46.000                                                  
  22642045.333    22642039.865   118984945.505 0  92715542.547 0        45.000  
        43.000                                                  
  23433169.575                   123141605.923 0                        42.000  
                                                                
  21602833.348                   113523009.030 0                        48.000  
                                                                
  20593236.159                   108218188.018 0                        45.000  
                                                                
  22679652.139    22679646.832   119181753.142 0  92868902.416 0        43.000  
        40.000                                                  
  24323683.002    24323678.928   127821807.134 0  99600927.204 0        41.000  
        38.000                                                  
 21 12 30  4  0 32.0000000  0  0
 21 12 30  4  0 33.0000000  0  6E03E05E08E13E15E18
  23441959.919                   123188491.563 0                        48.000  
                  23441958.525    94391391.404          53.000  
  26132926.581                   137329251.332 0                        42.000  
                  26132927.188   105226653.971          47.000  
  23302042.735                   122452419.333 0                        47.000  
                  23302040.573    93827180.602          50.000  
  24934504.282                   131032004.347 0                        46.000  
                  24934503.388   100401148.668          51.000  
  23108920.089                   121438068.233 0                        48.000  
                  23108920.500    93049952.326          53.000  
  20881276.661                   109732411.029 0                        47.000  
                  20881274.964    84080677.857          51.000  
 21 12 30  4  0 34.0000000  0  9G01G03G04G17G19G21G22G31G32
  20080079.901    20080077.078   105521543.837 0  82224978.167 0        50.000  
        50.000                                                  
  20592952.024    20592948.629   108215988.798 0  84324151.833 0        49.000  
        49.000                                                  
  22354400.076    22354396.127   117472458.522 0  91536982.037 0        45.000  
        46.000                                                  
  22641893.321    22641887.818   118984146.528 0  92714919.951 0        45.000  
        43.000                                                  
  23432738.181                   123139338.480 0                        42.000  
                                                                
  21603180.168                   113524831.584 0                        48.000  
                                                                
  20593300.059                   108218523.590 0                        45.000  
                                                                
  22679482.652    22679477.273   119180862.472 0  92868208.384 0        43.000  
        40.000                                                  
  24324315.387    24324311.224   127825129.802 0  99603516.313 0        41.000  
        38.000                                                  
 21 12 30  4  0 33.0000000  0  0
 21 12 30  4  0 34.0000000  0  6E03E05E08E13E15E18
  23442002.662                   123188715.625 0                        48.000  
                  23442001.304    94391563.089          53.000  
  26133393.570                   137331704.246 0                        42.000  
                  26133394.106   105228533.483          47.000  
  23301613.218                   122450161.278 0                        47.000  
                  23301610.913    93825450.406          50.000  
  24934105.391                   131029908.127 0                        46.000  
                  24934104.516   100399542.469          51.000  
  23109030.752                   121438649.551 0                        48.000  
                  23109031.109    93050397.749          53.000  
  20882209.192                   109737310.980 0                        47.000  
                  20882207.405    84084432.365          51.000  
 21 12 30  4  0 35.0000000  0  9G01G03G04G17G19G21G22G31G32
  20080247.906    20080244.975   105522426.402 0  82225665.887 0        50.000  
        50.000                                                  
  20592748.013    20592744.565   108214916.880 0  84323316.574 0        49.000  
        49.000                                                  
  22353811.578    22353807.575   117469365.731 0  91534572.067 0        45.000  
        46.000                                                  
  22641741.238    22641735.770   118983347.683 0  92714297.475 0        45.000  
        43.000                                                  
  23432306.733                   123137071.158 0                        42.000  
                                                                
  21603527.024                   113526654.052 0                        48.000  
                                                                
  20593363.959                   108218859.029 0                        45.000  
                                                                
  22679313.146    22679307.732   119179971.993 0  92867514.502 0        43.000  
        40.000                                                  
  24324947.557    24324943.358   127828452.161 0  99606105.164 0        41.000  
        38.000                                                  
 21 12 30  4  0 34.0000000  0  0
 21 12 30  4  0 35.0000000  0  6E03E05E08E13E15E18
  23442045.172                   123188939.597 0                        48.000  
                  23442043.850    94391734.706          53.000  
  26133860.380                   137334156.843 0                        42.000  
                  26133860.738   105230412.760          47.000  
  23301183.432                   122447903.017 0                        47.000  
                  23301181.145    93823720.048          50.000  
  24933706.465                   131027811.692 0                        46.000  
                  24933705.643   100397936.117          51.000  
  23109141.379                   121439230.818 0                        47.000  
                  23109141.611    93050843.135          53.000  
  20883141.794                   109742211.359 0                        47.000  
                  20883139.811    84088187.212          51.000  
 21 12 30  4  0 36.0000000  0  9G01G03G04G17G19G21G22G31G32
  20080415.893    20080413.141   105523309.633 0  82226354.119 0        50.000  
        50.000                                                  
  20592544.146    20592540.661   108213845.386 0  84322481.644 0        49.000  
        49.000                                                  
  22353223.044    22353219.041   117466273.363 0  91532162.425 0        45.000  
        46.000                                                  
  22641589.387    22641583.812   118982549.522 0  92713675.545 0        45.000  
        43.000                                                  
  23431875.340                   123134804.491 0                        42.000  
                                                                
  21603873.879                   113528476.990 0                        48.000  
                                                                
  20593427.894                   108219194.862 0                        45.000  
                                                                
  22679143.801    22679138.405   119179082.248 0  92866821.187 0        43.000  
        40.000                                                  
  24325579.799    24325575.689   127831774.748 0  99608694.203 0        41.000  
        38.000                                                  
 21 12 30  4  0 35.0000000  0  0
 21 12 30  4  0 36.0000000  0  6E03E05E08E13E15E18
  23442087.861                   123189164.018 0                        48.000  
                  23442086.557    94391906.667          53.000  
  26134327.101                   137336609.666 0                        42.000  
                  26134327.441   105232292.184          47.000  
  23300753.771                   122445645.088 0                        47.000  
                  23300751.538    93821989.956          50.000  
  24933307.593                   131025715.586 0                        46.000  
                  24933306.700   100396330.003          51.000  
  23109252.095                   121439812.575 0                        47.000  
                  23109252.417    93051288.897          53.000  
  20884074.450                   109747112.733 0                        47.000  
                  20884072.627    84091942.803          51.000  
 21 12 30  4  0 37.0000000  0  9G01G03G04G17G19G21G22G31G32
  20080584.165    20080581.324   105524193.855 0  82227043.121 0        50.000  
        50.000                                                  
  20592340.439    20592336.919   108212774.668 0  84321647.311 0        49.000  
        49.000                                                  
  22352634.688    22352630.739   117463181.742 0  91529753.377 0        45.000  
        46.000                                                  
  22641437.643    22641432.158   118981752.397 0  92713054.401 0        45.000  
        43.000                                                  
  23431444.303                   123132538.818 0                        42.000  
                                                                
  21604221.056                   113530300.747 0                        48.000  
                                                                
  20593492.008                   108219531.464 0                        45.000  
                                                                
  22678974.707    22678969.382   119178193.577 0  92866128.729 0        43.000  
        40.000                                                  
  24326212.237    24326208.038   127835097.897 0  99611283.662 0        41.000  
        38.000                                                  
 21 12 30  4  0 36.0000000  0  0
 21 12 30  4  0 37.0000000  0  6E03E05E08E13E15E18
  23442130.783                   123189389.237 0                        48.000  
                  23442129.407    94392079.233          53.000  
  26134793.929                   137339063.041 0                        42.000  
                  26134794.269   105234172.043          47.000  
  23300324.307                   122443387.849 0                        47.000  
                  23300322.002    93820260.376          50.000  
  24932908.774                   131023620.135 0                        46.000  
                  24932907.988   100394724.402          51.000  
  23109363.008                   121440395.172 0                        48.000  
                  23109363.294    93051735.305          53.000  
  20885007.392                   109752015.422 0                        47.000  
                  20885005.498    84095699.416          51.000  
 21 12 30  4  0 38.0000000  0  9G01G03G04G17G19G21G22G31G32
  20080752.545    20080749.615   105525078.536 0  82227732.480 0        50.000  
        50.000                                                  
  20592136.732    20592133.140   108211704.155 0  84320813.152 0        49.000  
        48.000                                                  
  22352046.458    22352042.491   117460090.351 0  91527344.505 0        45.000  
        46.000                                                  
  22641286.025    22641280.575   118980955.756 0  92712433.633 0        45.000  
        43.000                                                  
  23431013.213                   123130273.599 0                        42.000  
                                                                
  21604568.109                   113532124.771 0                        48.000  
                                                                
  20593556.104                   108219868.257 0                        45.000  
                                                                
  22678805.648    22678800.305   119177305.434 0  92865436.670 0        43.000  
        40.000                                                  
  24326844.551    24326840.423   127838421.034 0  99613873.140 0        41.000  
        38.000                                                  
 21 12 30  4  0 37.0000000  0  0
 21 12 30  4  0 38.0000000  0  6E03E05E08E13E15E18
  23442173.597                   123189614.696 0                        48.000  
                  23442172.364    94392251.996          53.000  
  26135260.704                   137341516.422 0                        42.000  
                  26135261.151   105236051.915          47.000  
  23299894.700                   122441130.745 0                        47.000  
                  23299892.467    93818530.911          50.000  
  24932510.099                   131021524.813 0                        46.000  
                  24932509.205   100393118.897          51.000  
  23109474.047                   121440978.065 0                        48.000  
                  23109474.243    93052181.937          53.000  
  20885940.298                   109756918.903 0                        47.000  
                  20885938.654    84099456.622          51.000  
 21 12 30  4  0 39.0000000  0  9G01G03G04G17G19G21G22G31G32
  20080920.925    20080918.084   105525963.533 0  82228422.093 0        50.000  
        50.000                                                  
  20591933.097    20591929.434   108210633.744 0  84319979.063 0        49.000  
        49.000                                                  
  22351458.138    22351454.117   117456999.035 0  91524935.687 0        45.000  
        46.000                                                  
  22641134.495    22641129.063   118980159.473 0  92711813.150 0        45.000  
        43.000                                                  
  23430582.355                   123128008.710 0                        42.000  
                                                                
  21604915.304                   113533948.927 0                        48.000  
                                                                
  20593620.040                   108220205.125 0                        45.000  
                                                                
  22678636.732    22678631.407   119176417.701 0  92864744.907 0        43.000  
        40.000                                                  
  24327476.828    24327472.790   127841744.094 0  99616462.524 0        41.000  
        38.000                                                  
 21 12 30  4  0 38.0000000  0  0
 21 12 30  4  0 39.0000000  0  6E03E05E08E13E15E18
  23442216.465                   123189840.270 0                        48.000  
                  23442215.250    94392424.832          53.000  
  26135727.425                   137343969.706 0                        42.000  
                  26135728.051   105237931.700          47.000  
  23299465.308                   122438873.649 0                        47.000  
                  23299462.931    93816801.444          50.000  
  24932111.351                   131019429.490 0                        46.000  
                  24932110.511   100391513.395          51.000  
  23109584.977                   121441561.122 0                        48.000  
                  23109585.174    93052628.691          53.000  
  20886873.293                   109761823.032 0                        47.000  
                  20886871.846    84103214.331          51.000  
 21 12 30  4  0 40.0000000  0  9G01G03G04G17G19G21G22G31G32
  20081089.519    20081086.553   105526849.335 0  82229112.326 0        50.000  
        50.000                                                  
  20591729.515    20591725.834   108209563.888 0  84319145.409 0        49.000  
        49.000                                                  
  22350869.997    22350865.976   117453908.310 0  91522527.321 0        45.000  
        46.000                                                  
  22640983.216    22640977.659   118979364.017 0  92711193.317 0        45.000  
        43.000                                                  
  23430151.711                   123125744.622 0                        42.000  
                                                                
  21605262.517                   113535773.702 0                        48.000  
                                                                
  20593684.243                   108220542.546 0                        45.000  
                                                                
  22678467.870    22678462.598   119175530.826 0  92864053.852 0        43.000  
        40.000                                                  
  24328109.159    24328105.192   127845067.498 0  99619052.196 0        41.000  
        38.000                                                  
 21 12 30  4  0 39.0000000  0  0
 21 12 30  4  0 40.0000000  0  6E03E05E08E13E15E18
  23442259.636                   123190066.449 0                        48.000  
                  23442258.350    94392598.135          53.000  
  26136194.343                   137346423.336 0                        42.000  
                  26136194.950   105239811.754          47.000  
  23299035.700                   122436617.035 0                        47.000  
                  23299033.556    93815072.350          50.000  
  24931712.550                   131017334.635 0                        46.000  
                  24931711.854   100389908.243          51.000  
  23109696.051                   121442144.816 0                        48.000  
                  23109696.176    93053075.939          53.000  
  20887806.592                   109766728.280 0                        47.000  
                  20887805.359    84106972.904          51.000  
 21 12 30  4  0 41.0000000  0  9G01G03G04G17G19G21G22G31G32
  20081258.167    20081255.254   105527735.855 0  82229803.121 0        50.000  
        50.000                                                  
  20591526.040    20591522.288   108208494.522 0  84318312.133 0        49.000  
        49.000                                                  
  22350281.892    22350277.818   117450818.025 0  91520119.329 0        45.000  
        46.000                                                  
  22640831.919    22640826.416   118978569.292 0  92710574.051 0        45.000  
        43.000                                                  
  23429720.907                   123123481.235 0                        42.000  
                                                                
  21605609.962                   113537599.002 0                        48.000  
                                                                
  20593748.589                   108220880.430 0                        45.000  
                                                                
  22678299.240    22678293.968   119174644.749 0  92863363.393 0        43.000  
        40.000                                                  
  24328741.615    24328737.613   127848391.183 0  99621642.083 0        41.000  
        38.000                                                  
 21 12 30  4  0 40.0000000  0  0
 21 12 30  4  0 41.0000000  0  6E03E05E08E13E15E18
  23442302.611                   123190293.126 0                        48.000  
                  23442301.521    94392771.825          53.000  
  26136661.171                   137348877.248 0                        42.000  
                  26136661.850   105241692.022          47.000  
  23298606.433                   122434360.814 0                        47.000  
                  23298604.235    93813343.561          50.000  
  24931314.125                   131015240.175 0                        46.000  
                  24931313.231   100388303.389          51.000  
  23109807.107                   121442729.065 0                        48.000  
                  23109807.429    93053523.606          53.000  
  20888740.338                   109771634.589 0                        47.000  
                  20888739.015    84110732.278          51.000  
 21 12 30  4  0 42.0000000  0  9G01G03G04G17G19G21G22G31G32
  20081426.958    20081424.027   105528622.857 0  82230494.291 0        50.000  
        50.000                                                  
  20591322.619    20591318.849   108207425.406 0  84317479.064 0        49.000  
        49.000                                                  
  22349693.894    22349689.837   117447728.015 0  91517711.523 0        45.000  
        46.000                                                  
  22640680.676    22640675.333   118977775.098 0  92709955.194 0        45.000  
        43.000                                                  
  23429290.282                   123121218.338 0                        42.000  
                                                                
  21605957.425                   113539424.596 0                        48.000  
                                                                
  20593813.043                   108221218.543 0                        45.000  
                                                                
  22678130.628    22678125.535   119173759.223 0  92862673.373 0        43.000  
        40.000                                                  
  24329374.161    24329369.980   127851714.936 0  99624232.000 0        41.000  
        38.000                                                  
 21 12 30  4  0 41.0000000  0  0
 21 12 30  4  0 42.0000000  0  6E03E05E08E13E15E18
  23442345.711                   123190520.076 0                        48.000  
                  23442344.639    94392945.725          53.000  
  26137128.303                   137351331.219 0                        42.000  
                  26137128.803   105243572.328          47.000  
  23298177.058                   122432104.763 0                        47.000  
                  23298174.932    93811614.903          50.000  
  24930915.646                   131013145.853 0                        46.000  
                  24930914.788   100386698.653          51.000  
  23109918.431                   121443313.630 0                        48.000  
                  23109918.735    93053971.524          53.000  
  20889674.227                   109776541.688 0                        47.000  
                  20889672.779    84114492.267          51.000  
 21 12 30  4  0 43.0000000  0  9G01G03G04G17G19G21G22G31G32
  20081595.748    20081592.854   105529510.146 0  82231185.685 0        50.000  
        50.000                                                  
  20591119.091    20591115.357   108206356.348 0  84316646.032 0        49.000  
        48.000                                                  
  22349105.931    22349101.929   117444638.059 0  91515303.762 0        45.000  
        46.000                                                  
  22640529.647    22640524.072   118976981.219 0  92709336.595 0        45.000  
        43.000                                                  
  23428859.585                   123118955.731 0                        42.000  
                                                                
  21606304.888                   113541250.322 0                        48.000  
                                                                
  20593877.461                   108221556.703 0                        45.000  
                                                                
  22677962.302    22677957.048   119172874.079 0  92861983.652 0        43.000  
        40.000                                                  
  24330006.671    24330002.454   127855038.516 0  99626821.805 0        41.000  
        38.000                                                  
 21 12 30  4  0 42.0000000  0  0
 21 12 30  4  0 43.0000000  0  6E03E05E08E13E15E18
  23442388.954                   123190747.115 0                        48.000  
                  23442387.936    94393119.691          53.000  
  26137595.203                   137353785.014 0                        42.000  
                  26137595.882   105245452.522          47.000  
  23297747.755                   122429848.694 0                        47.000  
                  23297745.646    93809886.228          50.000  
  24930517.149                   131011051.505 0                        46.000  
                  24930516.237   100385093.891          51.000  
  23110029.630                   121443898.340 0                        48.000  
                  23110029.952    93054419.550          53.000  
  20890607.990                   109781449.416 0                        47.000  
                  20890606.757    84118252.731          51.000  
 21 12 30  4  0 44.0000000  0  9G01G03G04G17G19G21G22G31G32
  20081764.700    20081761.859   105530398.045 0  82231877.561 0        49.000  
        50.000                                                  
  20590915.742    20590911.936   108205287.684 0  84315813.302 0        49.000  
        49.000                                                  
  22348518.040    22348514.038   117441548.484 0  91512896.290 0        45.000  
        46.000                                                  
  22640378.707    22640373.257   118976187.996 0  92708718.493 0        45.000  
        43.000                                                  
  23428429.209                   123116693.744 0                        42.000  
                                                                
  21606652.351                   113543076.473 0                        48.000  
                                                                
  20593941.968                   108221895.218 0                        45.000  
                                                                
  22677793.957    22677788.722   119171989.625 0  92861294.456 0        43.000  
        40.000                                                  
  24330639.127    24330634.981   127858362.283 0  99629411.753 0        41.000  
        38.000                                                  
 21 12 30  4  0 43.0000000  0  0
 21 12 30  4  0 44.0000000  0  6E03E05E08E13E15E18
  23442432.180                   123190974.572 0                        48.000  
                  23442431.179    94393293.975          53.000  
  26138062.263                   137356238.993 0                        42.000  
                  26138062.710   105247332.844          47.000  
  23297318.362                   122427592.919 0                        47.000  
                  23297316.397    93808157.779          50.000  
  24930118.687                   131008957.430 0                        46.000  
                  24930117.740   100383489.342          51.000  
  23110140.990                   121444483.489 0                        48.000  
                  23110141.240    93054867.916          53.000  
  20891541.915                   109786358.085 0                        47.000  
                  20891540.878    84122013.917          51.000  
 21 12 30  4  0 45.0000000  0  9G01G03G04G17G19G21G22G31G32
  20081933.777    20081930.846   105531286.587 0  82232569.916 0        49.000  
        50.000                                                  
  20590712.571    20590708.622   108204219.398 0  84314980.876 0        49.000  
        49.000                                                  
  22347930.221    22347926.183   117438459.287 0  91510489.137 0        45.000  
        46.000                                                  
  22640227.982    22640222.460   118975395.446 0  92708100.914 0        45.000  
        43.000                                                  
  23427998.762                   123114432.390 0                        42.000  
                                                                
  21606999.993                   113544903.070 0                        48.000  
                                                                
  20594006.422                   108222234.120 0                        45.000  
                                                                
  22677625.864    22677620.664   119171105.874 0  92860605.826 0        43.000  
        40.000                                                  
  24331271.565    24331267.455   127861686.250 0  99632001.871 0        41.000  
        38.000                                                  
 21 12 30  4  0 44.0000000  0  0
 21 12 30  4  0 45.0000000  0  6E03E05E08E13E15E18
  23442475.566                   123191202.444 0                        48.000  
                  23442474.386    94393468.585          53.000  
  26138529.199                   137358693.175 0                        42.000  
                  26138529.753   105249213.317          47.000  
  23296889.399                   122425337.467 0                        47.000  
                  23296887.147    93806429.562          50.000  
  24929720.190                   131006863.666 0                        46.000  
                  24929719.225   100381885.031          50.000  
  23110252.636                   121445069.126 0                        48.000  
                  23110252.618    93055316.640          53.000  
  20892476.143                   109791267.704 0                        47.000  
                  20892475.107    84125775.835          51.000  
 21 12 30  4  0 46.0000000  0  9G01G03G04G17G19G21G22G31G32
  20082102.961    20082100.084   105532175.907 0  82233262.902 0        49.000  
        50.000                                                  
  20590509.364    20590505.433   108203151.684 0  84314148.894 0        49.000  
        49.000                                                  
  22347342.491    22347338.417   117435370.660 0  91508082.417 0        45.000  
        46.000                                                  
  22640077.453    22640071.735   118974603.708 0  92707483.976 0        45.000  
        43.000                                                  
  23427568.601                   123112171.829 0                        42.000  
                                                                
  21607347.724                   113546730.269 0                        48.000  
                                                                
  20594070.947                   108222573.586 0                        45.000  
                                                                
  22677457.895    22677452.588   119170222.999 0  92859917.873 0        43.000  
        40.000                                                  
  24331904.111    24331900.144   127865010.575 0  99634592.259 0        41.000  
        38.000                                                  
 21 12 30  4  0 45.0000000  0  0
 21 12 30  4  0 46.0000000  0  6E03E05E08E13E15E18
  23442518.952                   123191430.909 0                        48.000  
                  23442518.022    94393643.635          53.000  
  26138996.188                   137361147.697 0                        42.000  
                  26138996.920   105251094.066          47.000  
  23296460.381                   122423082.481 0                        47.000  
                  23296457.951    93804701.727          50.000  
  24929321.782                   131004770.371 0                        46.000  
                  24929320.943   100380281.078          51.000  
  23110364.013                   121445655.391 0                        48.000  
                  23110364.228    93055765.864          53.000  
  20893410.514                   109796178.442 0                        47.000  
                  20893409.692    84129538.613          51.000  
 21 12 30  4  0 47.0000000  0  9G01G03G04G17G19G21G22G31G32
  20082272.341    20082269.536   105533065.911 0  82233956.406 0        49.000  
        50.000                                                  
  20590306.194    20590302.441   108202084.422 0  84313317.252 0        49.000  
        49.000                                                  
  22346754.779    22346750.740   117432282.481 0  91505676.047 0        45.000  
        46.000                                                  
  22639926.943    22639921.224   118973812.689 0  92706867.602 0        45.000  
        43.000                                                  
  23427138.565                   123109911.949 0                        42.000  
                                                                
  21607695.563                   113548557.967 0                        48.000  
                                                                
  20594135.615                   108222913.466 0                        45.000  
                                                                
  22677290.015    22677284.744   119169340.874 0  92859230.508 0        43.000  
        40.000                                                  
  24332536.835    24332532.815   127868335.150 0  99637182.825 0        41.000  
        38.000                                                  
 21 12 30  4  0 46.0000000  0  0
 21 12 30  4  0 47.0000000  0  6E03E05E08E13E15E18
  23442562.695                   123191659.857 0                        48.000  
                  23442561.587    94393819.065          53.000  
  26139463.445                   137363602.490 0                        42.000  
                  26139464.016   105252974.997          47.000  
  23296031.131                   122420827.871 0                        47.000  
                  23296029.005    93802974.164          50.000  
  24928923.518                   131002677.429 0                        46.000  
                  24928922.714   100378677.391          50.000  
  23110475.855                   121446242.186 0                        48.000  
                  23110475.927    93056215.483          53.000  
  20894345.314                   109801090.198 0                        47.000  
                  20894344.314    84133302.166          51.000  
 21 12 30  4  0 48.0000000  0  9G01G03G04G17G19G21G22G31G32
  20082441.757    20082439.023   105533956.164 0  82234650.117 0        49.000  
        49.000                                                  
  20590103.076    20590099.360   108201017.175 0  84312485.633 0        49.000  
        49.000                                                  
  22346167.192    22346163.153   117429194.324 0  91503269.678 0        45.000  
        46.000                                                  
  22639776.575    22639770.678   118973021.952 0  92706251.434 0        45.000  
        43.000                                                  
  23426708.619                   123107652.330 0                        42.000  
                                                                
  21608043.401                   113550385.717 0                        48.000  
                                                                
  20594200.318                   108223253.342 0                        45.000  
                                                                
  22677122.189    22677116.990   119168459.081 0  92858543.399 0        43.000  
        40.000                                                  
  24333169.470    24333165.432   127871659.525 0  99639773.263 0        41.000  
        38.000                                                  
 21 12 30  4  0 47.0000000  0  0
 21 12 30  4  0 48.0000000  0  6E03E05E08E13E15E18
  23442606.045                   123191888.835 0                        48.000  
                  23442605.134    94393994.514          53.000  
  26139930.630                   137366057.085 0                        42.000  
                  26139931.059   105254855.791          47.000  
  23295602.203                   122418573.188 0                        47.000  
                  23295599.970    93801246.545          51.000  
  24928525.289                   131000584.401 0                        45.000  
                  24928524.359   100377073.644          50.000  
  23110587.501                   121446829.064 0                        48.000  
                  23110587.626    93056665.164          53.000  
  20895280.222                   109806002.526 0                        46.000  
                  20895279.167    84137066.151          51.000  
 21 12 30  4  0 49.0000000  0  9G01G03G04G17G19G21G22G31G32
  20082611.245    20082608.440   105534846.651 0  82235344.001 0        49.000  
        50.000                                                  
  20589899.941    20589896.207   108199949.925 0  84311654.012 0        49.000  
        49.000                                                  
  22345579.551    22345575.513   117426106.154 0  91500863.317 0        45.000  
        46.000                                                  
  22639626.278    22639620.292   118972231.473 0  92705635.479 0        46.000  
        43.000                                                  
  23426278.762                   123105392.931 0                        42.000  
                                                                
  21608391.311                   113552213.509 0                        48.000  
                                                                
  20594265.022                   108223593.196 0                        45.000  
                                                                
  22676954.542    22676949.182   119167577.596 0  92857856.530 0        43.000  
        40.000                                                  
  24333802.033    24333797.959   127874983.718 0  99642363.528 0        41.000  
        39.000                                                  
 21 12 30  4  0 48.0000000  0  0
 21 12 30  4  0 49.0000000  0  6E03E05E08E13E15E18
  23442649.592                   123192117.842 0                        48.000  
                  23442648.734    94394169.991          53.000  
  26140397.762                   137368511.446 0                        42.000  
                  26140398.048   105256736.414          47.000  
  23295173.204                   122416318.410 0                        47.000  
                  23295170.935    93799518.863          51.000  
  24928126.881                   130998491.279 0                        45.000  
                  24928126.023   100375469.824          50.000  
  23110699.218                   121447416.016 0                        48.000  
                  23110699.272    93057114.910          53.000  
  20896214.968                   109810915.403 0                        46.000  
                  20896214.039    84140830.564          51.000  
 21 12 30  4  0 50.0000000  0  9G01G03G04G17G19G21G22G31G32
  20082780.894    20082778.088   105535738.196 0  82236038.711 0        49.000  
        50.000                                                  
  20589697.021    20589693.268   108198883.497 0  84310823.029 0        49.000  
        49.000                                                  
  22344992.000    22344987.961   117423018.806 0  91498457.598 0        45.000  
        46.000                                                  
  22639476.018    22639469.942   118971442.083 0  92705020.370 0        46.000  
        43.000                                                  
  23425848.904                   123103134.588 0                        42.000  
                                                                
  21608739.239                   113554042.169 0                        48.000  
                                                                
  20594329.815                   108223933.867 0                        45.000  
                                                                
  22676787.038    22676781.588   119166697.235 0  92857170.537 0        43.000  
        41.000                                                  
  24334434.686    24334430.648   127878308.495 0  99644954.297 0        41.000  
        38.000                                                  
 21 12 30  4  0 49.0000000  0  0
 21 12 30  4  0 50.0000000  0  6E03E05E08E13E15E18
  23442693.264                   123192347.709 0                        48.000  
                  23442692.424    94394346.121          53.000  
  26140864.948                   137370966.447 0                        42.000  
                  26140865.305   105258617.523          47.000  
  23294744.097                   122414064.390 0                        47.000  
                  23294741.971    93797791.758          51.000  
  24927728.652                   130996398.889 0                        45.000  
                  24927727.901   100373866.561          50.000  
  23110810.971                   121448003.868 0                        48.000  
                  23110811.186    93057565.338          53.000  
  20897150.054                   109815829.671 0                        46.000  
                  20897149.214    84144596.039          51.000  
 21 12 30  4  0 51.0000000  0  9G01G03G04G17G19G21G22G31G32
  20082950.792    20082947.862   105536630.494 0  82236734.010 0        49.000  
        50.000                                                  
  20589494.118    20589490.473   108197817.590 0  84309992.445 0        49.000  
        49.000                                                  
  22344404.520    22344400.535   117419931.978 0  91496052.271 0        45.000  
        46.000                                                  
  22639325.864    22639319.985   118970653.477 0  92704405.869 0        46.000  
        43.000                                                  
  23425419.404                   123100877.008 0                        42.000  
                                                                
  21609087.327                   113555871.410 0                        48.000  
                                                                
  20594394.733                   108224275.038 0                        45.000  
                                                                
  22676619.677    22676614.227   119165817.734 0  92856485.197 0        43.000  
        41.000                                                  
  24335067.500    24335063.372   127881633.612 0  99647545.282 0        41.000  
        39.000                                                  
 21 12 30  4  0 50.0000000  0  0
 21 12 30  4  0 51.0000000  0  6E03E05E08E13E15E18
  23442737.061                   123192578.111 0                        48.000  
                  23442736.239    94394522.660          53.000  
  26141332.151                   137373421.773 0                        42.000  
                  26141332.437   105260498.868          47.000  
  23294315.384                   122411810.804 0                        47.000  
                  23294313.096    93796064.980          50.000  
  24927330.548                   130994306.920 0                        45.000  
                  24927329.887   100372263.625          50.000  
  23110923.046                   121448592.313 0                        48.000  
                  23110923.242    93058016.229          53.000  
  20898085.515                   109820745.013 0                        46.000  
                  20898084.568    84148362.340          51.000  
 21 12 30  4  0 52.0000000  0  9G01G03G04G17G19G21G22G31G32
  20083120.673    20083117.653   105537523.285 0  82237429.687 0        50.000  
        50.000                                                  
  20589291.394    20589287.713   108196751.946 0  84309162.077 0        49.000  
        49.000                                                  
  22343817.112    22343813.055   117416845.405 0  91493647.146 0        45.000  
        46.000                                                  
  22639175.908    22639169.957   118969865.395 0  92703791.784 0        46.000  
        43.000                                                  
  23424989.780                   123098619.924 0                        42.000  
                                                                
  21609435.416                   113557700.933 0                        48.000  
                                                                
  20594459.759                   108224616.447 0                        45.000  
                                                                
  22676452.441    22676446.991   119164938.773 0  92855800.302 0        43.000  
        41.000                                                  
  24335700.367    24335696.168   127884958.803 0  99650136.337 0        41.000  
        39.000                                                  
 21 12 30  4  0 51.0000000  0  0
 21 12 30  4  0 52.0000000  0  6E03E05E08E13E15E18
  23442780.876                   123192808.811 0                        48.000  
                  23442780.161    94394699.430          53.000  
  26141799.408                   137375877.120 0                        42.000  
                  26141799.712   105262380.242          47.000  
  23293886.545                   122409557.391 0                        47.000  
                  23293884.383    93794338.344          51.000  
  24926932.390                   130992215.116 0                        45.000  
                  24926931.872   100370660.811          50.000  
  23111034.924                   121449181.081 0                        48.000  
                  23111035.245    93058467.362          53.000  
  20899021.209                   109825661.171 0                        46.000  
                  20899020.154    84152129.262          51.000  
 21 12 30  4  0 53.0000000  0  9G01G03G04G17G19G21G22G31G32
  20083290.590    20083287.623   105538416.285 0  82238125.533 0        50.000  
        50.000                                                  
  20589088.563    20589084.882   108195686.283 0  84308331.696 0        50.000  
        49.000                                                  
  22343229.846    22343225.683   117413758.826 0  91491242.015 0        45.000  
        46.000                                                  
  22639025.986    22639020.018   118969077.558 0  92703177.880 0        46.000  
        43.000                                                  
  23424560.512                   123096363.049 0                        42.000  
                                                                
  21609783.612                   113559530.486 0                        48.000  
                                                                
  20594524.730                   108224957.817 0                        45.000  
                                                                
  22676285.312    22676279.862   119164060.108 0  92855115.646 0        43.000  
        41.000                                                  
  24336333.055    24336328.856   127888283.756 0  99652727.214 0        41.000  
        38.000                                                  
 21 12 30  4  0 52.0000000  0  0
 21 12 30  4  0 53.0000000  0  6E03E05E08E13E15E18
  23442824.798                   123193039.517 0                        48.000  
                  23442824.029    94394876.203          53.000  
  26142266.701                   137378332.276 0                        42.000  
                  26142267.041   105264261.455          47.000  
  23293457.831                   122407303.873 0                        47.000  
                  23293455.562    93792611.629          51.000  
  24926534.322                   130990123.192 0                        45.000  
                  24926533.697   100369057.920          50.000  
  23111147.087                   121449769.922 0                        48.000  
                  23111147.248    93058918.548          53.000  
  20899956.777                   109830577.863 0                        47.000  
                  20899955.794    84155896.600          51.000  
 21 12 30  4  0 54.0000000  0  9G01G03G04G17G19G21G22G31G32
  20083460.560    20083457.593   105539309.698 0  82238821.697 0        50.000  
        50.000                                                  
  20588885.839    20588882.158   108194620.797 0  84307501.446 0        49.000  
        49.000                                                  
  22342642.438    22342638.381   117410672.405 0  91488837.019 0        45.000  
        46.000                                                  
  22638876.173    22638870.204   118968290.166 0  92702564.317 0        46.000  
        43.000                                                  
  23424131.084                   123094106.581 0                        42.000  
                                                                
  21610131.808                   113561360.273 0                        48.000  
                                                                
  20594589.702                   108225299.348 0                        45.000  
                                                                
  22676118.236    22676112.697   119163181.933 0  92854431.340 0        43.000  
        41.000                                                  
  24336965.798    24336961.580   127891608.686 0  99655318.062 0        41.000  
        38.000                                                  
 21 12 30  4  0 53.0000000  0  0
 21 12 30  4  0 54.0000000  0  6E03E05E08E13E15E18
  23442868.791                   123193270.417 0                        48.000  
                  23442867.969    94395053.129          53.000  
  26142733.851                   137380787.380 0                        42.000  
                  26142734.101   105266142.640          47.000  
  23293029.100                   122405050.445 0                        47.000  
                  23293026.777    93790884.974          51.000  
  24926136.236                   130988031.353 0                        45.000  
                  24926135.611   100367455.077          50.000  
  23111259.233                   121450358.989 0                        48.000  
                  23111259.305    93059369.911          53.000  
  20900892.774                   109835495.277 0                        47.000  
                  20900891.506    84159664.488          51.000  
 21 12 30  4  0 55.0000000  0  9G01G03G04G17G19G21G22G31G32
  20083630.762    20083627.832   105540204.341 0  82239518.826 0        50.000  
        50.000                                                  
  20588683.275    20588679.702   108193556.319 0  84306671.984 0        50.000  
        49.000                                                  
  22342055.262    22342051.223   117407586.982 0  91486432.800 0        45.000  
        46.000                                                  
  22638726.609    22638720.569   118967504.024 0  92701951.753 0        46.000  
        43.000                                                  
  23423701.977                   123091851.361 0                        42.000  
                                                                
  21610480.146                   113563191.093 0                        48.000  
                                                                
  20594654.924                   108225641.875 0                        45.000  
                                                                
  22675951.375    22675945.836   119162305.079 0  92853748.084 0        43.000  
        41.000                                                  
  24337598.647    24337594.501   127894934.414 0  99657909.538 0        41.000  
        39.000                                                  
 21 12 30  4  0 54.0000000  0  0
 21 12 30  4  0 55.0000000  0  6E03E05E08E13E15E18
  23442912.892                   123193502.344 0                        48.000  
                  23442912.070    94395230.839          53.000  
  26143201.108                   137383243.296 0                        42.000  
                  26143201.394   105268024.441          47.000  
  23292600.440                   122402797.951 0                        47.000  
                  23292598.135    93789159.030          51.000  
  24925738.418                   130985940.420 0                        45.000  
                  24925737.685   100365852.934          50.000  
  23111371.665                   121450949.150 0                        48.000  
                  23111371.630    93059822.110          53.000  
  20901829.022                   109840414.266 0                        47.000  
                  20901827.646    84163433.579          51.000  
 21 12 30  4  0 56.0000000  0  9G01G03G04G17G19G21G22G31G32
  20083801.018    20083798.231   105541099.392 0  82240216.266 0        50.000  
        50.000                                                  
  20588480.766    20588477.210   108192492.013 0  84305842.656 0        50.000  
        49.000                                                  
  22341468.157    22341464.172   117404501.750 0  91484028.721 0        45.000  
        46.000                                                  
  22638577.117    22638571.023   118966718.323 0  92701339.506 0        46.000  
        43.000                                                  
  23423272.799                   123089596.537 0                        42.000  
                                                                
  21610828.557                   113565022.139 0                        48.000  
                                                                
  20594720.128                   108225984.551 0                        45.000  
                                                                
  22675784.639    22675779.029   119161428.703 0  92853065.194 0        43.000  
        41.000                                                  
  24338231.425    24338227.404   127898260.100 0  99660500.984 0        41.000  
        39.000                                                  
 21 12 30  4  0 55.0000000  0  0
 21 12 30  4  0 56.0000000  0  6E03E05E08E13E15E18
  23442956.957                   123193734.486 0                        48.000  
                  23442956.278    94395408.718          53.000  
  26143668.383                   137385699.171 0                        42.000  
                  26143668.830   105269906.220          47.000  
  23292171.726                   122400545.551 0                        47.000  
                  23292169.528    93787433.165          51.000  
  24925340.510                   130983849.567 0                        45.000  
                  24925339.921   100364250.854          50.000  
  23111483.668                   121451539.552 0                        48.000  
                  23111484.115    93060274.501          53.000  
  20902765.162                   109845333.986 0                        47.000  
                  20902763.768    84167203.237          51.000  
 21 12 30  4  0 57.0000000  0  9G01G03G04G17G19G21G22G31G32
  20083971.346    20083968.558   105541994.625 0  82240913.850 0        49.000  
        49.000                                                  
  20588278.202    20588274.611   108191427.665 0  84305013.289 0        50.000  
        49.000                                                  
  22340881.017    22340877.050   117401416.459 0  91481624.598 0        45.000  
        46.000                                                  
  22638427.678    22638421.585   118965932.841 0  92700727.438 0        46.000  
        43.000                                                  
  23422843.889                   123087341.915 0                        42.000  
                                                                
  21611177.074                   113566853.193 0                        48.000  
                                                                
  20594785.475                   108226327.171 0                        45.000  
                                                                
  22675617.868    22675612.364   119160552.597 0  92852382.516 0        43.000  
        41.000                                                  
  24338864.203    24338860.236   127901585.564 0  99663092.248 0        41.000  
        39.000                                                  
 21 12 30  4  0 56.0000000  0  0
 21 12 30  4  0 57.0000000  0  6E03E05E08E13E15E18
  23443001.272                   123193966.601 0                        48.000  
                  23443000.468    94395586.570          53.000  
  26144135.712                   137388154.797 0                        42.000  
                  26144136.158   105271787.806          47.000  
  23291743.066                   122398293.004 0                        47.000  
                  23291740.833    93785707.196          51.000  
  24924942.514                   130981758.582 0                        45.000  
                  24924941.960   100362648.662          50.000  
  23111596.208                   121452129.996 0                        48.000  
                  23111596.476    93060726.912          53.000  
  20903701.499                   109850254.208 0                        47.000  
                  20903700.105    84170973.275          51.000  
 21 12 30  4  0 58.0000000  0  9G01G03G04G17G19G21G22G31G32
  20084141.780    20084139.064   105542890.723 0  82241612.111 0        49.000  
        50.000                                                  
  20588075.693    20588072.262   108190363.951 0  84304184.426 0        50.000  
        49.000                                                  
  22340293.983    22340289.999   117398331.805 0  91479220.970 0        45.000  
        46.000                                                  
  22638278.364    22638272.378   118965148.249 0  92700116.081 0        46.000  
        43.000                                                  
  23422415.014                   123085088.156 0                        42.000  
                                                                
  21611525.609                   113568684.905 0                        48.000  
                                                                
  20594850.858                   108226670.405 0                        45.000  
                                                                
  22675451.293    22675445.807   119159677.436 0  92851700.575 0        43.000  
        41.000                                                  
  24339497.123    24339493.174   127904911.424 0  99665683.836 0        41.000  
        39.000                                                  
 21 12 30  4  0 57.0000000  0  0
 21 12 30  4  0 58.0000000  0  6E03E05E08E13E15E18
  23443045.409                   123194199.373 0                        48.000  
                  23443044.819    94395764.928          53.000  
  26144603.076                   137390610.836 0                        42.000  
                  26144603.505   105273669.711          47.000  
  23291314.567                   122396041.020 0                        47.000  
                  23291312.280    93783981.643          51.000  
  24924544.857                   130979668.119 0                        45.000  
                  24924544.035   100361046.890          50.000  
  23111708.854                   121452721.123 0                        48.000  
                  23111708.818    93061179.860          53.000  
  20904638.175                   109855175.610 0                        47.000  
                  20904636.621    84174744.226          51.000  
 21 12 30  4  0 59.0000000  0  9G01G03G04G17G19G21G22G31G32
  20084312.412    20084309.749   105543787.408 0  82242310.822 0        50.000  
        49.000                                                  
  20587873.362    20587869.860   108189300.580 0  84303355.828 0        50.000  
        49.000                                                  
  22339707.004    22339703.108   117395247.489 0  91476817.620 0        45.000  
        46.000                                                  
  22638129.140    22638123.190   118964364.279 0  92699505.189 0        46.000  
        43.000                                                  
  23421986.301                   123082834.989 0                        41.000  
                                                                
  21611874.234                   113570517.020 0                        48.000  
                                                                
  20594916.294                   108227013.976 0                        45.000  
                                                                
  22675284.914    22675279.375   119158802.929 0  92851019.132 0        43.000  
        41.000                                                  
  24340130.044    24340126.131   127908237.442 0  99668275.534 0        41.000  
        39.000                                                  
 21 12 30  4  0 58.0000000  0  0
 21 12 30  4  0 59.0000000  0  6E03E05E08E13E15E18
  23443089.724                   123194432.524 0                        48.000  
                  23443089.098    94395943.578          53.000  
  26145070.494                   137393067.031 0                        42.000  
                  26145070.869   105275551.730          47.000  
  23290886.086                   122393789.294 0                        47.000  
                  23290883.816    93782256.302          51.000  
  24924146.770                   130977577.914 0                        45.000  
                  24924146.377   100359445.304          50.000  
  23111821.196                   121453312.684 0                        48.000  
                  23111821.339    93061633.134          53.000  
  20905574.816                   109860097.921 0                        47.000  
                  20905573.297    84178515.869          51.000  
 21 12 30  4  1  0.0000000  0  9G01G03G04G17G19G21G22G31G32
  20084483.222    20084480.416   105544684.498 0  82243009.863 0        50.000  
        49.000                                                  
  20587671.067    20587667.564   108188237.388 0  84302527.366 0        50.000  
        49.000                                                  
  22339120.132    22339116.218   117392163.360 0  91474414.389 0        45.000  
        46.000                                                  
  22637980.130    22637974.162   118963580.749 0  92698894.659 0        46.000  
        43.000                                                  
  23421557.587                   123080582.225 0                        41.000  
                                                                
  21612222.823                   113572349.354 0                        48.000  
                                                                
  20594981.802                   108227357.697 0                        45.000  
                                                                
  22675118.625    22675113.157   119157928.910 0  92850338.080 0        43.000  
        41.000                                                  
  24340763.001    24340759.016   127911563.428 0  99670867.214 0        41.000  
        39.000                                                  
 21 12 30  4  0 59.0000000  0  0
 21 12 30  4  1  0.0000000  0  6E03E05E08E13E15E18
  23443134.093                   123194665.871 0                        48.000  
                  23443133.521    94396122.379          53.000  
  26145538.037                   137395523.194 0                        42.000  
                  26145538.269   105277433.725          47.000  
  23290457.622                   122391537.660 0                        47.000  
                  23290455.299    93780531.028          51.000  
  24923749.042                   130975487.801 0                        45.000  
                  24923748.631   100357843.786          50.000  
  23111933.878                   121453904.492 0                        48.000  
                  23111934.075    93062086.595          53.000  
  20906511.707                   109865020.972 0                        47.000  
                  20906510.080    84182288.070          51.000  
 21 12 30  4  1  1.0000000  0  9G01G03G04G17G19G21G22G31G32
  20084654.032    20084651.280   105545582.258 0  82243709.411 0        49.000  
        49.000                                                  
  20587468.789    20587465.233   108187174.651 0  84301699.255 0        50.000  
        49.000                                                  
  22338533.313    22338529.435   117389079.654 0  91472011.508 0        45.000  
        46.000                                                  
  22637831.246    22637825.206   118962797.926 0  92698284.649 0        46.000  
        43.000                                                  
  23421128.998                   123078330.139 0                        42.000  
                                                                
  21612571.590                   113574182.178 0                        48.000  
                                                                
  20595047.292                   108227701.846 0                        45.000  
                                                                
  22674952.497    22674947.065   119157055.647 0  92849657.625 0        43.000  
        41.000                                                  
  24341395.868    24341391.901   127914889.664 0  99673459.088 0        41.000  
        38.000                                                  
 21 12 30  4  1  0.0000000  0  0
 21 12 30  4  1  1.0000000  0  6E03E05E08E13E15E18
  23443178.587                   123194899.702 0                        48.000  
                  23443178.015    94396301.544          53.000  
  26146005.526                   137397979.591 0                        42.000  
                  26146005.669   105279315.893          47.000  
  23290029.248                   122389286.395 0                        47.000  
                  23290026.818    93778806.026          51.000  
  24923351.295                   130973398.027 0                        45.000  
                  24923350.991   100356242.534          50.000  
  23112046.703                   121454496.825 0                        48.000  
                  23112046.739    93062540.459          53.000  
  20907448.562                   109869945.014 0                        47.000  
                  20907447.114    84186061.036          51.000  
 21 12 30  4  1  2.0000000  0  9G01G03G04G17G19G21G22G31G32
  20084824.931    20084822.269   105546480.624 0  82244409.437 0        49.000  
        49.000                                                  
  20587266.691    20587263.099   108186112.261 0  84300871.425 0        50.000  
        49.000                                                  
  22337946.655    22337942.634   117385996.323 0  91469608.917 0        45.000  
        46.000                                                  
  22637682.415    22637676.375   118962015.717 0  92697675.142 0        46.000  
        43.000                                                  
  23420700.624                   123076078.657 0                        41.000  
                                                                
  21612920.447                   113576015.407 0                        48.000  
                                                                
  20595112.746                   108228046.344 0                        45.000  
                                                                
  22674786.547    22674780.972   119156183.054 0  92848977.663 0        43.000  
        41.000                                                  
  24342028.806    24342024.857   127918216.049 0  99676051.072 0        41.000  
        38.000                                                  
 21 12 30  4  1  1.0000000  0  0
 21 12 30  4  1  2.0000000  0  6E03E05E08E13E15E18
  23443223.063                   123195133.898 0                        48.000  
                  23443222.652    94396480.999          53.000  
  26146473.034                   137400436.156 0                        42.000  
                  26146473.159   105281198.196          47.000  
  23289600.821                   122387035.406 0                        47.000  
                  23289598.480    93777081.247          51.000  
  24922953.674                   130971308.527 0                        45.000  
                  24922953.263   100354641.488          50.000  
  23112159.296                   121455089.590 0                        48.000  
                  23112159.528    93062994.653          53.000  
  20908385.845                   109874869.978 0                        47.000  
                  20908384.291    84189834.705          51.000  
 21 12 30  4  1  3.0000000  0  9G01G03G04G17G19G21G22G31G32
  20084995.973    20084993.293   105547379.352 0  82245109.742 0        49.000  
        49.000                                                  
  20587064.485    20587060.947   108185050.008 0  84300043.700 0        50.000  
        49.000                                                  
  22337359.943    22337355.941   117382913.122 0  91467206.422 0        45.000  
        46.000                                                  
  22637533.709    22637527.597   118961233.915 0  92697065.948 0        46.000  
        43.000                                                  
  23420272.143                   123073827.550 0                        41.000  
                                                                
  21613269.286                   113577848.812 0                        48.000  
                                                                
  20595178.344                   108228390.954 0                        45.000  
                                                                
  22674620.580    22674615.058   119155310.909 0  92848298.075 0        43.000  
        40.000                                                  
  24342661.727    24342657.778   127921542.378 0  99678643.008 0        41.000  
        38.000                                                  
 21 12 30  4  1  2.0000000  0  0
 21 12 30  4  1  3.0000000  0  6E03E05E08E13E15E18
  23443267.735                   123195368.266 0                        48.000  
                  23443267.181    94396660.576          53.000  
  26146940.291                   137402892.621 0                        42.000  
                  26146940.612   105283080.426          47.000  
  23289172.607                   122384784.458 0                        47.000  
                  23289170.177    93775356.493          51.000  
  24922555.891                   130969219.050 0                        45.000  
                  24922555.659   100353040.463          50.000  
  23112272.175                   121455682.545 0                        48.000  
                  23112272.389    93063448.995          53.000  
  20909323.004                   109879795.606 0                        47.000  
                  20909321.610    84193608.896          51.000  
 21 12 30  4  1  4.0000000  0  9G01G03G04G17G19G21G22G31G32
  20085167.141    20085164.460   105548278.960 0  82245810.730 0        49.000  
        49.000                                                  
  20586862.458    20586858.937   108183988.410 0  84299216.474 0        50.000  
        49.000                                                  
  22336773.464    22336769.408   117379830.572 0  91464804.431 0        45.000  
        46.000                                                  
  22637385.110    22637378.999   118960453.023 0  92696457.454 0        46.000  
        43.000                                                  
  23419844.073                   123071577.318 0                        41.000  
                                                                
  21613618.322                   113579682.919 0                        48.000  
                                                                
  20595244.102                   108228736.198 0                        45.000  
                                                                
  22674454.809    22674449.198   119154439.719 0  92847619.243 0        43.000  
        40.000                                                  
  24343294.791    24343290.878   127924869.121 0  99681235.286 0        41.000  
        39.000                                                  
 21 12 30  4  1  3.0000000  0  0
 21 12 30  4  1  4.0000000  0  6E03E05E08E13E15E18
  23443312.533                   123195603.319 0                        48.000  
                  23443311.836    94396840.676          53.000  
  26147407.941                   137405349.552 0                        42.000  
                  26147408.173   105284963.006          47.000  
  23288744.376                   122382534.082 0                        47.000  
                  23288741.982    93773632.185          51.000  
  24922158.359                   130967130.140 0                        45.000  
                  24922158.091   100351439.866          50.000  
  23112385.321                   121456276.239 0                        48.000  
                  23112385.304    93063903.910          53.000  
  20910260.628                   109884722.454 0                        47.000  
                  20910259.109    84197384.006          51.000  
 21 12 30  4  1  5.0000000  0  9G01G03G04G17G19G21G22G31G32
  20085338.469    20085335.824   105549179.360 0  82246512.343 0        50.000  
        49.000                                                  
  20586660.681    20586656.964   108182927.372 0  84298389.696 0        50.000  
        49.000                                                  
  22336186.896    22336183.000   117376748.570 0  91462402.876 0        45.000  
        46.000                                                  
  22637236.743    22637230.596   118959672.959 0  92695849.621 0        46.000  
        43.000                                                  
  23419415.877                   123069327.876 0                        41.000  
                                                                
  21613967.429                   113581517.627 0                        48.000  
                                                                
  20595309.931                   108229081.990 0                        45.000  
                                                                
  22674289.235    22674283.642   119153569.388 0  92846941.065 0        43.000  
        40.000                                                  
  24343927.873    24343923.977   127928196.249 0  99683827.860 0        41.000  
        39.000                                                  
 21 12 30  4  1  4.0000000  0  0
 21 12 30  4  1  5.0000000  0  6E03E05E08E13E15E18
  23443357.295                   123195838.952 0                        48.000  
                  23443356.705    94397021.229          53.000  
  26147875.645                   137407806.833 0                        42.000  
                  26147875.716   105286845.855          47.000  
  23288316.163                   122380284.188 0                        47.000  
                  23288313.894    93771908.236          51.000  
  24921760.970                   130965041.693 0                        45.000  
                  24921760.666   100349839.630          50.000  
  23112498.414                   121456870.565 0                        48.000  
                  23112498.486    93064359.301          53.000  
  20911198.483                   109889650.408 0                        47.000  
                  20911196.911    84201159.969          51.000  
 21 12 30  4  1  6.0000000  0  9G01G03G04G17G19G21G22G31G32
  20085509.779    20085507.260   105550079.969 0  82247214.116 0        49.000  
        49.000                                                  
  20586458.904    20586455.062   108181866.299 0  84297562.888 0        50.000  
        49.000                                                  
  22335600.470    22335596.503   117373666.554 0  91460001.307 0        45.000  
        46.000                                                  
  22637088.377    22637082.230   118958893.123 0  92695241.955 0        46.000  
        43.000                                                  
  23418987.896                   123067078.665 0                        41.000  
                                                                
  21614316.554                   113583352.350 0                        48.000  
                                                                
  20595375.653                   108229427.739 0                        45.000  
                                                                
  22674123.660    22674118.139   119152699.359 0  92846263.123 0        43.000  
        40.000                                                  
  24344560.901    24344557.184   127931523.132 0  99686420.242 0        41.000  
        39.000                                                  
 21 12 30  4  1  5.0000000  0  0
 21 12 30  4  1  6.0000000  0  6E03E05E08E13E15E18
  23443401.985                   123196074.582 0                        48.000  
                  23443401.610    94397201.777          53.000  
  26148342.812                   137410263.855 0                        42.000  
                  26148343.277   105288728.518          47.000  
  23287887.950                   122378034.191 0                        47.000  
                  23287885.734    93770184.210          51.000  
  24921363.474                   130962953.122 0                        45.000  
                  24921363.456   100348239.295          50.000  
  23112611.472                   121457464.949 0                        48.000  
                  23112611.579    93064814.731          53.000  
  20912136.267                   109894578.887 0                        47.000  
                  20912134.749    84204936.339          51.000  
 21 12 30  4  1  7.0000000  0  9G01G03G04G17G19G21G22G31G32
  20085681.268    20085678.695   105550980.768 0  82247916.033 0        50.000  
        49.000                                                  
  20586256.930    20586253.106   108180805.190 0  84296736.046 0        50.000  
        49.000                                                  
  22335014.009    22335009.935   117370584.483 0  91457599.691 0        45.000  
        46.000                                                  
  22636940.010    22636933.828   118958113.511 0  92694634.465 0        46.000  
        43.000                                                  
  23418559.772                   123064829.613 0                        42.000  
                                                                
  21614665.643                   113585187.067 0                        48.000  
                                                                
  20595441.393                   108229773.411 0                        45.000  
                                                                
  22673958.139    22673952.564   119151829.591 0  92845585.373 0        43.000  
        40.000                                                  
  24345193.893    24345190.105   127934849.758 0  99689012.413 0        41.000  
        39.000                                                  
 21 12 30  4  1  6.0000000  0  0
 21 12 30  4  1  7.0000000  0  6E03E05E08E13E15E18
  23443446.747                   123196310.186 0                        48.000  
                  23443446.515    94397382.309          53.000  
  26148810.534                   137412720.646 0                        42.000  
                  26148810.731   105290610.987          47.000  
  23287459.826                   122375784.050 0                        47.000  
                  23287457.449    93768460.076          51.000  
  24920965.888                   130960864.411 0                        45.000  
                  24920965.906   100346638.852          50.000  
  23112724.654                   121458059.342 0                        48.000  
                  23112724.744    93065270.180          53.000  
  20913074.123                   109899507.869 0                        47.000  
                  20913072.783    84208713.093          51.000  
 21 12 30  4  1  8.0000000  0  9G01G03G04G17G19G21G22G31G32
  20085852.900    20085850.327   105551882.753 0  82248618.885 0        50.000  
        49.000                                                  
  20586055.207    20586051.383   108179745.036 0  84295909.958 0        50.000  
        49.000                                                  
  22334427.565    22334423.545   117367503.379 0  91455198.826 0        45.000  
        46.000                                                  
  22636791.876    22636785.765   118957335.125 0  92694027.916 0        46.000  
        43.000                                                  
  23418132.149                   123062581.787 0                        42.000  
                                                                
  21615014.947                   113587022.793 0                        48.000  
                                                                
  20595507.294                   108230120.028 0                        45.000  
                                                                
  22673792.833    22673787.294   119150961.071 0  92844908.622 0        44.000  
        40.000                                                  
  24345827.117    24345823.240   127938177.164 0  99691605.183 0        41.000  
        39.000                                                  
 21 12 30  4  1  7.0000000  0  0
 21 12 30  4  1  8.0000000  0  6E03E05E08E13E15E18
  23443491.741                   123196546.791 0                        48.000  
                  23443491.527    94397563.603          53.000  
  26149278.452                   137415178.194 0                        42.000  
                  26149278.381   105292494.043          47.000  
  23287031.684                   122373534.792 0                        47.000  
                  23287029.450    93766736.625          51.000  
  24920568.624                   130958776.569 0                        45.000  
                  24920568.534   100345039.083          50.000  
  23112837.801                   121458654.771 0                        48.000  
                  23112838.015    93065726.422          53.000  
  20914012.283                   109904438.373 0                        47.000  
                  20914010.942    84212491.014          51.000  
 21 12 30  4  1  9.0000000  0  9G01G03G04G17G19G21G22G31G32
  20086024.568    20086022.031   105552785.178 0  82249322.076 0        50.000  
        49.000                                                  
  20585853.483    20585849.677   108178685.098 0  84295084.031 0        50.000  
        49.000                                                  
  22333841.301    22333837.226   117364422.481 0  91452798.131 0        45.000  
        46.000                                                  
  22636643.921    22636637.666   118956557.199 0  92693421.764 0        46.000  
        43.000                                                  
  23417704.561                   123060334.384 0                        41.000  
                                                                
  21615364.358                   113588858.775 0                        48.000  
                                                                
  20595573.303                   108230466.842 0                        45.000  
                                                                
  22673627.670    22673622.077   119150093.102 0  92844232.276 0        43.000  
        40.000                                                  
  24346460.378    24346456.554   127941504.550 0  99694197.977 0        41.000  
        39.000                                                  
 21 12 30  4  1  8.0000000  0  0
 21 12 30  4  1  9.0000000  0  6E03E05E08E13E15E18
  23443536.986                   123196783.621 0                        48.000  
                  23443536.485    94397745.073          53.000  
  26149746.013                   137417635.736 0                        42.000  
                  26149745.995   105294377.099          47.000  
  23286603.828                   122371285.672 0                        47.000  
                  23286601.416    93765013.267          51.000  
  24920171.360                   130956688.832 0                        45.000  
                  24920171.199   100343439.393          50.000  
  23112951.287                   121459250.494 0                        48.000  
                  23112951.394    93066182.882          53.000  
  20914950.710                   109909369.634 0                        47.000  
                  20914949.263    84216269.511          51.000  
 21 12 30  4  1 10.0000000  0  9G01G03G04G17G19G21G22G31G32
  20086196.450    20086193.877   105553688.090 0  82250025.642 0        50.000  
        49.000                                                  
  20585651.813    20585648.007   108177625.399 0  84294258.293 0        50.000  
        49.000                                                  
  22333255.089    22333251.069   117361341.818 0  91450397.615 0        45.000  
        45.000                                                  
  22636496.019    22636489.711   118955779.791 0  92692815.991 0        46.000  
        43.000                                                  
  23417276.955                   123058087.477 0                        41.000  
                                                                
  21615713.894                   113590695.041 0                        48.000  
                                                                
  20595639.418                   108230813.893 0                        45.000  
                                                                
  22673462.506    22673457.056   119149225.670 0  92843556.348 0        43.000  
        40.000                                                  
  24347093.620    24347089.761   127944831.992 0  99696790.770 0        41.000  
        38.000                                                  
 21 12 30  4  1  9.0000000  0  0
 21 12 30  4  1 10.0000000  0  6E03E05E08E13E15E18
  23443582.284                   123197020.725 0                        48.000  
                  23443581.658    94397926.745          53.000  
  26150213.628                   137420093.324 0                        42.000  
                  26150213.771   105296260.177          47.000  
  23286175.919                   122369036.697 0                        47.000  
                  23286173.453    93763290.026          51.000  
  24919774.220                   130954601.254 0                        45.000  
                  24919773.917   100341839.811          50.000  
  23113064.720                   121459846.515 0                        48.000  
                  23113064.755    93066639.579          53.000  
  20915889.173                   109914301.682 0                        47.000  
                  20915887.708    84220048.610          51.000  
 21 12 30  4  1 11.0000000  0  9G01G03G04G17G19G21G22G31G32
  20086368.350    20086365.723   105554591.258 0  82250729.402 0        50.000  
        49.000                                                  
  20585450.197    20585446.427   108176565.731 0  84293432.580 0        50.000  
        49.000                                                  
  22332668.825    22332664.786   117358261.202 0  91447997.130 0        45.000  
        45.000                                                  
  22636348.170    22636341.916   118955002.681 0  92692210.453 0        46.000  
        43.000                                                  
  23416849.635                   123055840.816 0                        41.000  
                                                                
  21616063.394                   113592531.395 0                        48.000  
                                                                
  20595705.480                   108231160.947 0                        45.000  
                                                                
  22673297.414    22673291.982   119148358.579 0  92842880.700 0        44.000  
        40.000                                                  
  24347726.702    24347722.949   127948159.251 0  99699383.447 0        41.000  
        39.000                                                  
 21 12 30  4  1 10.0000000  0  0
 21 12 30  4  1 11.0000000  0  6E03E05E08E13E15E18
  23443627.367                   123197257.884 0                        48.000  
                  23443626.760    94398108.469          53.000  
  26150681.260                   137422550.725 0                        42.000  
                  26150681.331   105298143.121          47.000  
  23285747.848                   122366787.674 0                        47.000  
                  23285745.633    93761566.753          51.000  
  24919376.992                   130952513.614 0                        45.000  
                  24919376.706   100340240.195          50.000  
  23113178.098                   121460442.660 0                        48.000  
                  23113178.277    93067096.361          53.000  
  20916827.762                   109919234.322 0                        47.000  
                  20916826.493    84223828.166          51.000  
 21 12 30  4  1 12.0000000  0  9G01G03G04G17G19G21G22G31G32
  20086540.393    20086537.820   105555495.335 0  82251433.880 0        50.000  
        49.000                                                  
  20585248.688    20585244.900   108175506.747 0  84292607.400 0        50.000  
        49.000                                                  
  22332082.703    22332078.700   117355181.264 0  91445597.173 0        45.000  
        46.000                                                  
  22636200.519    22636194.229   118954226.517 0  92691605.652 0        46.000  
        43.000                                                  
  23416422.101                   123053595.109 0                        41.000  
                                                                
  21616412.930                   113594368.472 0                        48.000  
                                                                
  20595771.541                   108231508.665 0                        45.000  
                                                                
  22673132.591    22673127.158   119147492.497 0  92842205.828 0        43.000  
        40.000                                                  
  24348359.909    24348356.228   127951486.995 0  99701976.478 0        41.000  
        38.000                                                  
 21 12 30  4  1 11.0000000  0  0
 21 12 30  4  1 12.0000000  0  6E03E05E08E13E15E18
  23443672.594                   123197495.759 0                        48.000  
                  23443672.075    94398290.735          53.000  
  26151148.839                   137425008.611 0                        42.000  
                  26151149.035   105300026.442          47.000  
  23285319.921                   122364539.264 0                        47.000  
                  23285317.794    93759843.941          51.000  
  24918979.639                   130950426.564 0                        45.000  
                  24918979.531   100338641.027          50.000  
  23113291.692                   121461039.562 0                        48.000  
                  23113291.871    93067553.725          53.000  
  20917766.403                   109924168.198 0                        47.000  
                  20917765.313    84227608.670          51.000  
 21 12 30  4  1 13.0000000  0  9G01G03G04G17G19G21G22G31G32
  20086712.543    20086709.899   105556399.735 0  82252138.612 0        49.000  
        49.000                                                  
  20585047.251    20585043.463   108174447.869 0  84291782.296 0        50.000  
        49.000                                                  
  22331496.706    22331492.614   117352101.393 0  91443197.290 0        45.000  
        46.000                                                  
  22636052.992    22636046.702   118953450.719 0  92691001.120 0        46.000  
        43.000                                                  
  23415994.817                   123051349.693 0                        41.000  
                                                                
  21616762.520                   113596205.680 0                        48.000  
                                                                
  20595837.836                   108231856.459 0                        45.000  
                                                                
  22672967.820    22672962.513   119146626.802 0  92841531.266 0        43.000  
        40.000                                                  
  24348993.169    24348989.416   127954814.601 0  99704569.424 0        41.000  
        38.000                                                  
 21 12 30  4  1 12.0000000  0  0
 21 12 30  4  1 13.0000000  0  6E03E05E08E13E15E18
  23443717.981                   123197733.749 0                        48.000  
                  23443717.338    94398473.088          53.000  
  26151616.596                   137427466.370 0                        42.000  
                  26151616.685   105301909.665          47.000  
  23284892.065                   122362290.840 0                        47.000  
                  23284889.831    93758121.132          51.000  
  24918582.500                   130948339.499 0                        45.000  
                  24918582.321   100337041.859          50.000  
  23113405.232                   121461636.614 0                        48.000  
                  23113405.464    93068011.215          53.000  
  20918705.385                   109929102.699 0                        47.000  
                  20918704.348    84231389.656          51.000  
 21 12 30  4  1 14.0000000  0  9G01G03G04G17G19G21G22G31G32
  20086884.747    20086882.192   105557304.866 0  82252843.906 0        49.000  
        49.000                                                  
  20584845.778    20584842.061   108173389.481 0  84290957.576 0        50.000  
        49.000                                                  
  22330910.656    22330906.653   117349022.047 0  91440797.802 0        45.000  
        46.000                                                  
  22635905.555    22635899.175   118952675.672 0  92690397.202 0        46.000  
        43.000                                                  
  23415567.765                   123049105.019 0                        41.000  
                                                                
  21617112.109                   113598043.437 0                        48.000  
                                                                
  20595904.130                   108232204.737 0                        45.000  
                                                                
  22672803.193    22672797.886   119145761.924 0  92840857.327 0        43.000  
        40.000                                                  
  24349626.447    24349622.766   127958142.527 0  99707162.631 0        41.000  
        39.000                                                  
 21 12 30  4  1 13.0000000  0  0
 21 12 30  4  1 14.0000000  0  6E03E05E08E13E15E18
  23443763.350                   123197972.255 0                        48.000  
                  23443762.779    94398655.842          53.000  
  26152084.371                   137429924.422 0                        42.000  
                  26152084.461   105303793.103          47.000  
  23284464.459                   122360042.850 0                        47.000  
                  23284461.904    93756398.644          51.000  
  24918185.629                   130946252.851 0                        45.000  
                  24918185.325   100335442.987          50.000  
  23113518.950                   121462234.247 0                        48.000  
                  23113519.182    93068469.139          53.000  
  20919644.795                   109934038.268 0                        47.000  
                  20919643.509    84235171.453          51.000  
 21 12 30  4  1 15.0000000  0  9G01G03G04G17G19G21G22G31G32
  20087057.112    20087054.503   105558210.695 0  82253549.744 0        49.000  
        50.000                                                  
  20584644.465    20584640.677   108172331.542 0  84290133.205 0        50.000  
        49.000                                                  
  22330324.713    22330320.764   117345943.139 0  91438398.655 0        45.000  
        46.000                                                  
  22635758.117    22635751.881   118951901.365 0  92689793.850 0        46.000  
        43.000                                                  
  23415140.606                   123046861.046 0                        41.000  
                                                                
  21617461.877                   113599881.696 0                        48.000  
                                                                
  20595970.513                   108232553.449 0                        45.000  
                                                                
  22672638.780    22672633.491   119144897.820 0  92840184.015 0        44.000  
        40.000                                                  
  24350259.797    24350256.134   127961470.705 0  99709756.012 0        41.000  
        38.000                                                  
 21 12 30  4  1 14.0000000  0  0
 21 12 30  4  1 15.0000000  0  6E03E05E08E13E15E18
  23443808.863                   123198211.257 0                        48.000  
                  23443808.237    94398838.967          53.000  
  26152552.343                   137432382.736 0                        42.000  
                  26152552.397   105305676.744          47.000  
  23284036.621                   122357795.233 0                        46.000  
                  23284034.155    93754676.439          51.000  
  24917788.811                   130944166.549 0                        45.000  
                  24917788.239   100333844.399          50.000  
  23113632.919                   121462832.410 0                        48.000  
                  23113632.919    93068927.468          53.000  
  20920584.080                   109938974.826 0                        46.000  
                  20920582.865    84238954.009          51.000  
 21 12 30  4  1 16.0000000  0  9G01G03G04G17G19G21G22G31G32
  20087229.601    20087226.921   105559116.999 0  82254255.956 0        49.000  
        50.000                                                  
  20584443.153    20584439.364   108171273.864 0  84289309.043 0        50.000  
        49.000                                                  
  22329738.930    22329734.749   117342864.494 0  91435999.709 0        45.000  
        46.000                                                  
  22635610.823    22635604.730   118951127.548 0  92689190.881 0        46.000  
        43.000                                                  
  23414713.769                   123044617.558 0                        41.000  
                                                                
  21617811.628                   113601720.257 0                        48.000  
                                                                
  20596036.950                   108232902.393 0                        45.000  
                                                                
  22672474.367    22672469.203   119144034.270 0  92839511.118 0        43.000  
        40.000                                                  
  24350893.200    24350889.412   127964798.918 0  99712349.416 0        41.000  
        38.000                                                  
 21 12 30  4  1 15.0000000  0  0
 21 12 30  4  1 16.0000000  0  6E03E05E08E13E15E18
  23443854.393                   123198450.523 0                        48.000  
                  23443853.732    94399022.303          53.000  
  26153019.886                   137434841.084 0                        42.000  
                  26153020.083   105307560.420          47.000  
  23283608.998                   122355547.774 0                        46.000  
                  23283606.568    93752954.365          51.000  
  24917391.815                   130942080.417 0                        45.000  
                  24917391.261   100332245.930          50.000  
  23113746.959                   121463430.900 0                        48.000  
                  23113746.869    93069386.051          53.000  
  20921523.759                   109943912.203 0                        47.000  
                  20921522.472    84242737.182          51.000  
 21 12 30  4  1 17.0000000  0  9G01G03G04G17G19G21G22G31G32
  20087402.109    20087399.536   105560024.028 0  82254962.725 0        49.000  
        50.000                                                  
  20584241.948    20584238.177   108170216.665 0  84288485.246 0        50.000  
        49.000                                                  
  22329153.202    22329148.984   117339786.337 0  91433601.147 0        45.000  
        46.000                                                  
  22635463.582    22635457.703   118950354.512 0  92688588.508 0        46.000  
        43.000                                                  
  23414287.039                   123042374.779 0                        41.000  
                                                                
  21618161.539                   113603559.343 0                        48.000  
                                                                
  20596103.441                   108233251.806 0                        45.000  
                                                                
  22672310.187    22672305.023   119143171.522 0  92838838.844 0        43.000  
        40.000                                                  
  24351526.657    24351522.726   127968127.404 0  99714943.051 0        41.000  
        38.000                                                  
 21 12 30  4  1 16.0000000  0  0
 21 12 30  4  1 17.0000000  0  6E03E05E08E13E15E18
  23443899.977                   123198690.300 0                        48.000  
                  23443899.262    94399206.026          53.000  
  26153487.822                   137437299.709 0                        42.000  
                  26153487.965   105309444.297          47.000  
  23283181.142                   122353300.714 0                        46.000  
                  23283179.069    93751232.596          51.000  
  24916995.016                   130939994.673 0                        45.000  
                  24916994.354   100330647.760          50.000  
  23113860.695                   121464029.944 0                        48.000  
                  23113860.892    93069845.056          53.000  
  20922463.526                   109948850.595 0                        46.000  
                  20922462.168    84246521.152          51.000  
 21 12 30  4  1 18.0000000  0  9G01G03G04G17G19G21G22G31G32
  20087574.795    20087572.186   105560931.589 0  82255669.917 0        49.000  
        50.000                                                  
  20584040.939    20584037.097   108169159.785 0  84287661.711 0        50.000  
        49.000                                                  
  22328567.491    22328563.327   117336708.479 0  91431202.810 0        45.000  
        46.000                                                  
  22635316.645    22635310.677   118949582.030 0  92687986.569 0        46.000  
        44.000                                                  
  23413860.130                   123040132.553 0                        41.000  
                                                                
  21618511.522                   113605398.782 0                        48.000  
                                                                
  20596170.003                   108233601.510 0                        45.000  
                                                                
  22672146.220    22672141.074   119142309.387 0  92838167.046 0        43.000  
        40.000                                                  
  24352160.078    24352156.093   127971456.007 0  99717536.775 0        41.000  
        38.000                                                  
 21 12 30  4  1 17.0000000  0  0
 21 12 30  4  1 18.0000000  0  6E03E05E08E13E15E18
  23443945.829                   123198930.417 0                        48.000  
                  23443945.043    94399390.016          53.000  
  26153955.776                   137439758.434 0                        42.000  
                  26153955.848   105311328.257          47.000  
  23282753.625                   122351053.892 0                        46.000  
                  23282751.499    93749511.001          51.000  
  24916598.270                   130937909.140 0                        45.000  
                  24916597.483   100329049.757          50.000  
  23113974.807                   121464629.373 0                        48.000  
                  23113974.896    93070304.361          53.000  
  20923403.383                   109953789.841 0                        47.000  
                  20923402.079    84250305.771          51.000  
 21 12 30  4  1 19.0000000  0  9G01G03G04G17G19G21G22G31G32
  20087747.517    20087744.944   105561839.480 0  82256377.365 0        49.000  
        50.000                                                  
  20583839.823    20583836.035   108168102.993 0  84286838.241 0        50.000  
        49.000                                                  
  22327981.816    22327977.616   117333630.707 0  91428804.550 0        45.000  
        46.000                                                  
  22635169.744    22635163.686   118948809.900 0  92687384.907 0        46.000  
        43.000                                                  
  23413433.632                   123037890.637 0                        41.000  
                                                                
  21618861.558                   113607238.355 0                        48.000  
                                                                
  20596236.476                   108233951.282 0                        45.000  
                                                                
  22671982.308    22671977.090   119141447.648 0  92837495.549 0        43.000  
        40.000                                                  
  24352793.517    24352789.479   127974784.491 0  99720130.405 0        41.000  
        38.000                                                  
 21 12 30  4  1 18.0000000  0  0
 21 12 30  4  1 19.0000000  0  6E03E05E08E13E15E18
  23443991.395                   123199170.648 0                        48.000  
                  23443990.805    94399574.087          53.000  
  26154423.694                   137442217.058 0                        42.000  
                  26154423.748   105313212.132          47.000  
  23282326.073                   122348807.076 0                        46.000  
                  23282323.929    93747789.414          51.000  
  24916201.452                   130935823.613 0                        46.000  
                  24916200.809   100327451.751          50.000  
  23114088.811                   121465228.966 0                        48.000  
                  23114089.043    93070763.789          53.000  
  20924343.508                   109958729.736 0                        47.000  
                  20924342.079    84254090.887          51.000  
 21 12 30  4  1 20.0000000  0  9G01G03G04G17G19G21G22G31G32
  20087920.471    20087917.845   105562748.080 0  82257085.362 0        49.000  
        50.000                                                  
  20583638.797    20583635.098   108167046.671 0  84286015.128 0        50.000  
        49.000                                                  
  22327396.194    22327391.995   117330553.430 0  91426406.663 0        45.000  
        45.000                                                  
  22635022.968    22635016.946   118948038.513 0  92686783.820 0        46.000  
        44.000                                                  
  23413007.009                   123035649.449 0                        41.000  
                                                                
  21619211.773                   113609078.454 0                        48.000  
                                                                
  20596303.127                   108234301.508 0                        45.000  
                                                                
  22671818.503    22671813.196   119140586.701 0  92836824.684 0        44.000  
        40.000                                                  
  24353426.938    24353422.935   127978113.244 0  99722724.245 0        41.000  
        38.000                                                  
 21 12 30  4  1 19.0000000  0  0
 21 12 30  4  1 20.0000000  0  6E03E05E08E13E15E18
  23444037.372                   123199411.379 0                        48.000  
                  23444036.568    94399758.547          53.000  
  26154891.756                   137444675.929 0                        42.000  
                  26154891.595   105315096.202          47.000  
  23281898.593                   122346560.653 0                        46.000  
                  23281896.323    93746068.131          51.000  
  24915804.671                   130933738.458 0                        46.000  
                  24915803.849   100325854.035          50.000  
  23114203.137                   121465829.104 0                        48.000  
                  23114203.209    93071223.638          53.000  
  20925283.758                   109963670.648 0                        47.000  
                  20925282.240    84257876.781          51.000  
 21 12 30  4  1 21.0000000  0  9G01G03G04G17G19G21G22G31G32
  20088093.426    20088090.799   105563657.016 0  82257793.627 0        49.000  
        50.000                                                  
  20583437.788    20583434.160   108165990.454 0  84285192.107 0        50.000  
        49.000                                                  
  22326810.716    22326806.445   117327476.241 0  91424008.851 0        45.000  
        46.000                                                  
  22634876.210    22634870.241   118947267.493 0  92686183.038 0        46.000  
        44.000                                                  
  23412580.494                   123033408.593 0                        42.000  
                                                                
  21619561.952                   113610918.696 0                        48.000  
                                                                
  20596369.761                   108234651.832 0                        45.000  
                                                                
  22671654.787    22671649.497   119139726.162 0  92836154.146 0        44.000  
        40.000                                                  
  24354060.431    24354056.357   127981441.883 0  99725317.978 0        41.000  
        38.000                                                  
 21 12 30  4  1 20.0000000  0  0
 21 12 30  4  1 21.0000000  0  6E03E05E08E13E15E18
  23444083.152                   123199652.241 0                        48.000  
                  23444082.348    94399943.104          53.000  
  26155359.531                   137447134.695 0                        42.000  
                  26155359.459   105316980.204          47.000  
  23281471.058                   122344314.244 0                        46.000  
                  23281468.753    93744346.866          51.000  
  24915407.996                   130931653.315 0                        46.000  
                  24915407.031   100324256.335          50.000  
  23114317.356                   121466429.428 0                        48.000  
                  23114317.445    93071683.622          53.000  
  20926224.116                   109968612.219 0                        47.000  
                  20926222.651    84261663.179          51.000  
 21 12 30  4  1 22.0000000  0  9G01G03G04G17G19G21G22G31G32
  20088266.594    20088264.039   105564566.880 0  82258502.616 0        49.000  
        50.000                                                  
  20583237.012    20583233.170   108164934.960 0  84284369.641 0        50.000  
        49.000                                                  
  22326225.273    22326220.966   117324399.774 0  91421611.604 0        45.000  
        46.000                                                  
  22634729.701    22634723.644   118946497.455 0  92685583.004 0        46.000  
        44.000                                                  
  23412154.371                   123031168.690 0                        42.000  
                                                                
  21619912.292                   113612759.705 0                        48.000  
                                                                
  20596436.555                   108235002.856 0                        45.000  
                                                                
  22671491.249    22671485.978   119138866.645 0  92835484.399 0        44.000  
        41.000                                                  
  24354693.905    24354689.831   127984771.058 0  99727912.134 0        41.000  
        38.000                                                  
 21 12 30  4  1 21.0000000  0  0
 21 12 30  4  1 22.0000000  0  6E03E05E08E13E15E18
  23444129.290                   123199893.849 0                        48.000  
                  23444128.379    94400128.223          53.000  
  26155827.646                   137449593.986 0                        42.000  
                  26155827.413   105318864.589          47.000  
  23281043.721                   122342068.476 0                        46.000  
                  23281041.541    93742626.074          51.000  
  24915011.447                   130929568.798 0                        46.000  
                  24915010.285   100322659.100          50.000  
  23114431.914                   121467030.526 0                        48.000  
                  23114431.878    93072144.210          53.000  
  20927164.866                   109973555.045 0                        47.000  
                  20927163.222    84265450.537          51.000  
 21 12 30  4  1 23.0000000  0  9G01G03G04G17G19G21G22G31G32
  20088439.799    20088437.154   105565477.554 0  82259212.223 0        49.000  
        50.000                                                  
  20583036.235    20583032.447   108163880.008 0  84283547.601 0        50.000  
        49.000                                                  
  22325639.973    22325635.684   117321323.838 0  91419214.789 0        45.000  
        46.000                                                  
  22634583.283    22634577.297   118945728.228 0  92684983.620 0        46.000  
        44.000                                                  
  23411728.248                   123028929.586 0                        42.000  
                                                                
  21620262.650                   113614601.303 0                        48.000  
                                                                
  20596503.421                   108235354.409 0                        45.000  
                                                                
  22671327.891    22671322.566   119138008.011 0  92834815.340 0        44.000  
        41.000                                                  
  24355327.380    24355323.377   127988100.542 0  99730506.560 0        41.000  
        38.000                                                  
 21 12 30  4  1 22.0000000  0  0
 21 12 30  4  1 23.0000000  0  6E03E05E08E13E15E18
  23444175.088                   123200136.029 0                        48.000  
                  23444174.481    94400313.794          53.000  
  26156295.510                   137452053.608 0                        42.000  
                  26156295.528   105320749.235          47.000  
  23280616.294                   122339823.174 0                        46.000  
                  23280614.328    93740905.654          51.000  
  24914614.808                   130927484.732 0                        46.000  
                  24914613.825   100321062.223          50.000  
  23114546.312                   121467632.267 0                        48.000  
                  23114546.294    93072605.278          53.000  
  20928105.599                   109978498.980 0                        47.000  
                  20928103.955    84269238.745          51.000  
 21 12 30  4  1 24.0000000  0  9G01G03G04G17G19G21G22G31G32
  20088613.146    20088610.448   105566388.448 0  82259922.008 0        49.000  
        50.000                                                  
  20582835.512    20582831.653   108162825.068 0  84282725.572 0        50.000  
        49.000                                                  
  22325054.620    22325050.367   117318247.929 0  91416817.965 0        45.000  
        46.000                                                  
  22634436.989    22634431.003   118944959.282 0  92684384.435 0        46.000  
        44.000                                                  
  23411302.072                   123026690.716 0                        42.000  
                                                                
  21620612.972                   113616442.954 0                        48.000  
                                                                
  20596570.376                   108235705.956 0                        45.000  
                                                                
  22671164.550    22671159.314   119137149.690 0  92834146.505 0        44.000  
        40.000                                                  
  24355960.926    24355956.977   127991429.865 0  99733100.831 0        41.000  
        38.000                                                  
 21 12 30  4  1 23.0000000  0  0
 21 12 30  4  1 24.0000000  0  6E03E05E08E13E15E18
  23444221.190                   123200378.230 0                        48.000  
                  23444220.583    94400499.379          53.000  
  26156763.536                   137454513.025 0                        42.000  
                  26156763.518   105322633.728          47.000  
  23280188.902                   122337577.790 0                        46.000  
                  23280187.044    93739185.165          51.000  
  24914218.437                   130925400.584 0                        46.000  
                  24914217.240   100319465.276          50.000  
  23114660.745                   121468234.070 0                        48.000  
                  23114660.870    93073066.402          53.000  
  20929046.617                   109983443.449 0                        47.000  
                  20929044.866    84273027.367          51.000  
 21 12 30  4  1 25.0000000  0  9G01G03G04G17G19G21G22G31G32
  20088786.583    20088783.777   105567299.688 0  82260632.072 0        49.000  
        50.000                                                  
  20582634.754    20582630.984   108161770.248 0  84281903.632 0        50.000  
        49.000                                                  
  22324469.230    22324464.995   117315172.134 0  91414421.244 0        45.000  
        46.000                                                  
  22634290.785    22634284.799   118944190.709 0  92683785.533 0        46.000  
        44.000                                                  
  23410876.271                   123024452.181 0                        41.000  
                                                                
  21620963.420                   113618284.763 0                        48.000  
                                                                
  20596637.260                   108236057.594 0                        45.000  
                                                                
  22671001.299    22670996.027   119136291.778 0  92833478.014 0        44.000  
        41.000                                                  
  24356594.401    24356590.541   127994759.076 0  99735695.037 0        41.000  
        38.000                                                  
 21 12 30  4  1 24.0000000  0  0
 21 12 30  4  1 25.0000000  0  6E03E05E08E13E15E18
  23444267.346                   123200620.580 0                        48.000  
                  23444266.703    94400685.074          53.000  
  26157231.651                   137456972.348 0                        42.000  
                  26157231.615   105324518.151          47.000  
  23279761.600                   122335332.452 0                        46.000  
                  23279759.689    93737464.703          51.000  
  24913821.781                   130923316.439 0                        46.000  
                  24913820.637   100317868.336          50.000  
  23114775.214                   121468836.066 0                        48.000  
                  23114775.393    93073527.674          53.000  
  20929987.797                   109988388.593 0                        47.000  
                  20929985.974    84276816.499          51.000  
 21 12 30  4  1 26.0000000  0  9G01G03G04G17G19G21G22G31G32
  20088960.127    20088957.375   105568211.703 0  82261342.733 0        49.000  
        50.000                                                  
  20582434.049    20582430.297   108160715.965 0  84281082.111 0        50.000  
        48.000                                                  
  22323884.056    22323879.749   117312096.879 0  91412024.944 0        45.000  
        46.000                                                  
  22634144.759    22634138.648   118943422.940 0  92683187.285 0        46.000  
        44.000                                                  
  23410450.417                   123022214.455 0                        41.000  
                                                                
  21621313.974                   113620127.168 0                        48.000  
                                                                
  20596704.304                   108236409.760 0                        45.000  
                                                                
  22670838.154    22670832.883   119135434.743 0  92832810.187 0        44.000  
        41.000                                                  
  24357228.001    24357224.177   127998088.624 0  99738289.488 0        41.000  
        38.000                                                  
 21 12 30  4  1 25.0000000  0  0
 21 12 30  4  1 26.0000000  0  6E03E05E08E13E15E18
  23444313.555                   123200863.499 0                        48.000  
                  23444312.930    94400871.207          53.000  
  26157699.676                   137459432.018 0                        42.000  
                  26157699.587   105326402.821          47.000  
  23279334.513                   122333087.558 0                        46.000  
                  23279332.547    93735744.600          51.000  
  24913425.303                   130921232.763 0                        46.000  
                  24913424.034   100316271.754          50.000  
  23114889.987                   121469438.687 0                        48.000  
                  23114890.130    93073989.420          53.000  
  20930929.065                   109993334.817 0                        47.000  
                  20930927.171    84280606.462          51.000  
 21 12 30  4  1 27.0000000  0  9G01G03G04G17G19G21G22G31G32
  20089133.760    20089131.115   105569124.466 0  82262053.975 0        49.000  
        50.000                                                  
  20582233.577    20582229.842   108159662.187 0  84280260.985 0        50.000  
        48.000                                                  
  22323298.952    22323294.646   117309022.126 0  91409629.032 0        45.000  
        46.000                                                  
  22633998.733    22633992.712   118942655.943 0  92682589.618 0        46.000  
        44.000                                                  
  23410024.544                   123019977.452 0                        42.000  
                                                                
  21621664.636                   113621970.111 0                        48.000  
                                                                
  20596771.510                   108236762.410 0                        45.000  
                                                                
  22670675.332    22670669.882   119134578.509 0  92832142.992 0        44.000  
        41.000                                                  
  24357861.672    24357857.812   128001418.472 0  99740884.159 0        41.000  
        38.000                                                  
 21 12 30  4  1 26.0000000  0  0
 21 12 30  4  1 27.0000000  0  6E03E05E08E13E15E18
  23444359.961                   123201106.947 0                        48.000  
                  23444359.175    94401057.745          53.000  
  26158167.827                   137461891.980 0                        42.000  
                  26158167.684   105328287.724          47.000  
  23278907.140                   122330843.078 0                        46.000  
                  23278905.371    93734024.808          51.000  
  24913029.075                   130919149.490 0                        46.000  
                  24913027.592   100314675.475          50.000  
  23115004.867                   121470041.878 0                        48.000  
                  23115004.884    93074451.596          53.000  
  20931870.441                   109998282.083 0                        47.000  
                  20931868.601    84284397.231          51.000  
 21 12 30  4  1 28.0000000  0  9G01G03G04G17G19G21G22G31G32
  20089307.358    20089304.767   105570037.311 0  82262765.278 0        49.000  
        49.000                                                  
  20582032.997    20582029.387   108158608.277 0  84279439.752 0        50.000  
        48.000                                                  
  22322713.885    22322709.543   117305947.226 0  91407233.015 0        45.000  
        45.000                                                  
  22633852.869    22633846.811   118941889.086 0  92681992.070 0        46.000  
        44.000                                                  
  23409598.833                   123017740.566 0                        42.000  
                                                                
  21622015.280                   113623812.976 0                        47.000  
                                                                
  20596838.572                   108237114.911 0                        45.000  
                                                                
  22670512.474    22670507.024   119133722.451 0  92831475.952 0        44.000  
        41.000                                                  
  24358495.236    24358491.394   128004747.970 0  99743478.582 0        41.000  
        38.000                                                  
 21 12 30  4  1 27.0000000  0  0
