     2.11           OBSERVATION DATA    M (Mixed)           RINEX VERSION / TYPE
RTCM3TORINEX on                         2022-01-19 03:59    PGM / RUN BY / DATE
RTCM3TORINEX                                                MARKER NAME
                                                            OBSERVER / AGENCY
                                                            REC # / TYPE / VERS
                                                            ANT # / TYPE
         .0000         .0000         .0000                  APPROX POSITION XYZ
         .0000         .0000         .0000                  ANTENNA: DELTA H/E/N
     1     1                                                WAVELENGTH FACT L1/2
     9    C1    C2    L1    L2    S1    S2    C7    L7    S7# / TYPES OF OBSERV
  2022     1    19     3    59   20.0010000     GPS         TIME OF FIRST OBS
                                                            END OF HEADER
 22  1 19  3 59 20.0010000  0  8E03E07E08E13E15E24E25E26
  24327240.492                   127841024.168 0                        47.000  
                  24327238.420    97956115.384          51.000  
  27391910.805                   143945637.635 0                        42.000  
                  27391909.608   110296009.164          46.000  
  21856338.425                   114855492.677 0                        48.000  
                  21856336.102    88006162.969          53.000  
  23748778.316                   124800551.382 0                        48.000  
                  23748776.404    95626398.065          53.000  
  24521714.305                   128862823.215 0                        46.000  
                  24521714.716    98739048.554          51.000  
  28672866.387                   150677226.154 0                        35.000  
                  28672863.153   115453978.815          41.000  
  28277627.168                   148599265.268 0                        34.000  
                  28277628.044   113861774.616          43.000  
  27492686.770                   144474601.832 0                        42.000  
                  27492683.589   110701319.007          44.000  
 22  1 19  3 59 21.0010000  0  9G01G03G04G06G09G17G19G21G31
  22073460.098    22073457.150   115996566.124 0  90386936.584 0        45.000  
        45.000                                                  
  20395381.403    20395378.204   107178266.90410  83515728.541 0        49.000  
        48.000                                                  
  20442383.795    20442379.006   107425047.305 0  83707835.501 0        48.000  
        50.000                                                  
  23116818.733    23116815.642   121480221.644 0  94659129.922 0        45.000  
        43.000                                                  
  22384595.044    22384590.452   117632471.398 0  91661669.955 0        47.000  
        44.000                                                  
  23221928.829    23221922.164   122031320.089 0  95090383.594 0        44.000  
        41.000                                                  
  22818100.722                   119910511.127 0                        45.000  
                                                                
  24074737.653                   126513585.803 0                        41.000  
                                                                
  23372628.896    23372622.195   122823489.846 0  95706620.257 0        42.000  
        39.000                                                  
 22  1 19  3 59 20.0000000  0  0
 22  1 19  3 59 21.0010000  0  8E03E07E08E13E15E24E25E26
  24327538.780                   127842592.387 0                        47.000  
                  24327536.832    97957317.006          51.000  
  27391436.883                   143943147.130 0                        42.000  
                  27391435.578   110294100.855          46.000  
  21856164.845                   114854581.147 0                        48.000  
                  21856162.701    88005464.525          53.000  
  23748716.650                   124800228.050 0                        48.000  
                  23748714.899    95626150.321          53.000  
  24522178.810                   128865263.106 0                        46.000  
                  24522179.007    98740918.083          51.000  
  28672802.434                   150676890.571 0                        35.000  
                  28672799.181   115453721.677          41.000  
  28277201.474                   148597029.227 0                        34.000  
                  28277202.654   113860061.277          43.000  
  27492177.234                   144471923.831 0                        42.000  
                  27492173.929   110699267.023          44.000  
 22  1 19  3 59 22.0010000  0  9G01G03G04G06G09G17G19G21G31
  22074079.224    22074076.205   115999819.635 0  90389471.792 0        45.000  
        45.000                                                  
  20395505.217    20395502.019   107178917.46510  83516235.468 0        49.000  
        48.000                                                  
  20442210.966    20442206.266   107424139.137 0  83707127.847 0        48.000  
        50.000                                                  
  23116245.298    23116242.332   121477208.537 0  94656782.044 0        45.000  
        43.000                                                  
  22384061.993    22384057.401   117629670.379 0  91659487.350 0        47.000  
        44.000                                                  
  23222289.766    23222283.172   122033216.934 0  95091861.667 0        44.000  
        41.000                                                  
  22818291.456                   119911513.558 0                        45.000  
                                                                
  24075352.508                   126516816.640 0                        41.000  
                                                                
  23373066.259    23373059.611   122825788.503 0  95708411.393 0        42.000  
        39.000                                                  
 22  1 19  3 59 21.0000000  0  0
 22  1 19  3 59 22.0010000  0  8E03E07E08E13E15E24E25E26
  24327837.211                   127844160.900 0                        47.000  
                  24327835.388    97958518.862          51.000  
  27390962.907                   143940656.846 0                        42.000  
                  27390961.728   110292192.727          46.000  
  21855991.480                   114853670.006 0                        48.000  
                  21855989.389    88004766.383          53.000  
  23748655.288                   124799905.287 0                        48.000  
                  23748653.608    95625903.012          53.000  
  24522643.065                   128867703.423 0                        46.000  
                  24522643.405    98742787.936          51.000  
  28672738.820                   150676555.530 0                        35.000  
                  28672735.443   115453464.984          41.000  
  28276776.013                   148594793.474 0                        34.000  
                  28276777.246   113858348.174          43.000  
  27491667.860                   144469246.094 0                        42.000  
                  27491664.465   110697215.257          44.000  
 22  1 19  3 59 23.0010000  0  9G01G03G04G06G09G17G19G21G31
  22074698.493    22074695.313   116003073.082 0  90392006.940 0        45.000  
        45.000                                                  
  20395629.032    20395625.833   107179567.99410  83516742.371 0        50.000  
        48.000                                                  
  20442038.226    20442033.526   107423231.095 0  83706420.273 0        48.000  
        50.000                                                  
  23115671.846    23115668.933   121474195.352 0  94654434.119 0        45.000  
        43.000                                                  
  22383528.924    22383524.404   117626869.272 0  91657304.660 0        47.000  
        44.000                                                  
  23222650.738    23222644.055   122035113.821 0  95093339.760 0        44.000  
        41.000                                                  
  22818482.243                   119912516.235 0                        45.000  
                                                                
  24075967.274                   126520047.239 0                        41.000  
                                                                
  23373503.746    23373497.009   122828087.305 0  95710202.688 0        42.000  
        39.000                                                  
 22  1 19  3 59 22.0000000  0  0
 22  1 19  3 59 23.0010000  0  8E03E07E08E13E15E24E25E26
  24328135.909                   127845729.189 0                        47.000  
                  24328133.765    97959720.537          51.000  
  27390489.074                   143938166.285 0                        42.000  
                  27390487.805   110290284.368          46.000  
  21855818.115                   114852758.740 0                        48.000  
                  21855815.899    88004068.131          53.000  
  23748593.926                   124799582.588 0                        48.000  
                  23748591.996    95625655.747          53.000  
  24523107.392                   128870143.642 0                        46.000  
                  24523107.767    98744657.715          51.000  
  28672674.902                   150676220.569 0                        35.000  
                  28672671.847   115453208.294          41.000  
  28276350.498                   148592557.521 0                        34.000  
                  28276351.677   113856634.900          43.000  
  27491158.218                   144466568.143 0                        42.000  
                  27491154.858   110695163.325          44.000  
 22  1 19  3 59 24.0010000  0  9G01G03G04G06G09G17G19G21G31
  22075317.673    22075314.546   116006326.737 0  90394542.256 0        45.000  
        45.000                                                  
  20395752.882    20395749.683   107180218.75210  83517249.458 0        50.000  
        48.000                                                  
  20441865.575    20441860.751   107422323.406 0  83705712.980 0        48.000  
        50.000                                                  
  23115098.447    23115095.498   121471182.336 0  94652086.317 0        45.000  
        43.000                                                  
  22382995.927    22382991.406   117624068.335 0  91655122.111 0        47.000  
        44.000                                                  
  23223011.692    23223005.116   122037010.988 0  95094818.073 0        44.000  
        41.000                                                  
  22818673.102                   119913519.426 0                        45.000  
                                                                
  24076582.130                   126523277.834 0                        41.000  
                                                                
  23373941.269    23373934.496   122830386.505 0  95711994.261 0        42.000  
        39.000                                                  
 22  1 19  3 59 23.0000000  0  0
 22  1 19  3 59 24.0010000  0  8E03E07E08E13E15E24E25E26
  24328434.340                   127847297.538 0                        47.000  
                  24328432.195    97960922.258          51.000  
  27390014.973                   143935675.711 0                        42.000  
                  27390013.883   110288376.006          46.000  
  21855644.714                   114851847.611 0                        48.000  
                  21855642.516    88003370.000          53.000  
  23748532.564                   124799260.222 0                        48.000  
                  23748530.759    95625408.739          53.000  
  24523571.915                   128872584.044 0                        46.000  
                  24523572.183    98746527.633          51.000  
  28672611.289                   150675885.930 0                        35.000  
                  28672608.072   115452951.892          41.000  
  28275925.054                   148590321.641 0                        34.000  
                  28275926.216   113854921.696          43.000  
  27490648.682                   144463890.248 0                        42.000  
                  27490645.144   110693111.424          44.000  
 22  1 19  3 59 25.0010000  0  9G01G03G04G06G09G17G19G21G31
  22075936.942    22075933.868   116009581.075 0  90397078.111 0        45.000  
        45.000                                                  
  20395876.875    20395873.712   107180870.24310  83517757.104 0        50.000  
        48.000                                                  
  20441692.978    20441688.154   107421416.559 0  83705006.343 0        48.000  
        50.000                                                  
  23114525.119    23114522.296   121468169.990 0  94649739.030 0        45.000  
        43.000                                                  
  22382462.948    22382458.552   117621268.055 0  91652940.080 0        47.000  
        44.000                                                  
  23223372.879    23223366.231   122038908.919 0  95096296.975 0        44.000  
        41.000                                                  
  22818864.301                   119914523.621 0                        45.000  
                                                                
  24077196.949                   126526508.929 0                        41.000  
                                                                
  23374378.917    23374372.198   122832686.593 0  95713786.535 0        42.000  
        39.000                                                  
 22  1 19  3 59 24.0000000  0  0
 22  1 19  3 59 25.0010000  0  8E03E07E08E13E15E24E25E26
  24328732.770                   127848866.417 0                        47.000  
                  24328730.751    97962124.382          51.000  
  27389541.158                   143933185.593 0                        42.000  
                  27389540.068   110286467.998          46.000  
  21855471.527                   114850937.111 0                        48.000  
                  21855469.312    88002672.342          53.000  
  23748471.309                   124798938.674 0                        48.000  
                  23748469.575    95625162.353          53.000  
  24524036.474                   128875025.100 0                        46.000  
                  24524036.688    98748398.051          51.000  
  28672547.961                   150675552.095 0                        35.000  
                  28672544.387   115452696.092          41.000  
  28275499.664                   148588086.328 0                        34.000  
                  28275500.826   113853208.919          43.000  
  27490139.219                   144461212.898 0                        42.000  
                  27490135.699   110691059.937          44.000  
 22  1 19  3 59 26.0010000  0  9G01G03G04G06G09G17G19G21G31
  22076556.371    22076553.369   116012835.880 0  90399614.311 0        45.000  
        45.000                                                  
  20396000.922    20395997.741   107181522.21310  83518265.140 0        50.000  
        48.000                                                  
  20441520.524    20441515.682   107420510.339 0  83704300.203 0        48.000  
        50.000                                                  
  23113951.952    23113949.111   121465158.061 0  94647392.085 0        45.000  
        43.000                                                  
  22381930.094    22381925.894   117618468.219 0  91650758.382 0        47.000  
        44.000                                                  
  23223734.065    23223727.561   122040807.396 0  95097776.310 0        44.000  
        41.000                                                  
  22819055.535                   119915528.587 0                        46.000  
                                                                
  24077811.858                   126529740.282 0                        41.000  
                                                                
  23374816.690    23374810.007   122834987.347 0  95715579.337 0        42.000  
        39.000                                                  
 22  1 19  3 59 25.0000000  0  0
 22  1 19  3 59 26.0010000  0  8E03E07E08E13E15E24E25E26
  24329031.362                   127850435.599 0                        47.000  
                  24329029.342    97963326.744          51.000  
  27389067.415                   143930695.737 0                        42.000  
                  27389066.235   110284560.191          46.000  
  21855298.216                   114850027.003 0                        48.000  
                  21855296.107    88001974.991          53.000  
  23748410.232                   124798617.712 0                        48.000  
                  23748408.463    95624916.431          53.000  
  24524501.211                   128877466.605 0                        46.000  
                  24524501.247    98750268.812          51.000  
  28672484.544                   150675218.848 0                        35.000  
                  28672480.881   115452440.744          41.000  
  28275074.399                   148585851.358 0                        34.000  
                  28275075.454   113851496.394          43.000  
  27489629.844                   144458535.856 0                        42.000  
                  27489626.163   110689008.704          44.000  
 22  1 19  3 59 27.0010000  0  9G01G03G04G06G09G17G19G21G31
  22077175.730    22077172.799   116016090.876 0  90402150.674 0        45.000  
        45.000                                                  
  20396124.986    20396121.806   107182174.43610  83518773.360 0        50.000  
        48.000                                                  
  20441348.213    20441343.317   107419604.487 0  83703594.342 0        48.000  
        50.000                                                  
  23113378.768    23113375.980   121462146.333 0  94645045.276 0        45.000  
        43.000                                                  
  22381397.400    22381393.129   117615668.553 0  91648576.822 0        47.000  
        44.000                                                  
  23224095.448    23224088.944   122042706.184 0  95099255.887 0        44.000  
        41.000                                                  
  22819246.984                   119916534.073 0                        46.000  
                                                                
  24078426.838                   126532971.653 0                        41.000  
                                                                
  23375254.588    23375247.816   122837288.509 0  95717372.467 0        42.000  
        39.000                                                  
 22  1 19  3 59 26.0000000  0  0
 22  1 19  3 59 27.0010000  0  8E03E07E08E13E15E24E25E26
  24329329.953                   127852004.839 0                        47.000  
                  24329327.934    97964529.151          51.000  
  27388593.510                   143928205.864 0                        42.000  
                  27388592.438   110282652.359          46.000  
  21855124.958                   114849117.039 0                        48.000  
                  21855122.992    88001277.742          53.000  
  23748349.192                   124798297.095 0                        48.000  
                  23748347.512    95624670.756          53.000  
  24524965.681                   128879908.275 0                        46.000  
                  24524965.931    98752139.704          51.000  
  28672421.091                   150674885.914 0                        35.000  
                  28672417.571   115452185.630          41.000  
  28274649.117                   148583616.406 0                        34.000  
                  28274650.117   113849783.907          43.000  
  27489120.434                   144455858.862 0                        42.000  
                  27489116.771   110686957.501          44.000  
 22  1 19  3 59 28.0010000  0  9G01G03G04G06G09G17G19G21G31
  22077795.249    22077792.264   116019346.239 0  90404687.322 0        45.000  
        45.000                                                  
  20396249.176    20396245.977   107182827.05410  83519281.894 0        50.000  
        48.000                                                  
  20441175.938    20441170.953   107418699.151 0  83702888.885 0        48.000  
        50.000                                                  
  23112805.690    23112802.867   121459134.920 0  94642698.732 0        45.000  
        43.000                                                  
  22380864.671    22380860.364   117612869.209 0  91646395.513 0        47.000  
        44.000                                                  
  23224456.778    23224450.452   122044605.403 0  95100735.789 0        44.000  
        41.000                                                  
  22819438.540                   119917540.237 0                        46.000  
                                                                
  24079041.801                   126536203.161 0                        41.000  
                                                                
  23375692.665    23375685.875   122839590.238 0  95719166.005 0        42.000  
        39.000                                                  
 22  1 19  3 59 27.0000000  0  0
 22  1 19  3 59 28.0010000  0  8E03E07E08E13E15E24E25E26
  24329628.580                   127853574.273 0                        47.000  
                  24329626.615    97965731.700          51.000  
  27388119.856                   143925716.116 0                        42.000  
                  27388118.748   110280744.642          46.000  
  21854952.057                   114848207.366 0                        48.000  
                  21854949.823    88000580.722          53.000  
  23748288.508                   124797976.958 0                        48.000  
                  23748286.561    95624425.457          53.000  
  24525430.454                   128882350.279 0                        46.000  
                  24525430.526    98754010.845          51.000  
  28672357.584                   150674553.444 0                        35.000  
                  28672354.278   115451930.885          41.000  
  28274223.816                   148581381.677 0                        34.000  
                  28274224.888   113848071.594          43.000  
  27488611.006                   144453182.061 0                        42.000  
                  27488607.218   110684906.454          44.000  
 22  1 19  3 59 29.0010000  0  9G01G03G04G06G09G17G19G21G31
  22078414.803    22078411.801   116022601.642 0  90407224.005 0        45.000  
        45.000                                                  
  20396373.401    20396370.131   107183479.72510  83519790.476 0        50.000  
        48.000                                                  
  20441003.681    20440998.713   107417794.008 0  83702183.586 0        48.000  
        50.000                                                  
  23112232.648    23112229.789   121456123.539 0  94640352.185 0        45.000  
        43.000                                                  
  22380332.013    22380327.635   117610069.863 0  91644214.206 0        47.000  
        44.000                                                  
  23224818.054    23224811.889   122046504.733 0  95102215.812 0        44.000  
        41.000                                                  
  22819630.042                   119918546.726 0                        46.000  
                                                                
  24079656.674                   126539434.520 0                        40.000  
                                                                
  23376130.778    23376123.970   122841892.204 0  95720959.761 0        42.000  
        39.000                                                  
 22  1 19  3 59 28.0000000  0  0
 22  1 19  3 59 29.0010000  0  8E03E07E08E13E15E24E25E26
  24329927.279                   127855143.592 0                        47.000  
                  24329925.260    97966934.168          51.000  
  27387646.041                   143923226.199 0                        42.000  
                  27387644.790   110278836.783          46.000  
  21854778.960                   114847297.678 0                        48.000  
                  21854776.655    87999883.688          53.000  
  23748227.557                   124797656.983 0                        48.000  
                  23748225.574    95624180.288          53.000  
  24525895.192                   128884792.291 0                        46.000  
                  24525895.317    98755882.000          51.000  
  28672294.364                   150674221.153 0                        35.000  
                  28672291.129   115451676.270          41.000  
  28273798.676                   148579146.868 0                        34.000  
                  28273799.427   113846359.224          43.000  
  27488101.489                   144450505.154 0                        42.000  
                  27488097.862   110682855.318          44.000  
 22  1 19  3 59 30.0010000  0  9G01G03G04G06G09G17G19G21G31
  22079034.304    22079031.410   116025857.586 0  90409761.097 0        45.000  
        45.000                                                  
  20396497.680    20396494.536   107184132.98910  83520299.513 0        50.000  
        48.000                                                  
  20440831.566    20440826.670   107416889.579 0  83701478.831 0        48.000  
        50.000                                                  
  23111659.643    23111656.855   121453112.637 0  94638006.032 0        45.000  
        42.000                                                  
  22379799.391    22379795.067   117607271.039 0  91642033.307 0        47.000  
        44.000                                                  
  23225179.616    23225173.415   122048404.718 0  95103696.294 0        44.000  
        41.000                                                  
  22819821.795                   119919554.090 0                        46.000  
                                                                
  24080271.636                   126542666.240 0                        40.000  
                                                                
  23376569.052    23376562.172   122844194.907 0  95722754.068 0        42.000  
        39.000                                                  
 22  1 19  3 59 29.0000000  0  0
 22  1 19  3 59 30.0010000  0  8E03E07E08E13E15E24E25E26
  24330225.834                   127856713.299 0                        47.000  
                  24330224.047    97968136.932          51.000  
  27387172.172                   143920736.621 0                        42.000  
                  27387171.065   110276929.160          46.000  
  21854605.880                   114846388.460 0                        48.000  
                  21854603.611    87999187.017          53.000  
  23748166.713                   124797337.694 0                        48.000  
                  23748164.962    95623935.629          53.000  
  24526359.911                   128887234.830 0                        46.000  
                  24526360.108    98757753.557          51.000  
  28672231.089                   150673889.525 0                        35.000  
                  28672228.123   115451422.159          41.000  
  28273373.465                   148576912.497 0                        34.000  
                  28273374.216   113844647.164          43.000  
  27487591.882                   144447828.635 0                        42.000  
                  27487588.559   110680804.486          44.000  
 22  1 19  3 59 31.0010000  0  9G01G03G04G06G09G17G19G21G31
  22079653.859    22079650.964   116029113.829 0  90412298.429 0        45.000  
        46.000                                                  
  20396622.031    20396618.868   107184786.59110  83520808.815 0        50.000  
        48.000                                                  
  20440659.577    20440654.717   107415985.619 0  83700774.443 0        48.000  
        50.000                                                  
  23111086.619    23111083.903   121450102.043 0  94635660.119 0        45.000  
        42.000                                                  
  22379266.841    22379262.481   117604472.490 0  91639852.622 0        47.000  
        44.000                                                  
  23225541.160    23225535.030   122050305.082 0  95105177.108 0        44.000  
        41.000                                                  
  22820013.547                   119920562.073 0                        46.000  
                                                                
  24080886.509                   126545898.045 0                        40.000  
                                                                
  23377007.325    23377000.481   122846498.135 0  95724548.791 0        42.000  
        39.000                                                  
 22  1 19  3 59 30.0000000  0  0
 22  1 19  3 59 31.0010000  0  8E03E07E08E13E15E24E25E26
  24330524.515                   127858283.156 0                        47.000  
                  24330522.692    97969339.821          51.000  
  27386698.357                   143918247.100 0                        42.000  
                  27386697.393   110275021.627          46.000  
  21854432.908                   114845479.491 0                        48.000  
                  21854430.710    87998490.534          53.000  
  23748106.119                   124797018.825 0                        48.000  
                  23748104.225    95623691.305          53.000  
  24526824.756                   128889677.640 0                        46.000  
                  24526824.989    98759625.322          51.000  
  28672168.065                   150673558.317 0                        35.000  
                  28672164.956   115451168.391          41.000  
  28272948.325                   148574678.258 0                        34.000  
                  28272949.272   113842935.219          43.000  
  27487082.687                   144445152.283 0                        42.000  
                  27487079.202   110678753.774          44.000  
 22  1 19  3 59 32.0010000  0  9G01G03G04G06G09G17G19G21G31
  22080273.521    22080270.787   116032370.542 0  90414836.130 0        45.000  
        45.000                                                  
  20396746.489    20396743.433   107185440.68210  83521318.496 0        50.000  
        48.000                                                  
  20440487.641    20440482.781   107415082.279 0  83700070.545 0        48.000  
        50.000                                                  
  23110513.899    23110511.093   121447091.888 0  94633314.533 0        45.000  
        42.000                                                  
  22378734.397    22378730.091   117601674.373 0  91637672.271 0        47.000  
        44.000                                                  
  23225902.793    23225896.699   122052205.985 0  95106658.334 0        44.000  
        41.000                                                  
  22820205.532                   119921570.840 0                        46.000  
                                                                
  24081501.632                   126549130.152 0                        40.000  
                                                                
  23377445.759    23377438.808   122848802.020 0  95726344.006 0        42.000  
        39.000                                                  
 22  1 19  3 59 31.0000000  0  0
 22  1 19  3 59 32.0010000  0  8E03E07E08E13E15E24E25E26
  24330823.321                   127859853.335 0                        47.000  
                  24330821.463    97970542.934          51.000  
  27386224.596                   143915757.843 0                        42.000  
                  27386223.595   110273114.272          46.000  
  21854260.115                   114844570.919 0                        48.000  
                  21854257.828    87997794.355          53.000  
  23748045.454                   124796700.555 0                        48.000  
                  23748043.703    95623447.438          53.000  
  24527289.672                   128892120.892 0                        46.000  
                  24527289.905    98761497.423          51.000  
  28672105.220                   150673227.689 0                        35.000  
                  28672101.968   115450915.054          41.000  
  28272523.275                   148572444.397 0                        34.000  
                  28272524.150   113841223.537          43.000  
  27486573.580                   144442476.248 0                        42.000  
                  27486569.917   110676703.286          44.000  
 22  1 19  3 59 33.0010000  0  9G01G03G04G06G09G17G19G21G31
  22080893.344    22080890.556   116035627.756 0  90417374.223 0        45.000  
        45.000                                                  
  20396871.072    20396868.052   107186095.32510  83521828.606 0        50.000  
        49.000                                                  
  20440315.866    20440310.917   107414179.601 0  83699367.160 0        48.000  
        51.000                                                  
  23109941.018    23109938.337   121444082.186 0  94630969.317 0        45.000  
        42.000                                                  
  22378202.044    22378197.737   117598876.735 0  91635492.295 0        47.000  
        44.000                                                  
  23226264.605    23226258.565   122054107.481 0  95108140.008 0        44.000  
        41.000                                                  
  22820397.677                   119922580.416 0                        46.000  
                                                                
  24082116.791                   126552362.532 0                        40.000  
                                                                
  23377884.319    23377877.332   122851106.613 0  95728139.786 0        42.000  
        39.000                                                  
 22  1 19  3 59 32.0000000  0  0
 22  1 19  3 59 33.0010000  0  8E03E07E08E13E15E24E25E26
  24331122.270                   127861423.858 0                        47.000  
                  24331120.358    97971746.315          51.000  
  27385750.995                   143913268.893 0                        42.000  
                  27385749.977   110271207.139          46.000  
  21854087.178                   114843662.795 0                        48.000  
                  21854085.034    87997098.513          53.000  
  23747985.110                   124796382.927 0                        48.000  
                  23747983.288    95623204.057          53.000  
  24527754.714                   128894564.624 0                        46.000  
                  24527755.000    98763369.891          51.000  
  28672042.339                   150672897.687 0                        35.000  
                  28672039.212   115450662.193          41.000  
  28272098.135                   148570210.851 0                        34.000  
                  28272099.136   113839512.127          42.000  
  27486064.277                   144439800.551 0                        42.000  
                  27486060.686   110674653.074          44.000  
 22  1 19  3 59 34.0010000  0  9G01G03G04G06G09G17G19G21G31
  22081513.238    22081510.415   116038885.264 0  90419912.536 0        45.000  
        45.000                                                  
  20396995.762    20396992.635   107186750.28210  83522338.960 0        50.000  
        48.000                                                  
  20440144.145    20440139.320   107413277.379 0  83698664.130 0        48.000  
        50.000                                                  
  23109368.262    23109365.582   121441072.768 0  94628624.318 0        45.000  
        42.000                                                  
  22377669.725    22377665.401   117596079.337 0  91633312.496 0        47.000  
        44.000                                                  
  23226626.542    23226620.502   122056009.350 0  95109621.993 0        44.000  
        41.000                                                  
  22820589.912                   119923590.594 0                        46.000  
                                                                
  24082731.807                   126555595.021 0                        40.000  
                                                                
  23378322.986    23378316.088   122853411.695 0  95729935.963 0        42.000  
        39.000                                                  
 22  1 19  3 59 33.0000000  0  0
 22  1 19  3 59 34.0010000  0  8E03E07E08E13E15E24E25E26
  24331421.147                   127862994.510 0                        47.000  
                  24331419.253    97972949.810          51.000  
  27385277.288                   143910779.962 0                        42.000  
                  27385276.233   110269300.063          46.000  
  21853914.385                   114842754.894 0                        48.000  
                  21853912.241    87996402.851          53.000  
  23747924.820                   124796065.705 0                        48.000  
                  23747922.908    95622960.985          53.000  
  24528219.952                   128897008.609 0                        46.000  
                  24528220.041    98765242.557          51.000  
  28671979.243                   150672568.105 0                        35.000  
                  28671976.384   115450409.644          41.000  
  28271673.138                   148567977.469 0                        34.000  
                  28271674.121   113837800.850          43.000  
  27485555.314                   144437124.991 0                        42.000  
                  27485551.597   110672602.967          44.000  
 22  1 19  3 59 35.0010000  0  9G01G03G04G06G09G17G19G21G31
  22082133.097    22082130.363   116042142.947 0  90422451.000 0        45.000  
        45.000                                                  
  20397120.487    20397117.396   107187405.44810  83522849.480 0        49.000  
        48.000                                                  
  20439972.513    20439967.671   107412375.491 0  83697961.365 0        48.000  
        50.000                                                  
  23108795.488    23108792.879   121438063.491 0  94626279.441 0        45.000  
        43.000                                                  
  22377137.318    22377133.101   117593282.109 0  91631132.845 0        47.000  
        45.000                                                  
  23226988.568    23226982.493   122057911.477 0  95111104.161 0        44.000  
        41.000                                                  
  22820782.183                   119924601.253 0                        46.000  
                                                                
  24083346.806                   126558827.489 0                        40.000  
                                                                
  23378761.545    23378754.933   122855717.159 0  95731732.438 0        42.000  
        39.000                                                  
 22  1 19  3 59 34.0000000  0  0
 22  1 19  3 59 35.0010000  0  8E03E07E08E13E15E24E25E26
  24331720.060                   127864565.191 0                        47.000  
                  24331718.076    97974153.315          51.000  
  27384803.741                   143908291.036 0                        42.000  
                  27384802.615   110267392.952          46.000  
  21853741.752                   114841847.105 0                        48.000  
                  21853739.536    87995707.279          53.000  
  23747864.494                   124795748.796 0                        48.000  
                  23747862.618    95622718.164          53.000  
  24528685.154                   128899452.758 0                        46.000  
                  24528685.047    98767115.342          51.000  
  28671916.523                   150672238.789 0                        35.000  
                  28671913.700   115450157.316          41.000  
  28271248.338                   148565744.116 0                        34.000  
                  28271249.035   113836089.600          42.000  
  27485046.029                   144434449.464 0                        42.000  
                  27485042.348   110670552.888          44.000  
 22  1 19  3 59 36.0010000  0  9G01G03G04G06G09G17G19G21G31
  22082753.098    22082750.400   116045400.828 0  90424989.599 0        45.000  
        46.000                                                  
  20397245.177    20397242.086   107188060.85110  83523360.182 0        50.000  
        49.000                                                  
  20439800.917    20439796.146   107411473.958 0  83697258.874 0        48.000  
        50.000                                                  
  23108222.929    23108220.142   121435054.382 0  94623934.662 0        45.000  
        43.000                                                  
  22376605.143    22376600.925   117590485.037 0  91628953.294 0        47.000  
        45.000                                                  
  23227350.577    23227344.430   122059813.883 0  95112586.564 0        44.000  
        41.000                                                  
  22820974.722                   119925612.432 0                        46.000  
                                                                
  24083961.911                   126562059.951 0                        40.000  
                                                                
  23379200.301    23379193.689   122858023.008 0  95733529.201 0        42.000  
        39.000                                                  
 22  1 19  3 59 35.0000000  0  0
 22  1 19  3 59 36.0010000  0  8E03E07E08E13E15E24E25E26
  24332019.098                   127866135.907 0                        47.000  
                  24332016.972    97975356.853          51.000  
  27384330.051                   143905802.063 0                        42.000  
                  27384329.068   110265485.824          46.000  
  21853568.959                   114840939.448 0                        48.000  
                  21853566.707    87995011.799          53.000  
  23747804.490                   124795432.201 0                        48.000  
                  23747802.292    95622475.583          53.000  
  24529150.302                   128901897.050 0                        47.000  
                  24529150.213    98768988.248          51.000  
  28671853.874                   150671909.788 0                        35.000  
                  28671851.158   115449905.242          41.000  
  28270823.520                   148563510.868 0                        34.000  
                  28270824.181   113834378.390          42.000  
  27484536.976                   144431773.968 0                        42.000  
                  27484533.277   110668502.835          44.000  
 22  1 19  3 59 37.0010000  0  9G01G03G04G06G09G17G19G21G31
  22083373.243    22083370.437   116048659.081 0  90427528.500 0        45.000  
        46.000                                                  
  20397369.993    20397366.901   107188716.65310  83523871.199 0        50.000  
        48.000                                                  
  20439629.499    20439624.639   107410572.962 0  83696556.792 0        48.000  
        50.000                                                  
  23107650.370    23107647.582   121432045.630 0  94621590.180 0        45.000  
        43.000                                                  
  22376072.949    22376068.750   117587688.302 0  91626774.023 0        47.000  
        45.000                                                  
  23227712.693    23227706.492   122061716.735 0  95114069.304 0        44.000  
        41.000                                                  
  22821167.243                   119926624.283 0                        46.000  
                                                                
  24084576.998                   126565292.577 0                        40.000  
                                                                
  23379639.236    23379632.588   122860329.446 0  95735326.414 0        42.000  
        39.000                                                  
 22  1 19  3 59 36.0000000  0  0
 22  1 19  3 59 37.0010000  0  8E03E07E08E13E15E24E25E26
  24332317.904                   127867706.838 0                        47.000  
                  24332316.045    97976560.553          51.000  
  27383856.504                   143903313.255 0                        42.000  
                  27383855.414   110263578.811          46.000  
  21853396.273                   114840032.107 0                        48.000  
                  21853394.128    87994316.562          53.000  
  23747744.093                   124795116.123 0                        48.000  
                  23747742.163    95622233.391          53.000  
  24529615.469                   128904341.719 0                        47.000  
                  24529615.487    98770861.425          51.000  
  28671791.422                   150671581.308 0                        35.000  
                  28671788.563   115449653.545          41.000  
  28270398.630                   148561277.847 0                        34.000  
                  28270399.130   113832667.369          43.000  
  27484027.941                   144429098.708 0                        42.000  
                  27484024.100   110666452.958          44.000  
 22  1 19  3 59 38.0010000  0  9G01G03G04G06G09G17G19G21G31
  22083993.405    22083990.778   116051918.085 0  90430067.979 0        45.000  
        46.000                                                  
  20397494.843    20397491.824   107189373.23610  83524382.817 0        50.000  
        48.000                                                  
  20439458.153    20439453.346   107409672.881 0  83695855.424 0        48.000  
        51.000                                                  
  23107077.989    23107075.255   121429037.586 0  94619246.247 0        45.000  
        43.000                                                  
  22375540.881    22375536.754   117584892.286 0  91624595.320 0        47.000  
        45.000                                                  
  23228074.898    23228068.769   122063620.432 0  95115552.692 0        44.000  
        41.000                                                  
  22821360.014                   119927637.213 0                        46.000  
                                                                
  24085192.282                   126568525.773 0                        40.000  
                                                                
  23380078.313    23380071.648   122862636.838 0  95737124.384 0        42.000  
        39.000                                                  
 22  1 19  3 59 37.0000000  0  0
 22  1 19  3 59 38.0010000  0  8E03E07E08E13E15E24E25E26
  24332616.870                   127869278.364 0                        47.000  
                  24332615.030    97977764.714          51.000  
  27383382.957                   143900824.977 0                        42.000  
                  27383381.920   110261672.206          46.000  
  21853223.676                   114839125.439 0                        48.000  
                  21853221.585    87993621.849          53.000  
  23747684.053                   124794800.905 0                        48.000  
                  23747682.248    95621991.855          53.000  
  24530080.724                   128906787.089 0                        47.000  
                  24530080.707    98772735.156          51.000  
  28671729.256                   150671253.704 0                        35.000  
                  28671726.325   115449402.510          41.000  
  28269973.919                   148559045.430 0                        34.000  
                  28269974.330   113830956.827          43.000  
  27483518.978                   144426424.023 0                        42.000  
                  27483515.154   110664403.531          44.000  
 22  1 19  3 59 39.0010000  0  9G01G03G04G06G09G17G19G21G31
  22084613.657    22084610.958   116055177.292 0  90432607.628 0        45.000  
        46.000                                                  
  20397619.855    20397616.782   107190030.07110  83524894.642 0        49.000  
        48.000                                                  
  20439286.986    20439282.125   107408773.165 0  83695154.355 0        48.000  
        50.000                                                  
  23106505.573    23106502.857   121426029.735 0  94616902.470 0        45.000  
        43.000                                                  
  22375008.921    22375004.668   117582096.464 0  91622416.758 0        47.000  
        45.000                                                  
  23228437.228    23228431.134   122065524.416 0  95117036.312 0        44.000  
        41.000                                                  
  22821552.749                   119928650.654 0                        46.000  
                                                                
  24085807.513                   126571758.966 0                        40.000  
                                                                
  23380517.462    23380510.762   122864944.638 0  95738922.692 0        42.000  
        39.000                                                  
 22  1 19  3 59 38.0000000  0  0
 22  1 19  3 59 39.0010000  0  8E03E07E08E13E15E24E25E26
  24332915.909                   127870849.958 0                        47.000  
                  24332914.032    97978968.920          51.000  
  27382909.481                   143898336.688 0                        42.000  
                  27382908.463   110259765.597          46.000  
  21853051.329                   114838218.941 0                        48.000  
                  21853049.077    87992927.253          53.000  
  23747624.245                   124794486.050 0                        48.000  
                  23747622.333    95621750.607          53.000  
  24530546.177                   128909232.655 0                        46.000  
                  24530546.213    98774609.027          51.000  
  28671666.821                   150670926.407 0                        35.000  
                  28671664.052   115449151.729          41.000  
  28269549.101                   148556813.122 0                        34.000  
                  28269549.530   113829246.333          42.000  
  27483009.979                   144423749.423 0                        42.000  
                  27483006.191   110662354.146          44.000  
 22  1 19  3 59 40.0010000  0  9G01G03G04G06G09G17G19G21G31
  22085233.962    22085231.317   116058436.915 0  90435147.585 0        46.000  
        46.000                                                  
  20397744.903    20397741.865   107190687.34410  83525406.802 0        49.000  
        48.000                                                  
  20439115.783    20439111.047   107407874.020 0  83694453.718 0        48.000  
        50.000                                                  
  23105933.175    23105930.530   121423022.275 0  94614558.980 0        45.000  
        43.000                                                  
  22374476.942    22374472.796   117579301.018 0  91620238.481 0        47.000  
        45.000                                                  
  23228799.719    23228793.536   122067428.897 0  95118520.334 0        44.000  
        41.000                                                  
  22821745.699                   119929664.817 0                        46.000  
                                                                
  24086422.833                   126574992.370 0                        40.000  
                                                                
  23380956.719    23380950.018   122867253.063 0  95740721.438 0        42.000  
        39.000                                                  
 22  1 19  3 59 39.0000000  0  0
 22  1 19  3 59 40.0010000  0  8E03E07E08E13E15E24E25E26
  24333215.000                   127872421.798 0                        47.000  
                  24333213.160    97980173.314          51.000  
  27382435.738                   143895848.599 0                        42.000  
                  27382434.934   110257859.142          46.000  
  21852878.714                   114837312.769 0                        48.000  
                  21852876.641    87992232.920          53.000  
  23747564.491                   124794171.727 0                        48.000  
                  23747562.579    95621509.758          53.000  
  24531011.701                   128911678.597 0                        46.000  
                  24531011.647    98776483.191          51.000  
  28671604.476                   150670599.641 0                        35.000  
                  28671601.832   115448901.355          41.000  
  28269124.372                   148554581.022 0                        34.000  
                  28269124.712   113827536.049          42.000  
  27482500.962                   144421075.060 0                        42.000  
                  27482497.209   110660304.975          44.000  
 22  1 19  3 59 41.0010000  0  9G01G03G04G06G09G17G19G21G31
  22085854.249    22085851.658   116061696.427 0  90437687.464 0        46.000  
        46.000                                                  
  20397869.950    20397866.912   107191344.53410  83525918.898 0        50.000  
        48.000                                                  
  20438944.705    20438940.023   107406974.926 0  83693753.130 0        48.000  
        50.000                                                  
  23105360.883    23105358.239   121420014.670 0  94612215.397 0        45.000  
        43.000                                                  
  22373944.963    22373940.728   117576505.430 0  91618060.101 0        47.000  
        45.000                                                  
  23229162.013    23229155.884   122069333.348 0  95120004.309 0        44.000  
        41.000                                                  
  22821938.756                   119930679.197 0                        46.000  
                                                                
  24087038.045                   126578225.493 0                        39.000  
                                                                
  23381395.993    23381389.274   122869561.558 0  95742520.283 0        42.000  
        39.000                                                  
 22  1 19  3 59 40.0000000  0  0
 22  1 19  3 59 41.0010000  0  8E03E07E08E13E15E24E25E26
  24333513.985                   127873993.365 0                        47.000  
                  24333512.269    97981377.505          51.000  
  27381962.030                   143893360.172 0                        42.000  
                  27381961.476   110255952.423          46.000  
  21852706.314                   114836406.435 0                        48.000  
                  21852704.313    87991538.450          53.000  
  23747504.648                   124793857.415 0                        48.000  
                  23747502.665    95621268.924          53.000  
  24531477.117                   128914124.404 0                        46.000  
                  24531477.099    98778357.244          51.000  
  28671542.382                   150670272.899 0                        34.000  
                  28671539.773   115448650.985          41.000  
  28268699.483                   148552348.731 0                        34.000  
                  28268699.876   113825825.586          42.000  
  27481991.873                   144418400.434 0                        42.000  
                  27481988.335   110658255.584          44.000  
 22  1 19  3 59 42.0010000  0  9G01G03G04G06G09G17G19G21G31
  22086474.608    22086472.017   116064956.344 0  90440227.666 0        45.000  
        46.000                                                  
  20397995.033    20397992.031   107192002.18810  83526431.354 0        50.000  
        48.000                                                  
  20438773.805    20438768.981   107406076.410 0  83693052.981 0        48.000  
        50.000                                                  
  23104788.610    23104785.930   121417007.445 0  94609872.114 0        45.000  
        43.000                                                  
  22373413.038    22373408.910   117573710.216 0  91615882.012 0        47.000  
        45.000                                                  
  23229524.469    23229518.536   122071238.301 0  95121488.694 0        44.000  
        41.000                                                  
  22822131.938                   119931694.288 0                        46.000  
                                                                
  24087653.240                   126581458.809 0                        39.000  
                                                                
  23381835.392    23381828.727   122871870.696 0  95744319.605 0        42.000  
        39.000                                                  
 22  1 19  3 59 41.0000000  0  0
 22  1 19  3 59 42.0010000  0  8E03E07E08E13E15E24E25E26
  24333813.202                   127875565.205 0                        47.000  
                  24333811.379    97982581.888          51.000  
  27381488.733                   143890871.953 0                        42.000  
                  27381487.929   110254045.861          46.000  
  21852534.039                   114835500.445 0                        48.000  
                  21852531.823    87990844.254          53.000  
  23747445.055                   124793543.643 0                        48.000  
                  23747442.857    95621028.499          53.000  
  24531942.766                   128916570.587 0                        46.000  
                  24531942.534    98780231.601          51.000  
  28671480.072                   150669946.671 0                        34.000  
                  28671477.642   115448401.026          41.000  
  28268274.807                   148550116.705 0                        34.000  
                  28268275.147   113824115.330          42.000  
  27481482.964                   144415726.080 0                        42.000  
                  27481479.443   110656206.406          44.000  
 22  1 19  3 59 43.0010000  0  9G01G03G04G06G09G17G19G21G31
  22087094.967    22087092.358   116068216.763 0  90442768.257 0        46.000  
        46.000                                                  
  20398120.331    20398117.382   107192660.37010  83526944.218 0        50.000  
        49.000                                                  
  20438602.942    20438598.028   107405178.548 0  83692353.357 0        48.000  
        50.000                                                  
  23104216.498    23104213.817   121414000.691 0  94607529.194 0        45.000  
        43.000                                                  
  22372881.167    22372877.128   117570915.473 0  91613704.293 0        47.000  
        45.000                                                  
  23229887.067    23229880.973   122073143.826 0  95122973.526 0        44.000  
        41.000                                                  
  22822325.245                   119932710.179 0                        45.000  
                                                                
  24088268.649                   126584692.448 0                        39.000  
                                                                
  23382274.970    23382268.234   122874180.521 0  95746119.452 0        42.000  
        39.000                                                  
 22  1 19  3 59 42.0000000  0  0
 22  1 19  3 59 43.0010000  0  8E03E07E08E13E15E24E25E26
  24334112.365                   127877137.386 0                        47.000  
                  24334110.542    97983786.557          51.000  
  27381015.240                   143888384.005 0                        42.000  
                  27381014.454   110252139.520          46.000  
  21852361.549                   114834594.897 0                        48.000  
                  21852359.476    87990150.391          53.000  
  23747385.283                   124793230.508 0                        48.000  
                  23747383.442    95620788.569          53.000  
  24532408.397                   128919017.262 0                        46.000  
                  24532408.022    98782106.317          51.000  
  28671418.210                   150669621.079 0                        35.000  
                  28671415.762   115448151.534          41.000  
  28267850.311                   148547885.048 0                        34.000  
                  28267850.525   113822405.359          42.000  
  27480974.179                   144413052.097 0                        42.000  
                  27480970.552   110654157.489          44.000  
 22  1 19  3 59 44.0010000  0  9G01G03G04G06G09G17G19G21G31
  22087715.487    22087712.878   116071477.542 0  90445309.115 0        45.000  
        46.000                                                  
  20398245.664    20398242.698   107193318.92810  83527457.382 0        49.000  
        49.000                                                  
  20438432.257    20438427.271   107404281.196 0  83691654.115 0        48.000  
        50.000                                                  
  23103644.385    23103641.740   121410994.282 0  94605186.527 0        45.000  
        43.000                                                  
  22372349.367    22372345.364   117568121.039 0  91611526.823 0        47.000  
        45.000                                                  
  23230249.683    23230243.697   122075049.786 0  95124458.680 0        44.000  
        41.000                                                  
  22822518.677                   119933726.763 0                        45.000  
                                                                
  24088883.951                   126587926.216 0                        39.000  
                                                                
  23382714.637    23382707.865   122876490.891 0  95747919.730 0        42.000  
        39.000                                                  
 22  1 19  3 59 43.0000000  0  0
 22  1 19  3 59 44.0010000  0  8E03E07E08E13E15E24E25E26
  24334411.439                   127878709.740 0                        47.000  
                  24334409.741    97984991.355          51.000  
  27380541.818                   143885896.188 0                        42.000  
                  27380541.121   110250233.266          46.000  
  21852189.488                   114833689.632 0                        48.000  
                  21852187.201    87989456.743          53.000  
  23747325.886                   124792917.846 0                        48.000  
                  23747323.885    95620548.992          53.000  
  24532873.814                   128921464.246 0                        47.000  
                  24532873.796    98783981.279          51.000  
  28671356.383                   150669295.928 0                        35.000  
                  28671353.917   115447902.405          41.000  
  28267425.653                   148545653.582 0                        34.000  
                  28267425.868   113820695.539          42.000  
  27480465.412                   144410378.280 0                        42.000  
                  27480461.838   110652108.730          44.000  
 22  1 19  3 59 45.0010000  0  9G01G03G04G06G09G17G19G21G31
  22088336.203    22088333.594   116074738.724 0  90447850.289 0        45.000  
        46.000                                                  
  20398371.105    20398368.120   107193977.94910  83527970.903 0        50.000  
        48.000                                                  
  20438261.608    20438256.640   107403384.435 0  83690955.342 0        48.000  
        50.000                                                  
  23103072.380    23103069.771   121407988.247 0  94602844.165 0        45.000  
        43.000                                                  
  22371817.763    22371813.653   117565327.016 0  91609349.657 0        47.000  
        45.000                                                  
  23230612.442    23230606.563   122076956.259 0  95125944.253 0        44.000  
        41.000                                                  
  22822712.288                   119934744.057 0                        45.000  
                                                                
  24089499.378                   126591160.218 0                        39.000  
                                                                
  23383154.305    23383147.640   122878801.881 0  95749720.528 0        42.000  
        39.000                                                  
 22  1 19  3 59 44.0000000  0  0
 22  1 19  3 59 45.0010000  0  8E03E07E08E13E15E24E25E26
  24334710.745                   127880282.390 0                        47.000  
                  24334708.976    97986196.366          51.000  
  27380068.289                   143883408.577 0                        42.000  
                  27380067.681   110248327.175          46.000  
  21852017.177                   114832784.715 0                        48.000  
                  21852015.015    87988763.373          53.000  
  23747266.507                   124792605.726 0                        48.000  
                  23747264.542    95620309.840          53.000  
  24533339.534                   128923911.617 0                        47.000  
                  24533339.498    98785856.541          51.000  
  28671294.574                   150668971.386 0                        35.000  
                  28671292.144   115447653.697          41.000  
  28267001.050                   148543422.444 0                        34.000  
                  28267001.371   113818985.955          42.000  
  27479956.717                   144407704.733 0                        42.000  
                  27479953.125   110650060.159          44.000  
 22  1 19  3 59 46.0010000  0  9G01G03G04G06G09G17G19G21G31
  22088956.866    22088954.221   116078000.146 0  90450391.668 0        45.000  
        45.000                                                  
  20398496.527    20398493.597   107194637.23810  83528484.639 0        50.000  
        49.000                                                  
  20438090.941    20438086.062   107402488.066 0  83690256.880 0        48.000  
        50.000                                                  
  23102500.410    23102497.855   121404982.451 0  94600501.977 0        45.000  
        43.000                                                  
  22371286.017    22371281.978   117562533.201 0  91607172.663 0        47.000  
        45.000                                                  
  23230975.201    23230969.465   122078863.043 0  95127430.049 0        44.000  
        41.000                                                  
  22822906.006                   119935761.920 0                        45.000  
                                                                
  24090114.716                   126594394.268 0                        39.000  
                                                                
  23383594.079    23383587.414   122881113.328 0  95751521.638 0        42.000  
        39.000                                                  
 22  1 19  3 59 45.0000000  0  0
 22  1 19  3 59 46.0010000  0  8E03E07E08E13E15E24E25E26
  24335010.104                   127881855.107 0                        47.000  
                  24335008.246    97987401.442          51.000  
  27379594.956                   143880920.981 0                        42.000  
                  27379594.384   110246421.096          46.000  
  21851845.116                   114831879.990 0                        48.000  
                  21851842.775    87988070.139          53.000  
  23747207.129                   124792293.991 0                        48.000  
                  23747205.235    95620070.975          53.000  
  24533805.594                   128926359.214 0                        47.000  
                  24533805.219    98787731.968          51.000  
  28671232.658                   150668647.148 0                        35.000  
                  28671230.424   115447405.261          41.000  
  28266576.535                   148541191.369 0                        34.000  
                  28266576.857   113817276.465          42.000  
  27479448.129                   144405031.289 0                        42.000  
                  27479444.305   110648011.681          44.000  
 22  1 19  3 59 47.0010000  0  9G01G03G04G06G09G17G19G21G31
  22089577.600    22089574.973   116081262.220 0  90452933.546 0        45.000  
        46.000                                                  
  20398622.093    20398619.252   107195297.21310  83528998.908 0        50.000  
        49.000                                                  
  20437920.595    20437915.735   107401592.511 0  83689559.043 0        48.000  
        50.000                                                  
  23101928.619    23101926.064   121401977.250 0  94598160.271 0        45.000  
        43.000                                                  
  22370754.342    22370750.518   117559740.002 0  91604996.138 0        47.000  
        45.000                                                  
  23231338.228    23231332.438   122080770.566 0  95128916.420 0        43.000  
        41.000                                                  
  22823099.885                   119936780.728 0                        45.000  
                                                                
  24090730.125                   126597628.764 0                        39.000  
                                                                
  23384034.050    23384027.475   122883425.606 0  95753323.426 0        42.000  
        39.000                                                  
 22  1 19  3 59 46.0000000  0  0
 22  1 19  3 59 47.0010000  0  8E03E07E08E13E15E24E25E26
  24335309.232                   127883428.321 0                        47.000  
                  24335307.695    97988606.889          51.000  
  27379121.570                   143878433.824 0                        42.000  
                  27379121.123   110244515.362          46.000  
  21851673.020                   114830975.854 0                        48.000  
                  21851670.804    87987377.355          53.000  
  23747148.018                   124791983.036 0                        48.000  
                  23747145.963    95619832.709          53.000  
  24534271.368                   128928807.430 0                        47.000  
                  24534271.118    98789607.877          51.000  
  28671171.260                   150668323.677 0                        34.000  
                  28671168.919   115447157.427          41.000  
  28266152.218                   148538960.856 0                        34.000  
                  28266152.218   113815567.355          42.000  
  27478939.541                   144402358.341 0                        42.000  
                  27478935.752   110645963.566          44.000  
 22  1 19  3 59 48.0010000  0  9G01G03G04G06G09G17G19G21G31
  22090198.298    22090195.725   116084524.552 0  90455475.611 0        46.000  
        46.000                                                  
  20398747.712    20398744.978   107195957.48410  83529513.396 0        49.000  
        49.000                                                  
  20437750.232    20437745.354   107400697.384 0  83688861.539 0        48.000  
        50.000                                                  
  23101356.793    23101354.363   121398972.281 0  94595818.741 0        45.000  
        43.000                                                  
  22370222.810    22370218.968   117556947.032 0  91602819.802 0        47.000  
        45.000                                                  
  23231701.362    23231695.608   122082678.436 0  95130403.078 0        43.000  
        41.000                                                  
  22823293.871                   119937800.112 0                        45.000  
                                                                
  24091345.570                   126600863.324 0                        38.000  
                                                                
  23384474.218    23384467.553   122885738.360 0  95755125.558 0        42.000  
        39.000                                                  
 22  1 19  3 59 47.0000000  0  0
 22  1 19  3 59 48.0010000  0  8E03E07E08E13E15E24E25E26
  24335608.663                   127885001.655 0                        47.000  
                  24335607.037    97989812.426          51.000  
  27378648.291                   143875946.727 0                        42.000  
                  27378647.684   110242609.646          46.000  
  21851500.977                   114830071.903 0                        48.000  
                  21851498.797    87986684.722          53.000  
  23747088.872                   124791672.469 0                        48.000  
                  23747086.942    95619594.737          53.000  
  24534737.285                   128931255.878 0                        47.000  
                  24534737.088    98791483.958          51.000  
  28671109.647                   150668000.598 0                        34.000  
                  28671107.485   115446909.861          41.000  
  28265727.739                   148536730.444 0                        34.000  
                  28265727.935   113813858.336          42.000  
  27478430.863                   144399685.499 0                        42.000  
                  27478427.128   110643915.542          44.000  
 22  1 19  3 59 49.0010000  0  9G01G03G04G06G09G17G19G21G31
  22090819.014    22090816.441   116087786.596 0  90458017.464 0        46.000  
        46.000                                                  
  20398873.367    20398870.508   107196617.49410  83530027.694 0        49.000  
        49.000                                                  
  20437579.904    20437574.937   107399802.110 0  83688163.927 0        48.000  
        50.000                                                  
  23100784.948    23100782.500   121395967.009 0  94593476.969 0        45.000  
        43.000                                                  
  22369691.296    22369687.365   117554153.740 0  91600643.206 0        47.000  
        45.000                                                  
  23232064.354    23232058.618   122084586.077 0  95131889.556 0        43.000  
        41.000                                                  
  22823487.893                   119938819.513 0                        45.000  
                                                                
  24091960.943                   126604097.395 0                        38.000  
                                                                
  23384914.368    23384907.667   122888051.004 0  95756927.630 0        42.000  
        39.000                                                  
 22  1 19  3 59 48.0000000  0  0
 22  1 19  3 59 49.0010000  0  8E03E07E08E13E15E24E25E26
  24335908.023                   127886574.522 0                        47.000  
                  24335906.415    97991017.610          51.000  
  27378174.851                   143873459.101 0                        41.000  
                  27378174.369   110240703.545          46.000  
  21851328.791                   114829167.594 0                        48.000  
                  21851326.736    87985991.812          53.000  
  23747029.618                   124791361.725 0                        48.000  
                  23747027.706    95619356.644          53.000  
  24535203.273                   128933704.003 0                        47.000  
                  24535202.898    98793359.794          51.000  
  28671047.964                   150667677.312 0                        34.000  
                  28671045.855   115446662.163          41.000  
  28265303.153                   148534499.617 0                        34.000  
                  28265303.475   113812148.988          42.000  
  27477922.239                   144397012.220 0                        42.000  
                  27477918.576   110641867.196          44.000  
 22  1 19  3 59 50.0010000  0  9G01G03G04G06G09G17G19G21G31
  22091439.874    22091437.301   116091049.072 0  90460559.653 0        46.000  
        46.000                                                  
  20398999.111    20398996.109   107197277.98610  83530542.358 0        49.000  
        49.000                                                  
  20437409.613    20437404.717   107398907.449 0  83687466.785 0        48.000  
        50.000                                                  
  23100213.211    23100210.674   121392962.158 0  94591135.533 0        45.000  
        43.000                                                  
  22369159.764    22369155.904   117551360.852 0  91598466.932 0        47.000  
        45.000                                                  
  23232427.488    23232421.823   122086494.249 0  95133376.437 0        43.000  
        41.000                                                  
  22823681.968                   119939839.674 0                        45.000  
                                                                
  24092576.352                   126607331.723 0                        38.000  
                                                                
  23385354.553    23385347.870   122890364.303 0  95758730.192 0        42.000  
        39.000                                                  
 22  1 19  3 59 49.0000000  0  0
 22  1 19  3 59 50.0010000  0  8E03E07E08E13E15E24E25E26
  24336207.490                   127888147.686 0                        47.000  
                  24336205.757    97992223.021          51.000  
  27377701.519                   143870971.686 0                        42.000  
                  27377701.126   110238797.613          46.000  
  21851156.802                   114828263.672 0                        48.000  
                  21851154.693    87985299.194          53.000  
  23746970.775                   124791051.557 0                        48.000  
                  23746968.827    95619118.983          53.000  
  24535669.029                   128936152.534 0                        47.000  
                  24535668.904    98795235.945          51.000  
  28670986.387                   150667354.623 0                        34.000  
                  28670984.475   115446414.909          41.000  
  28264878.514                   148532269.090 0                        34.000  
                  28264878.960   113810439.896          42.000  
  27477413.383                   144394339.216 0                        42.000  
                  27477409.738   110639819.039          44.000  
 22  1 19  3 59 51.0000000  0  9G01G03G04G06G09G17G19G21G31
  22092059.839    22092057.248   116094306.876 0  90463098.213 0        46.000  
        46.000                                                  
  20399124.463    20399121.425   107197936.43510  83531055.440 0        49.000  
        48.000                                                  
  20437239.196    20437234.443   107398012.437 0  83686769.374 0        48.000  
        50.000                                                  
  23099641.670    23099639.204   121389958.873 0  94588795.311 0        45.000  
        43.000                                                  
  22368628.572    22368624.748   117548569.326 0  91596291.724 0        47.000  
        45.000                                                  
  23232789.961    23232784.332   122088399.190 0  95134860.804 0        43.000  
        41.000                                                  
  22823875.579                   119940857.713 0                        45.000  
                                                                
  24093190.886                   126610561.186 0                        38.000  
                                                                
  23385794.149    23385787.484   122892674.087 0  95760530.028 0        42.000  
        39.000                                                  
 22  1 19  3 59 50.0000000  0  0
 22  1 19  3 59 51.0000000  0  8E03E07E08E13E15E24E25E26
  24336506.206                   127889717.707 0                        47.000  
                  24336504.455    97993426.022          51.000  
  27377228.240                   143868485.158 0                        41.000  
                  27377227.936   110236892.342          46.000  
  21850984.848                   114827359.184 0                        48.000  
                  21850982.543    87984606.143          53.000  
  23746911.468                   124790740.429 0                        48.000  
                  23746909.574    95618880.582          53.000  
  24536134.321                   128938597.199 0                        47.000  
                  24536133.999    98797109.124          51.000  
  28670924.703                   150667030.950 0                        34.000  
                  28670922.791   115446166.912          41.000  
  28264454.124                   148530039.244 0                        34.000  
                  28264454.589   113808731.321          42.000  
  27476904.866                   144391667.333 0                        42.000  
                  27476901.293   110637771.766          44.000  
 22  1 19  3 59 52.0000000  0  9G01G03G04G06G09G17G19G21G31
  22092680.842    22092678.304   116097570.702 0  90465641.452 0        46.000  
        46.000                                                  
  20399250.421    20399247.437   107198598.34110  83531571.199 0        49.000  
        48.000                                                  
  20437069.297    20437064.437   107397119.446 0  83686073.537 0        48.000  
        50.000                                                  
  23099070.076    23099067.521   121386955.324 0  94586454.877 0        45.000  
        43.000                                                  
  22368097.325    22368093.573   117545777.753 0  91594116.470 0        47.000  
        45.000                                                  
  23233153.220    23233147.806   122090308.885 0  95136348.881 0        43.000  
        41.000                                                  
  22824070.155                   119941879.861 0                        45.000  
                                                                
  24093806.527                   126613796.454 0                        38.000  
                                                                
  23386234.674    23386228.206   122894989.147 0  95762333.966 0        42.000  
        39.000                                                  
 22  1 19  3 59 51.0000000  0  0
 22  1 19  3 59 52.0000000  0  8E03E07E08E13E15E24E25E26
  24336805.745                   127891291.909 0                        47.000  
                  24336804.101    97994632.233          51.000  
  27376754.943                   143865998.679 0                        41.000  
                  27376754.782   110234987.116          46.000  
  21850812.876                   114826456.480 0                        48.000  
                  21850810.804    87983914.468          53.000  
  23746852.750                   124790431.884 0                        48.000  
                  23746850.856    95618644.159          53.000  
  24536600.631                   128941047.032 0                        47.000  
                  24536600.291    98798986.266          51.000  
  28670863.377                   150666709.863 0                        34.000  
                  28670861.572   115445920.879          41.000  
  28264030.075                   148527809.841 0                        34.000  
                  28264030.468   113807023.048          42.000  
  27476396.260                   144388995.409 0                        42.000  
                  27476392.990   110635724.432          44.000  
 22  1 19  3 59 53.0000000  0  9G01G03G04G06G09G17G19G21G31
  22093301.933    22093299.449   116100834.469 0  90468184.640 0        45.000  
        46.000                                                  
  20399376.326    20399373.467   107199260.21710  83532086.954 0        49.000  
        49.000                                                  
  20436899.398    20436894.449   107396226.558 0  83685377.783 0        48.000  
        50.000                                                  
  23098498.500    23098496.034   121383951.667 0  94584114.371 0        45.000  
        43.000                                                  
  22367566.133    22367562.291   117542986.056 0  91591941.127 0        47.000  
        45.000                                                  
  23233516.569    23233511.190   122092218.606 0  95137836.968 0        43.000  
        41.000                                                  
  22824264.605                   119942902.243 0                        45.000  
                                                                
  24094422.062                   126617031.478 0                        38.000  
                                                                
  23386675.253    23386668.820   122897304.329 0  95764138.014 0        42.000  
        39.000                                                  
 22  1 19  3 59 52.0000000  0  0
 22  1 19  3 59 53.0000000  0  8E03E07E08E13E15E24E25E26
  24337105.212                   127892865.889 0                        47.000  
                  24337103.603    97995838.269          51.000  
  27376281.771                   143863511.893 0                        41.000  
                  27376281.450   110233081.675          46.000  
  21850641.102                   114825553.656 0                        48.000  
                  21850639.047    87983222.691          53.000  
  23746794.051                   124790123.397 0                        48.000  
                  23746792.121    95618407.791          53.000  
  24537066.798                   128943496.783 0                        47.000  
                  24537066.422    98800863.350          51.000  
  28670802.372                   150666388.840 0                        34.000  
                  28670800.656   115445674.878          41.000  
  28263605.900                   148525580.162 0                        34.000  
                  28263606.096   113805314.631          42.000  
  27475887.797                   144386323.251 0                        42.000  
                  27475884.474   110633676.934          44.000  
 22  1 19  3 59 54.0000000  0  9G01G03G04G06G09G17G19G21G31
  22093923.042    22093920.684   116104098.688 0  90470728.178 0        46.000  
        46.000                                                  
  20399502.410    20399499.444   107199922.58110  83532603.077 0        49.000  
        48.000                                                  
  20436729.678    20436724.550   107395334.280 0  83684682.501 0        48.000  
        50.000                                                  
  23097927.030    23097924.564   121380948.461 0  94581774.204 0        45.000  
        43.000                                                  
  22367034.941    22367031.170   117540194.815 0  91589766.122 0        47.000  
        45.000                                                  
  23233880.061    23233874.611   122094128.850 0  95139325.477 0        43.000  
        41.000                                                  
  22824459.306                   119943925.394 0                        45.000  
                                                                
  24095037.632                   126620266.742 0                        38.000  
                                                                
  23387115.939    23387109.488   122899620.182 0  95765942.574 0        42.000  
        39.000                                                  
 22  1 19  3 59 53.0000000  0  0
 22  1 19  3 59 54.0000000  0  8E03E07E08E13E15E24E25E26
  24337404.839                   127894440.167 0                        47.000  
                  24337403.178    97997044.531          51.000  
  27375808.510                   143861025.373 0                        41.000  
                  27375808.296   110231176.410          46.000  
  21850469.416                   114824651.217 0                        48.000  
                  21850467.254    87982531.209          53.000  
  23746735.547                   124789815.491 0                        48.000  
                  23746733.600    95618171.861          53.000  
  24537533.054                   128945946.945 0                        47.000  
                  24537532.572    98802740.749          51.000  
  28670741.367                   150666068.354 0                        34.000  
                  28670739.669   115445429.322          41.000  
  28263181.493                   148523350.858 0                        34.000  
                  28263181.743   113803606.448          42.000  
  27475379.370                   144383651.382 0                        42.000  
                  27475376.118   110631629.663          44.000  
 22  1 19  3 59 55.0000000  0  9G01G03G04G06G09G17G19G21G31
  22094544.205    22094541.847   116107363.338 0  90473272.072 0        46.000  
        46.000                                                  
  20399628.530    20399625.528   107200585.42610  83533119.580 0        50.000  
        48.000                                                  
  20436560.048    20436554.902   107394442.607 0  83683987.693 0        48.000  
        50.000                                                  
  23097355.668    23097353.220   121377945.667 0  94579434.358 0        45.000  
        44.000                                                  
  22366503.820    22366500.085   117537403.970 0  91587591.449 0        47.000  
        45.000                                                  
  23234243.677    23234238.102   122096039.628 0  95140814.390 0        43.000  
        41.000                                                  
  22824654.257                   119944949.297 0                        45.000  
                                                                
  24095653.398                   126623502.239 0                        38.000  
                                                                
  23387556.767    23387550.388   122901936.664 0  95767747.625 0        42.000  
        39.000                                                  
 22  1 19  3 59 54.0000000  0  0
 22  1 19  3 59 55.0000000  0  8E03E07E08E13E15E24E25E26
  24337704.521                   127896014.740 0                        47.000  
                  24337702.788    97998251.025          51.000  
  27375335.481                   143858539.065 0                        41.000  
                  27375335.196   110229271.321          46.000  
  21850297.748                   114823749.164 0                        48.000  
                  21850295.604    87981840.024          53.000  
  23746676.991                   124789508.157 0                        48.000  
                  23746675.043    95617936.376          53.000  
  24537999.400                   128948397.535 0                        47.000  
                  24537998.882    98804618.470          51.000  
  28670680.594                   150665748.426 0                        34.000  
                  28670678.611   115445184.183          41.000  
  28262757.353                   148521121.854 0                        34.000  
                  28262757.711   113801898.521          42.000  
  27474870.889                   144380979.831 0                        42.000  
                  27474867.744   110629582.621          44.000  
 22  1 19  3 59 56.0000000  0  9G01G03G04G06G09G17G19G21G31
  22095165.386    22095163.063   116110628.076 0  90475816.031 0        46.000  
        46.000                                                  
  20399754.721    20399751.630   107201248.38810  83533636.178 0        49.000  
        48.000                                                  
  20436390.435    20436385.271   107393551.183 0  83683293.080 0        48.000  
        50.000                                                  
  23096784.324    23096781.858   121374942.925 0  94577094.579 0        45.000  
        44.000                                                  
  22365972.681    22365969.053   117534613.183 0  91585416.812 0        47.000  
        45.000                                                  
  23234607.330    23234601.826   122097950.570 0  95142303.429 0        43.000  
        41.000                                                  
  22824849.191                   119945973.592 0                        45.000  
                                                                
  24096269.058                   126626737.647 0                        38.000  
                                                                
  23387997.543    23387991.288   122904253.455 0  95769552.906 0        42.000  
        39.000                                                  
 22  1 19  3 59 55.0000000  0  0
 22  1 19  3 59 56.0000000  0  8E03E07E08E13E15E24E25E26
  24338004.059                   127897589.236 0                        47.000  
                  24338002.487    97999457.455          51.000  
  27374862.149                   143856052.648 0                        41.000  
                  27374861.970   110227366.125          46.000  
  21850125.973                   114822847.141 0                        48.000  
                  21850123.990    87981148.863          53.000  
  23746618.452                   124789201.044 0                        48.000  
                  23746616.575    95617701.055          53.000  
  24538465.656                   128950848.184 0                        47.000  
                  24538465.263    98806496.244          51.000  
  28670619.607                   150665428.741 0                        34.000  
                  28670617.892   115444939.225          41.000  
  28262333.214                   148518892.812 0                        34.000  
                  28262333.447   113800190.540          42.000  
  27474362.551                   144378308.198 0                        42.000  
                  27474359.424   110627535.545          44.000  
 22  1 19  3 59 57.0000000  0  9G01G03G04G06G09G17G19G21G31
  22095786.764    22095784.459   116113893.248 0  90478360.310 0        46.000  
        46.000                                                  
  20399881.001    20399877.946   107201911.80310  83534153.118 0        50.000  
        48.000                                                  
  20436220.947    20436215.694   107392660.349 0  83682598.919 0        48.000  
        50.000                                                  
  23096212.962    23096210.586   121371940.614 0  94574755.105 0        45.000  
        44.000                                                  
  22365441.721    22365438.129   117531822.793 0  91583242.477 0        47.000  
        45.000                                                  
  23234971.108    23234965.586   122099862.023 0  95143792.873 0        43.000  
        41.000                                                  
  22825044.356                   119946998.636 0                        45.000  
                                                                
  24096884.717                   126629973.270 0                        38.000  
                                                                
  23388438.622    23388432.260   122906570.854 0  95771358.687 0        42.000  
        39.000                                                  
 22  1 19  3 59 56.0000000  0  0
 22  1 19  3 59 57.0000000  0  8E03E07E08E13E15E24E25E26
  24338303.794                   127899164.007 0                        47.000  
                  24338302.132    98000664.101          51.000  
  27374389.138                   143853566.416 0                        41.000  
                  27374388.906   110225461.088          46.000  
  21849954.627                   114821945.464 0                        48.000  
                  21849952.394    87980457.966          53.000  
  23746560.252                   124788894.482 0                        48.000  
                  23746558.233    95617466.159          53.000  
  24538932.163                   128953299.232 0                        47.000  
                  24538931.609    98808374.308          51.000  
  28670558.906                   150665109.564 0                        34.000  
                  28670557.173   115444694.679          41.000  
  28261909.164                   148516664.069 0                        34.000  
                  28261909.325   113798482.795          42.000  
  27473854.517                   144375636.852 0                        42.000  
                  27473851.033   110625488.645          44.000  
 22  1 19  3 59 58.0000000  0  9G01G03G04G06G09G17G19G21G31
  22096408.213    22096405.836   116117158.843 0  90480904.932 0        46.000  
        46.000                                                  
  20400007.371    20400004.351   107202575.69210  83534670.441 0        50.000  
        48.000                                                  
  20436051.424    20436046.242   107391770.108 0  83681905.229 0        48.000  
        50.000                                                  
  23095641.815    23095639.331   121368938.691 0  94572415.947 0        45.000  
        44.000                                                  
  22364910.832    22364907.258   117529032.810 0  91581068.467 0        47.000  
        45.000                                                  
  23235334.992    23235329.381   122101773.989 0  95145282.712 0        43.000  
        41.000                                                  
  22825239.575                   119948024.423 0                        45.000  
                                                                
  24097500.519                   126633209.136 0                        38.000  
                                                                
  23388879.808    23388873.482   122908888.898 0  95773164.957 0        42.000  
        39.000                                                  
 22  1 19  3 59 57.0000000  0  0
 22  1 19  3 59 58.0000000  0  8E03E07E08E13E15E24E25E26
  24338603.422                   127900739.058 0                        47.000  
                  24338601.814    98001870.951          51.000  
  27373916.056                   143851080.404 0                        41.000  
                  27373915.788   110223556.233          46.000  
  21849783.013                   114821044.169 0                        48.000  
                  21849780.851    87979767.367          53.000  
  23746501.963                   124788588.493 0                        48.000  
                  23746500.069    95617231.700          53.000  
  24539398.687                   128955750.676 0                        47.000  
                  24539398.223    98810252.697          51.000  
  28670498.134                   150664790.998 0                        34.000  
                  28670496.508   115444450.564          40.000  
  28261485.347                   148514435.605 0                        34.000  
                  28261485.311   113796775.284          42.000  
  27473346.411                   144372965.788 0                        42.000  
                  27473342.909   110623441.988          44.000  
 22  1 19  3 59 59.0000000  0  9G01G03G04G06G09G17G19G21G31
  22097029.661    22097027.303   116120424.949 0  90483449.956 0        46.000  
        46.000                                                  
  20400133.830    20400130.721   107203240.13710  83535188.187 0        50.000  
        48.000                                                  
  20435882.151    20435877.040   107390880.544 0  83681212.065 0        48.000  
        50.000                                                  
  23095070.667    23095068.273   121365937.264 0  94570077.165 0        45.000  
        44.000                                                  
  22364379.997    22364376.530   117526243.320 0  91578894.839 0        47.000  
        45.000                                                  
  23235698.966    23235693.338   122103686.551 0  95146773.022 0        44.000  
        41.000                                                  
  22825434.973                   119949051.039 0                        45.000  
                                                                
  24098116.357                   126636445.290 0                        38.000  
                                                                
  23389321.101    23389314.704   122911207.667 0  95774971.788 0        42.000  
        39.000                                                  
 22  1 19  3 59 58.0000000  0  0
 22  1 19  3 59 59.0000000  0  8E03E07E08E13E15E24E25E26
  24338903.211                   127902314.469 0                        47.000  
                  24338901.638    98003078.089          51.000  
  27373442.991                   143848594.686 0                        41.000  
                  27373442.830   110221651.598          46.000  
  21849611.631                   114820143.329 0                        48.000  
                  21849609.433    87979077.117          53.000  
  23746443.800                   124788283.146 0                        48.000  
                  23746442.049    95616997.732          53.000  
  24539865.248                   128958202.619 0                        47.000  
                  24539864.783    98812131.463          51.000  
  28670437.772                   150664473.012 0                        34.000  
                  28670436.092   115444206.922          40.000  
  28261061.279                   148512207.540 0                        34.000  
                  28261061.244   113795068.059          42.000  
  27472838.002                   144370295.085 0                        42.000  
                  27472834.553   110621395.614          44.000  
 22  1 19  4  0  0.0000000  0  9G01G03G04G06G09G17G19G21G31
  22097651.164    22097648.912   116123691.111 0  90485995.005 0        45.000  
        46.000                                                  
  20400260.218    20400257.216   107203904.66610  83535706.000 0        50.000  
        48.000                                                  
  20435712.931    20435707.856   107389991.198 0  83680519.063 0        48.000  
        50.000                                                  
  23094499.591    23094497.339   121362935.878 0  94567738.409 0        45.000  
        44.000                                                  
  22363849.198    22363845.677   117523453.837 0  91576721.220 0        47.000  
        45.000                                                  
  23236062.941    23236057.240   122105599.251 0  95148263.440 0        43.000  
        41.000                                                  
  22825630.442                   119950078.008 0                        45.000  
                                                                
  24098732.142                   126639681.347 0                        38.000  
                                                                
  23389762.395    23389756.015   122913526.682 0  95776778.806 0        42.000  
        39.000                                                  
 22  1 19  3 59 59.0000000  0  0
 22  1 19  4  0  0.0000000  0  8E03E07E08E13E15E24E25E26
  24339202.892                   127903889.778 0                        47.000  
                  24339201.373    98004285.141          51.000  
  27372970.052                   143846108.812 0                        41.000  
                  27372969.802   110219746.837          46.000  
  21849440.035                   114819242.471 0                        48.000  
                  21849438.034    87978386.850          53.000  
  23746385.636                   124787977.986 0                        48.000  
                  23746383.903    95616763.905          53.000  
  24540331.718                   128960654.588 0                        47.000  
                  24540331.397    98814010.240          51.000  
  28670377.339                   150664155.232 0                        34.000  
                  28670375.534   115443963.421          40.000  
  28260637.104                   148509979.393 0                        34.000  
                  28260637.337   113793360.784          42.000  
  27472329.753                   144367624.294 0                        42.000  
                  27472326.322   110619349.164          44.000  
 22  1 19  4  0  1.0000000  0  9G01G03G04G06G09G17G19G21G31
  22098272.702    22098270.468   116126957.604 0  90488540.322 0        45.000  
        46.000                                                  
  20400386.802    20400383.711   107204569.53610  83536224.085 0        50.000  
        48.000                                                  
  20435543.837    20435538.672   107389102.327 0  83679826.439 0        48.000  
        50.000                                                  
  23093928.586    23093926.245   121359934.765 0  94565399.891 0        45.000  
        44.000                                                  
  22363318.488    22363314.914   117520664.652 0  91574547.829 0        47.000  
        45.000                                                  
  23236427.004    23236421.322   122107512.347 0  95149754.160 0        43.000  
        41.000                                                  
  22825825.983                   119951105.602 0                        45.000  
                                                                
  24099347.962                   126642917.471 0                        38.000  
                                                                
  23390203.849    23390197.416   122915846.211 0  95778586.226 0        42.000  
        39.000                                                  
 22  1 19  4  0  0.0000000  0  0
 22  1 19  4  0  1.0000000  0  8E03E07E08E13E15E24E25E26
  24339502.663                   127905465.248 0                        47.000  
                  24339501.269    98005492.322          51.000  
  27372496.987                   143843623.047 0                        41.000  
                  27372496.683   110217842.151          46.000  
  21849268.671                   114818341.874 0                        48.000  
                  21849266.616    87977696.777          53.000  
  23746327.794                   124787673.270 0                        48.000  
                  23746325.900    95616530.416          53.000  
  24540798.529                   128963106.842 0                        47.000  
                  24540797.993    98815889.237          51.000  
  28670316.942                   150663837.889 0                        34.000  
                  28670315.119   115443720.258          40.000  
  28260213.323                   148507751.445 0                        35.000  
                  28260213.341   113791653.642          42.000  
  27471821.558                   144364953.661 0                        41.000  
                  27471818.092   110617302.833          44.000  
 22  1 19  4  0  2.0000000  0  9G01G03G04G06G09G17G19G21G31
  22098894.312    22098892.257   116130224.366 0  90491085.856 0        45.000  
        46.000                                                  
  20400513.422    20400510.330   107205234.74610  83536742.433 0        50.000  
        48.000                                                  
  20435374.742    20435369.631   107388213.914 0  83679134.162 0        48.000  
        50.000                                                  
  23093357.600    23093355.223   121356933.930 0  94563061.583 0        45.000  
        44.000                                                  
  22362787.778    22362784.222   117517875.735 0  91572374.654 0        47.000  
        45.000                                                  
  23236791.157    23236785.510   122109425.816 0  95151245.177 0        43.000  
        41.000                                                  
  22826021.720                   119952133.813 0                        45.000  
                                                                
  24099963.764                   126646153.725 0                        38.000  
                                                                
  23390645.249    23390638.942   122918166.230 0  95780394.054 0        42.000  
        39.000                                                  
 22  1 19  4  0  1.0000000  0  0
 22  1 19  4  0  2.0000000  0  8E03E07E08E13E15E24E25E26
  24339802.541                   127907040.856 0                        47.000  
                  24339800.968    98006699.606          51.000  
  27372023.815                   143841137.340 0                        41.000  
                  27372023.655   110215937.528          46.000  
  21849097.397                   114817441.500 0                        48.000  
                  21849095.252    87977006.885          53.000  
  23746269.881                   124787368.977 0                        48.000  
                  23746268.004    95616297.261          53.000  
  24541265.268                   128965559.366 0                        47.000  
                  24541264.642    98817768.440          51.000  
  28670256.634                   150663520.942 0                        34.000  
                  28670254.811   115443477.405          40.000  
  28259789.380                   148505523.623 0                        35.000  
                  28259789.362   113789946.621          42.000  
  27471313.220                   144362283.178 0                        41.000  
                  27471309.843   110615256.614          44.000  
 22  1 19  4  0  3.0000000  0  9G01G03G04G06G09G17G19G21G31
  22099516.047    22099513.938   116133491.622 0  90493631.770 0        45.000  
        46.000                                                  
  20400640.060    20400636.968   107205900.46610  83537261.172 0        50.000  
        48.000                                                  
  20435205.772    20435200.698   107387326.147 0  83678442.395 0        48.000  
        50.000                                                  
  23092786.613    23092784.361   121353933.559 0  94560723.625 0        45.000  
        44.000                                                  
  22362257.050    22362253.655   117515087.269 0  91570201.814 0        47.000  
        45.000                                                  
  23237155.381    23237149.770   122111339.845 0  95152736.630 0        43.000  
        41.000                                                  
  22826217.457                   119953162.812 0                        45.000  
                                                                
  24100579.638                   126649390.245 0                        38.000  
                                                                
  23391086.864    23391080.521   122920486.944 0  95782202.382 0        42.000  
        39.000                                                  
 22  1 19  4  0  2.0000000  0  0
 22  1 19  4  0  3.0000000  0  8E03E07E08E13E15E24E25E26
  24340102.490                   127908616.796 0                        47.000  
                  24340100.918    98007907.135          51.000  
  27371550.858                   143838651.909 0                        41.000  
                  27371550.733   110214033.106          46.000  
  21848926.176                   114816541.560 0                        48.000  
                  21848924.103    87976317.314          53.000  
  23746212.271                   124787065.297 0                        48.000  
                  23746210.252    95616064.571          53.000  
  24541731.899                   128968012.342 0                        47.000  
                  24541731.524    98819647.992          51.000  
  28670196.308                   150663204.623 0                        34.000  
                  28670194.682   115443235.021          40.000  
  28259365.652                   148503296.166 0                        35.000  
                  28259365.545   113788239.883          42.000  
  27470804.918                   144359613.021 0                        41.000  
                  27470801.773   110613210.647          44.000  
 22  1 19  4  0  4.0000000  0  9G01G03G04G06G09G17G19G21G31
  22100137.871    22100135.691   116136759.239 0  90496177.963 0        45.000  
        46.000                                                  
  20400766.787    20400763.713   107206566.59210  83537780.231 0        50.000  
        48.000                                                  
  20435036.928    20435031.871   107386438.893 0  83677751.033 0        48.000  
        50.000                                                  
  23092215.715    23092213.500   121350933.526 0  94558385.941 0        45.000  
        44.000                                                  
  22361726.501    22361723.159   117512299.135 0  91568029.247 0        47.000  
        45.000                                                  
  23237519.766    23237514.030   122113254.320 0  95154228.438 0        44.000  
        41.000                                                  
  22826413.373                   119954192.487 0                        45.000  
                                                                
  24101195.565                   126652626.950 0                        38.000  
                                                                
  23391528.587    23391522.297   122922808.202 0  95784011.172 0        42.000  
        39.000                                                  
 22  1 19  4  0  3.0000000  0  0
 22  1 19  4  0  4.0000000  0  8E03E07E08E13E15E24E25E26
  24340402.314                   127910192.938 0                        47.000  
                  24340400.849    98009114.840          51.000  
  27371077.669                   143836166.601 0                        41.000  
                  27371077.776   110212128.796          46.000  
  21848754.865                   114815641.908 0                        48.000  
                  21848752.846    87975627.977          53.000  
  23746154.375                   124786762.118 0                        48.000  
                  23746152.588    95615832.263          53.000  
  24542198.763                   128970465.649 0                        47.000  
                  24542198.370    98821527.799          51.000  
  28670136.500                   150662888.756 0                        34.000  
                  28670134.499   115442993.000          40.000  
  28258941.727                   148501068.966 0                        35.000  
                  28258941.709   113786533.303          42.000  
  27470296.955                   144356943.083 0                        41.000  
                  27470293.739   110611164.855          44.000  
 22  1 19  4  0  5.0000000  0  9G01G03G04G06G09G17G19G21G31
  22100759.731    22100757.640   116140027.129 0  90498724.361 0        45.000  
        46.000                                                  
  20400893.532    20400890.530   107207233.01410  83538299.527 0        50.000  
        48.000                                                  
  20434868.173    20434863.134   107385552.082 0  83677060.012 0        48.000  
        50.000                                                  
  23091644.889    23091642.602   121347933.739 0  94556048.452 0        45.000  
        44.000                                                  
  22361196.005    22361192.681   117509511.257 0  91565856.872 0        47.000  
        45.000                                                  
  23237884.080    23237878.326   122115169.154 0  95155720.502 0        44.000  
        41.000                                                  
  22826609.432                   119955222.748 0                        45.000  
                                                                
  24101811.385                   126655863.750 0                        38.000  
                                                                
  23391970.398    23391964.073   122925129.964 0  95785820.337 0        42.000  
        39.000                                                  
 22  1 19  4  0  4.0000000  0  0
 22  1 19  4  0  5.0000000  0  8E03E07E08E13E15E24E25E26
  24340702.335                   127911769.200 0                        47.000  
                  24340700.816    98010322.625          51.000  
  27370604.801                   143833681.394 0                        41.000  
                  27370604.747   110210224.530          46.000  
  21848583.644                   114814742.476 0                        48.000  
                  21848581.732    87974938.807          53.000  
  23746096.801                   124786459.336 0                        49.000  
                  23746094.871    95615600.266          53.000  
  24542665.645                   128972919.212 0                        47.000  
                  24542665.163    98823407.804          51.000  
  28670076.389                   150662573.282 0                        34.000  
                  28670074.477   115442751.298          40.000  
  28258518.124                   148498841.917 0                        35.000  
                  28258517.874   113784826.856          42.000  
  27469788.778                   144354273.269 0                        41.000  
                  27469785.740   110609119.156          44.000  
 22  1 19  4  0  6.0000000  0  9G01G03G04G06G09G17G19G21G31
  22101381.590    22101379.625   116143295.559 0  90501271.187 0        45.000  
        46.000                                                  
  20401020.437    20401017.382   107207900.02610  83538819.275 0        49.000  
        48.000                                                  
  20434699.543    20434694.575   107384665.984 0  83676369.546 0        48.000  
        50.000                                                  
  23091074.189    23091071.830   121344934.478 0  94553711.351 0        45.000  
        44.000                                                  
  22360665.545    22360662.382   117506723.892 0  91563684.899 0        47.000  
        45.000                                                  
  23238248.572    23238242.854   122117084.609 0  95157213.060 0        44.000  
        41.000                                                  
  22826805.688                   119956253.863 0                        45.000  
                                                                
  24102427.438                   126659100.848 0                        38.000  
                                                                
  23392412.353    23392406.063   122927452.456 0  95787630.072 0        42.000  
        39.000                                                  
 22  1 19  4  0  5.0000000  0  0
 22  1 19  4  0  6.0000000  0  8E03E07E08E13E15E24E25E26
  24341002.338                   127913345.856 0                        47.000  
                  24341000.873    98011530.712          51.000  
  27370131.933                   143831196.497 0                        41.000  
                  27370131.951   110208320.511          46.000  
  21848412.638                   114813843.523 0                        48.000  
                  21848410.672    87974249.993          53.000  
  23746039.406                   124786157.237 0                        48.000  
                  23746037.405    95615368.783          53.000  
  24543132.563                   128975373.283 0                        47.000  
                  24543132.187    98825288.200          51.000  
  28670016.421                   150662258.533 0                        34.000  
                  28670014.652   115442510.096          40.000  
  28258094.485                   148496615.231 0                        34.000  
                  28258094.200   113783120.712          42.000  
  27469280.780                   144351603.852 0                        41.000  
                  27469277.706   110607073.756          44.000  
 22  1 19  4  0  7.0000000  0  9G01G03G04G06G09G17G19G21G31
  22102003.718    22102001.663   116146564.253 0  90503818.240 0        45.000  
        46.000                                                  
  20401147.522    20401144.377   107208567.34610  83539339.260 0        49.000  
        48.000                                                  
  20434530.967    20434525.981   107383780.318 0  83675679.419 0        48.000  
        50.000                                                  
  23090503.506    23090501.111   121341935.471 0  94551374.461 0        45.000  
        44.000                                                  
  22360135.193    22360131.994   117503936.767 0  91561513.109 0        47.000  
        45.000                                                  
  23238613.136    23238607.418   122119000.410 0  95158705.902 0        44.000  
        41.000                                                  
  22827002.086                   119957285.557 0                        45.000  
                                                                
  24103043.454                   126662338.050 0                        38.000  
                                                                
  23392854.432    23392847.982   122929775.430 0  95789440.177 0        42.000  
        39.000                                                  
 22  1 19  4  0  6.0000000  0  0
 22  1 19  4  0  7.0000000  0  8E03E07E08E13E15E24E25E26
  24341302.449                   127914922.629 0                        47.000  
                  24341300.894    98012738.891          51.000  
  27369658.868                   143828711.641 0                        41.000  
                  27369659.190   110206416.547          46.000  
  21848241.631                   114812944.783 0                        48.000  
                  21848239.576    87973561.351          53.000  
  23745981.939                   124785855.538 0                        48.000  
                  23745980.027    95615137.613          53.000  
  24543599.695                   128977827.623 0                        47.000  
                  24543599.176    98827168.788          51.000  
  28669956.613                   150661944.131 0                        34.000  
                  28669954.772   115442269.192          40.000  
  28257670.543                   148494388.712 0                        35.000  
                  28257670.543   113781414.683          42.000  
  27468772.853                   144348934.575 0                        41.000  
                  27468769.779   110605028.456          44.000  
 22  1 19  4  0  8.0000000  0  9G01G03G04G06G09G17G19G21G31
  22102625.757    22102623.756   116149833.099 0  90506365.386 0        45.000  
        46.000                                                  
  20401274.517    20401271.426   107209234.83910  83539859.387 0        50.000  
        48.000                                                  
  20434362.587    20434357.458   107382894.951 0  83674989.524 0        48.000  
        50.000                                                  
  23089932.840    23089930.535   121338936.577 0  94549037.669 0        45.000  
        44.000                                                  
  22359604.840    22359601.516   117501149.754 0  91559341.418 0        47.000  
        45.000                                                  
  23238977.843    23238972.089   122120916.441 0  95160198.913 0        44.000  
        41.000                                                  
  22827198.628                   119958317.708 0                        45.000  
                                                                
  24103659.507                   126665575.184 0                        38.000  
                                                                
  23393296.476    23393290.186   122932098.727 0  95791250.543 0        42.000  
        39.000                                                  
 22  1 19  4  0  7.0000000  0  0
 22  1 19  4  0  8.0000000  0  8E03E07E08E13E15E24E25E26
  24341602.398                   127916499.385 0                        47.000  
                  24341600.879    98013947.048          51.000  
  27369186.036                   143826226.733 0                        40.000  
                  27369186.215   110204512.517          46.000  
  21848070.732                   114812046.120 0                        48.000  
                  21848068.480    87972872.761          53.000  
  23745924.633                   124785554.106 0                        49.000  
                  23745922.632    95614906.648          53.000  
  24544066.827                   128980282.048 0                        47.000  
                  24544066.165    98829049.456          51.000  
  28669897.073                   150661630.001 0                        34.000  
                  28669894.911   115442028.495          40.000  
  28257247.011                   148492162.220 0                        35.000  
                  28257246.797   113779708.665          42.000  
  27468265.087                   144346265.265 0                        41.000  
                  27468261.781   110602983.146          44.000  
 22  1 19  4  0  9.0000000  0  9G01G03G04G06G09G17G19G21G31
  22103247.938    22103245.937   116153102.576 0  90508913.026 0        45.000  
        46.000                                                  
  20401401.673    20401398.564   107209903.01310  83540380.037 0        50.000  
        48.000                                                  
  20434194.261    20434189.079   107382010.388 0  83674300.248 0        48.000  
        50.000                                                  
  23089362.211    23089359.960   121335938.295 0  94546701.345 0        45.000  
        44.000                                                  
  22359074.523    22359071.253   117498363.352 0  91557170.204 0        47.000  
        45.000                                                  
  23239342.639    23239336.778   122122833.179 0  95161692.491 0        44.000  
        41.000                                                  
  22827395.205                   119959350.818 0                        46.000  
                                                                
  24104275.613                   126668812.772 0                        38.000  
                                                                
  23393738.699    23393732.552   122934422.872 0  95793061.578 0        42.000  
        39.000                                                  
 22  1 19  4  0  8.0000000  0  0
 22  1 19  4  0  9.0000000  0  8E03E07E08E13E15E24E25E26
  24341902.490                   127918076.636 0                        47.000  
                  24341901.097    98015155.589          51.000  
  27368713.150                   143823742.229 0                        41.000  
                  27368713.543   110202608.813          46.000  
  21847899.707                   114811148.035 0                        48.000  
                  21847897.724    87972184.622          53.000  
  23745867.345                   124785253.457 0                        49.000  
                  23745865.469    95614676.280          53.000  
  24544533.834                   128982737.096 0                        47.000  
                  24544533.494    98830930.594          51.000  
  28669837.319                   150661316.631 0                        34.000  
                  28669835.318   115441788.385          40.000  
  28256823.480                   148489936.227 0                        35.000  
                  28256823.230   113778003.024          42.000  
  27467757.124                   144343596.455 0                        41.000  
                  27467753.890   110600938.216          44.000  
 22  1 19  4  0 10.0000000  0  9G01G03G04G06G09G17G19G21G31
  22103870.156    22103868.047   116156372.297 0  90511460.867 0        45.000  
        46.000                                                  
  20401528.883    20401525.756   107210571.46010  83540900.911 0        50.000  
        48.000                                                  
  20434025.988    20434020.788   107381126.233 0  83673611.296 0        48.000  
        50.000                                                  
  23088791.725    23088789.509   121332940.260 0  94544365.212 0        45.000  
        44.000                                                  
  22358544.314    22358540.972   117495577.172 0  91554999.155 0        47.000  
        45.000                                                  
  23239707.524    23239701.610   122124750.257 0  95163186.318 0        44.000  
        41.000                                                  
  22827591.907                   119960384.478 0                        46.000  
                                                                
  24104891.701                   126672050.402 0                        38.000  
                                                                
  23394181.082    23394174.917   122936747.474 0  95794872.948 0        42.000  
        39.000                                                  
 22  1 19  4  0  9.0000000  0  0
 22  1 19  4  0 10.0000000  0  8E03E07E08E13E15E24E25E26
  24342202.672                   127919653.961 0                        47.000  
                  24342201.243    98016364.197          51.000  
  27368240.193                   143821257.778 0                        41.000  
                  27368240.675   110200705.141          46.000  
  21847728.826                   114810250.129 0                        48.000  
                  21847726.807    87971496.610          53.000  
  23745810.379                   124784953.172 0                        49.000  
                  23745808.359    95614446.183          53.000  
  24545001.109                   128985192.367 0                        47.000  
                  24545000.608    98832811.914          51.000  
  28669777.565                   150661003.599 0                        34.000  
                  28669775.707   115441548.552          40.000  
  28256399.877                   148487710.324 0                        35.000  
                  28256399.680   113776297.481          42.000  
  27467249.251                   144340927.747 0                        41.000  
                  27467246.052   110598893.353          44.000  
 22  1 19  4  0 11.0000000  0  9G01G03G04G06G09G17G19G21G31
  22104492.355    22104490.175   116159641.804 0  90514008.528 0        45.000  
        46.000                                                  
  20401656.003    20401653.001   107211239.74210  83541421.649 0        50.000  
        48.000                                                  
  20433857.769    20433852.498   107380242.030 0  83672922.302 0        48.000  
        50.000                                                  
  23088221.006    23088219.022   121329941.970 0  94542028.882 0        45.000  
        44.000                                                  
  22358014.032    22358010.727   117492790.755 0  91552827.925 0        47.000  
        45.000                                                  
  23240072.392    23240066.352   122126667.215 0  95164680.019 0        44.000  
        41.000                                                  
  22827788.609                   119961418.243 0                        46.000  
                                                                
  24105507.700                   126675287.612 0                        38.000  
                                                                
  23394623.358    23394617.229   122939072.059 0  95796684.326 0        42.000  
        39.000                                                  
 22  1 19  4  0 10.0000000  0  0
 22  1 19  4  0 11.0000000  0  8E03E07E08E13E15E24E25E26
  24342502.800                   127921230.930 0                        47.000  
                  24342501.299    98017572.522          51.000  
  27367767.307                   143818772.867 0                        41.000  
                  27367767.772   110198801.127          46.000  
  21847558.034                   114809351.947 0                        48.000  
                  21847555.854    87970808.399          53.000  
  23745753.341                   124784652.801 0                        49.000  
                  23745751.143    95614216.033          53.000  
  24545468.205                   128987647.400 0                        47.000  
                  24545467.812    98834693.032          51.000  
  28669717.847                   150660690.496 0                        34.000  
                  28669716.239   115441308.628          40.000  
  28255976.363                   148485484.108 0                        35.000  
                  28255976.023   113774591.676          42.000  
  27466741.466                   144338258.679 0                        41.000  
                  27466738.143   110596848.231          44.000  
 22  1 19  4  0 12.0000000  0  9G01G03G04G06G09G17G19G21G31
  22105114.715    22105112.571   116162912.232 0  90516556.914 0        45.000  
        46.000                                                  
  20401783.337    20401780.318   107211908.97810  83541943.129 0        50.000  
        48.000                                                  
  20433689.782    20433684.475   107379358.905 0  83672234.157 0        48.000  
        50.000                                                  
  23087650.609    23087648.572   121326944.577 0  94539693.251 0        45.000  
        44.000                                                  
  22357483.984    22357480.785   117490005.227 0  91550657.373 0        47.000  
        45.000                                                  
  23240437.385    23240431.416   122128585.161 0  95166174.525 0        44.000  
        41.000                                                  
  22827985.490                   119962453.241 0                        46.000  
                                                                
  24106123.842                   126678525.568 0                        38.000  
                                                                
  23395065.849    23395059.738   122941397.768 0  95798496.558 0        42.000  
        39.000                                                  
 22  1 19  4  0 11.0000000  0  0
 22  1 19  4  0 12.0000000  0  8E03E07E08E13E15E24E25E26
  24342803.161                   127922808.657 0                        47.000  
                  24342801.535    98018781.427          51.000  
  27367294.689                   143816288.695 0                        41.000  
                  27367295.118   110196897.657          46.000  
  21847387.135                   114808454.637 0                        48.000  
                  21847385.097    87970120.847          53.000  
  23745696.160                   124784353.502 0                        49.000  
                  23745694.230    95613986.700          53.000  
  24545935.551                   128990103.316 0                        47.000  
                  24545935.212    98836574.843          51.000  
  28669658.397                   150660378.462 0                        34.000  
                  28669656.914   115441069.519          40.000  
  28255552.849                   148483258.675 0                        35.000  
                  28255552.438   113772886.474          42.000  
  27466233.629                   144335590.382 0                        41.000  
                  27466230.520   110594803.690          44.000  
 22  1 19  4  0 13.0000000  0  9G01G03G04G06G09G17G19G21G31
  22105737.201    22105735.074   116166183.356 0  90519105.830 0        45.000  
        46.000                                                  
  20401910.833    20401907.777   107212578.93110  83542465.174 0        50.000  
        48.000                                                  
  20433521.831    20433516.632   107378476.640 0  83671546.676 0        48.000  
        50.000                                                  
  23087080.408    23087078.336   121323947.866 0  94537358.152 0        45.000  
        44.000                                                  
  22356954.006    22356950.843   117487220.368 0  91548487.359 0        47.000  
        45.000                                                  
  23240802.538    23240796.463   122130503.871 0  95167669.628 0        44.000  
        41.000                                                  
  22828182.693                   119963489.239 0                        46.000  
                                                                
  24106740.037                   126681763.990 0                        38.000  
                                                                
  23395508.572    23395502.532   122943724.363 0  95800309.496 0        42.000  
        39.000                                                  
 22  1 19  4  0 12.0000000  0  0
 22  1 19  4  0 13.0000000  0  8E03E07E08E13E15E24E25E26
  24343103.450                   127924386.935 0                        47.000  
                  24343101.841    98019990.760          51.000  
  27366822.125                   143813804.969 0                        41.000  
                  27366822.465   110194994.553          46.000  
  21847216.646                   114807557.946 0                        48.000  
                  21847214.448    87969433.770          53.000  
  23745639.426                   124784055.022 0                        49.000  
                  23745637.460    95613757.997          53.000  
  24546403.201                   128992559.901 0                        47.000  
                  24546402.701    98838457.159          51.000  
  28669599.054                   150660067.222 0                        34.000  
                  28669597.642   115440831.055          40.000  
  28255129.282                   148481033.800 0                        35.000  
                  28255128.960   113771181.704          42.000  
  27465725.898                   144332922.631 0                        41.000  
                  27465722.896   110592759.562          44.000  
 22  1 19  4  0 14.0000000  0  9G01G03G04G06G09G17G19G21G31
  22106359.632    22106357.434   116169454.242 0  90521654.574 0        45.000  
        46.000                                                  
  20402038.328    20402035.237   107213248.71310  83542987.078 0        50.000  
        48.000                                                  
  20433354.006    20433348.788   107377594.322 0  83670859.157 0        48.000  
        50.000                                                  
  23086510.101    23086508.046   121320950.925 0  94535022.871 0        45.000  
        44.000                                                  
  22356423.975    22356420.812   117484435.265 0  91546317.150 0        47.000  
        45.000                                                  
  23241167.692    23241161.437   122132422.457 0  95169164.647 0        44.000  
        41.000                                                  
  22828379.859                   119964525.328 0                        46.000  
                                                                
  24107356.214                   126685002.021 0                        38.000  
                                                                
  23395951.313    23395945.273   122946050.941 0  95802122.404 0        42.000  
        39.000                                                  
 22  1 19  4  0 13.0000000  0  0
 22  1 19  4  0 14.0000000  0  8E03E07E08E13E15E24E25E26
  24343403.631                   127925964.826 0                        47.000  
                  24343402.166    98021199.791          51.000  
  27366349.364                   143811320.838 0                        41.000  
                  27366349.650   110193091.121          46.000  
  21847045.979                   114806660.985 0                        48.000  
                  21847043.728    87968746.488          53.000  
  23745582.781                   124783756.457 0                        49.000  
                  23745580.583    95613529.222          53.000  
  24546870.637                   128995016.251 0                        47.000  
                  24546870.083    98840339.293          51.000  
  28669539.514                   150659755.901 0                        33.000  
                  28669538.424   115440592.512          40.000  
  28254705.732                   148478808.590 0                        35.000  
                  28254705.697   113769476.664          42.000  
  27465218.097                   144330254.507 0                        41.000  
                  27465215.130   110590715.165          44.000  
 22  1 19  4  0 15.0000000  0  9G01G03G04G06G09G17G19G21G31
  22106982.010    22106979.902   116172725.330 0  90524203.470 0        45.000  
        46.000                                                  
  20402165.752    20402162.643   107213918.70610  83543509.148 0        50.000  
        48.000                                                  
  20433186.126    20433180.873   107376712.335 0  83670171.895 0        48.000  
        50.000                                                  
  23085939.793    23085937.774   121317954.117 0  94532687.705 0        45.000  
        44.000                                                  
  22355893.980    22355890.907   117481650.307 0  91544147.056 0        47.000  
        45.000                                                  
  23241532.827    23241526.627   122134341.314 0  95170659.843 0        44.000  
        41.000                                                  
  22828577.044                   119965561.928 0                        46.000  
                                                                
  24107972.303                   126688240.030 0                        38.000  
                                                                
  23396394.161    23396388.085   122948377.894 0  95803935.619 0        42.000  
        39.000                                                  
 22  1 19  4  0 14.0000000  0  0
 22  1 19  4  0 15.0000000  0  8E03E07E08E13E15E24E25E26
  24343703.920                   127927542.762 0                        47.000  
                  24343702.473    98022408.851          51.000  
  27365876.496                   143808836.642 0                        41.000  
                  27365877.050   110191187.649          46.000  
  21846875.133                   114805764.138 0                        48.000  
                  21846873.043    87968059.298          53.000  
  23745525.832                   124783458.196 0                        49.000  
                  23745523.849    95613300.680          53.000  
  24547337.984                   128997472.752 0                        47.000  
                  24547337.501    98842221.540          51.000  
  28669480.386                   150659444.864 0                        34.000  
                  28669479.224   115440354.169          40.000  
  28254282.326                   148476583.421 0                        35.000  
                  28254282.254   113767771.670          42.000  
  27464710.438                   144327586.427 0                        41.000  
                  27464707.293   110588670.790          44.000  
 22  1 19  4  0 16.0000000  0  9G01G03G04G06G09G17G19G21G31
  22107604.496    22107602.441   116175996.773 0  90526752.662 0        45.000  
        46.000                                                  
  20402293.391    20402290.246   107214589.11610  83544031.541 0        50.000  
        48.000                                                  
  20433018.425    20433013.190   107375830.912 0  83669485.069 0        48.000  
        50.000                                                  
  23085369.628    23085367.502   121314957.684 0  94530352.808 0        45.000  
        44.000                                                  
  22355364.003    22355360.893   117478865.700 0  91541977.242 0        47.000  
        45.000                                                  
  23241898.088    23241891.887   122136260.639 0  95172155.417 0        44.000  
        41.000                                                  
  22828774.354                   119966599.208 0                        46.000  
                                                                
  24108588.444                   126691478.214 0                        38.000  
                                                                
  23396837.098    23396830.933   122950705.454 0  95805749.300 0        42.000  
        39.000                                                  
 22  1 19  4  0 15.0000000  0  0
 22  1 19  4  0 16.0000000  0  8E03E07E08E13E15E24E25E26
  24344004.245                   127929120.911 0                        47.000  
                  24344002.762    98023618.092          51.000  
  27365403.861                   143806352.641 0                        40.000  
                  27365404.379   110189284.321          46.000  
  21846704.431                   114804867.608 0                        48.000  
                  21846702.394    87967372.349          53.000  
  23745469.366                   124783160.453 0                        49.000  
                  23745467.115    95613072.539          53.000  
  24547805.652                   128999929.604 0                        47.000  
                  24547805.026    98844104.063          51.000  
  28669421.186                   150659134.349 0                        33.000  
                  28669420.185   115440116.243          40.000  
  28253859.187                   148474358.511 0                        35.000  
                  28253858.866   113766066.872          42.000  
  27464202.707                   144324918.567 0                        41.000  
                  27464199.669   110586626.585          44.000  
 22  1 19  4  0 17.0000000  0  9G01G03G04G06G09G17G19G21G31
  22108227.249    22108225.194   116179269.053 0  90529302.491 0        45.000  
        46.000                                                  
  20402421.101    20402417.956   107215260.38310  83544554.620 0        50.000  
        48.000                                                  
  20432850.760    20432845.703   107374950.460 0  83668799.010 0        48.000  
        50.000                                                  
  23084799.588    23084797.498   121311962.064 0  94528018.564 0        45.000  
        44.000                                                  
  22354834.275    22354831.005   117476081.891 0  91539808.038 0        47.000  
        45.000                                                  
  23242263.599    23242257.327   122138180.852 0  95173651.700 0        44.000  
        41.000                                                  
  22828971.806                   119967637.639 0                        46.000  
                                                                
  24109204.729                   126694717.029 0                        38.000  
                                                                
  23397280.107    23397273.996   122953034.021 0  95807563.761 0        42.000  
        39.000                                                  
 22  1 19  4  0 16.0000000  0  0
 22  1 19  4  0 17.0000000  0  8E03E07E08E13E15E24E25E26
  24344304.659                   127930699.735 0                        47.000  
                  24344303.211    98024827.840          51.000  
  27364931.100                   143803869.226 0                        40.000  
                  27364931.707   110187381.463          46.000  
  21846533.996                   114803971.856 0                        48.000  
                  21846532.102    87966685.994          53.000  
  23745412.704                   124782863.674 0                        49.000  
                  23745410.774    95612845.144          53.000  
  24548273.266                   129002387.251 0                        47.000  
                  24548272.819    98845987.204          51.000  
  28669362.236                   150658824.739 0                        34.000  
                  28669361.146   115439879.029          40.000  
  28253436.121                   148472134.284 0                        35.000  
                  28253435.584   113764362.593          42.000  
  27463695.209                   144322251.412 0                        41.000  
                  27463692.136   110584582.916          44.000  
 22  1 19  4  0 18.0000000  0  9G01G03G04G06G09G17G19G21G31
  22108850.020    22108847.876   116182541.697 0  90531852.593 0        45.000  
        46.000                                                  
  20402548.900    20402545.773   107215932.05710  83545077.994 0        50.000  
        48.000                                                  
  20432683.292    20432678.163   107374070.530 0  83668113.348 0        48.000  
        50.000                                                  
  23084229.549    23084227.387   121308966.761 0  94525684.561 0        45.000  
        44.000                                                  
  22354304.602    22354301.385   117473298.429 0  91537639.104 0        47.000  
        45.000                                                  
  23242629.110    23242622.766   122140101.504 0  95175148.303 0        44.000  
        41.000                                                  
  22829169.545                   119968676.721 0                        46.000  
                                                                
  24109821.032                   126697956.006 0                        37.000  
                                                                
  23397723.330    23397717.076   122955363.143 0  95809378.686 0        42.000  
        39.000                                                  
 22  1 19  4  0 17.0000000  0  0
 22  1 19  4  0 18.0000000  0  8E03E07E08E13E15E24E25E26
  24344605.216                   127932278.759 0                        47.000  
                  24344603.715    98026037.744          51.000  
  27364458.464                   143801385.963 0                        40.000  
                  27364459.250   110185478.692          46.000  
  21846363.776                   114803076.383 0                        48.000  
                  21846361.578    87965999.852          53.000  
  23745356.523                   124782567.374 0                        49.000  
                  23745354.290    95612618.106          53.000  
  24548741.041                   129004845.236 0                        47.000  
                  24548740.362    98847870.591          51.000  
  28669303.304                   150658515.642 0                        34.000  
                  28669302.428   115439642.199          40.000  
  28253012.946                   148469910.333 0                        35.000  
                  28253012.392   113762658.508          42.000  
  27463187.872                   144319584.433 0                        41.000  
                  27463184.637   110582539.391          44.000  
 22  1 19  4  0 19.0000000  0  9G01G03G04G06G09G17G19G21G31
  22109472.791    22109470.647   116185814.449 0  90534402.792 0        45.000  
        46.000                                                  
  20402676.664    20402673.644   107216603.87910  83545601.493 0        50.000  
        48.000                                                  
  20432515.913    20432510.749   107373190.891 0  83667427.920 0        48.000  
        50.000                                                  
  23083659.670    23083657.329   121305971.579 0  94523350.660 0        45.000  
        44.000                                                  
  22353774.946    22353771.837   117470515.070 0  91535470.237 0        47.000  
        45.000                                                  
  23242994.728    23242988.295   122142022.376 0  95176645.096 0        44.000  
        41.000                                                  
  22829367.355                   119969716.241 0                        46.000  
                                                                
  24110437.352                   126701194.909 0                        37.000  
                                                                
  23398166.553    23398160.335   122957692.590 0  95811193.826 0        42.000  
        39.000                                                  
 22  1 19  4  0 18.0000000  0  0
 22  1 19  4  0 19.0000000  0  8E03E07E08E13E15E24E25E26
  24344905.612                   127933857.750 0                        47.000  
                  24344904.218    98027247.620          51.000  
  27363985.775                   143798902.604 0                        40.000  
                  27363986.668   110183575.861          46.000  
  21846193.305                   114802180.983 0                        48.000  
                  21846191.357    87965313.768          53.000  
  23745300.129                   124782271.332 0                        49.000  
                  23745297.913    95612391.271          53.000  
  24549208.817                   129007303.306 0                        47.000  
                  24549208.209    98849754.047          51.000  
  28669244.622                   150658206.811 0                        34.000  
                  28669243.585   115439405.536          40.000  
  28252589.879                   148467686.323 0                        35.000  
                  28252589.111   113760954.408          42.000  
  27462680.427                   144316917.442 0                        41.000  
                  27462677.139   110580495.853          44.000  
 22  1 19  4  0 20.0000000  0  9G01G03G04G06G09G17G19G21G31
  22110095.634    22110093.490   116189087.694 0  90536953.368 0        45.000  
        46.000                                                  
  20402804.570    20402801.479   107217276.21710  83546125.395 0        50.000  
        48.000                                                  
  20432348.677    20432343.548   107372311.892 0  83666742.983 0        48.000  
        50.000                                                  
  23083089.791    23083087.557   121302976.842 0  94521017.096 0        45.000  
        44.000                                                  
  22353245.416    22353242.199   117467732.150 0  91533301.735 0        47.000  
        45.000                                                  
  23243360.346    23243353.949   122143943.803 0  95178142.298 0        44.000  
        41.000                                                  
  22829565.415                   119970756.553 0                        46.000  
                                                                
  24111053.708                   126704434.100 0                        37.000  
                                                                
  23398609.830    23398603.808   122960022.724 0  95813009.508 0        42.000  
        39.000                                                  
 22  1 19  4  0 19.0000000  0  0
 22  1 19  4  0 20.0000000  0  8E03E07E08E13E15E24E25E26
  24345206.258                   127935437.076 0                        47.000  
                  24345204.722    98028457.749          51.000  
  27363513.282                   143796419.518 0                        40.000  
                  27363514.229   110181673.236          46.000  
  21846023.031                   114801285.991 0                        48.000  
                  21846020.958    87964627.993          53.000  
  23745243.895                   124781975.901 0                        49.000  
                  23745241.786    95612164.906          53.000  
  24549676.592                   129009761.837 0                        47.000  
                  24549676.002    98851637.859          51.000  
  28669186.101                   150657898.571 0                        34.000  
                  28669184.993   115439169.352          40.000  
  28252166.794                   148465462.671 0                        35.000  
                  28252166.098   113759250.571          42.000  
  27462172.876                   144314250.791 0                        41.000  
                  27462169.659   110578452.575          44.000  
 22  1 19  4  0 21.0000000  0  9G01G03G04G06G09G17G19G21G31
  22110718.494    22110716.332   116192361.039 0  90539504.022 0        45.000  
        46.000                                                  
  20402932.459    20402929.510   107217948.70110  83546649.414 0        50.000  
        48.000                                                  
  20432181.458    20432176.419   107371433.171 0  83666058.263 0        48.000  
        50.000                                                  
  23082519.858    23082517.678   121299982.208 0  94518683.620 0        45.000  
        44.000                                                  
  22352715.939    22352712.633   117464949.307 0  91531133.295 0        47.000  
        45.000                                                  
  23243725.964    23243719.549   122145865.403 0  95179639.665 0        44.000  
        41.000                                                  
  22829763.351                   119971797.290 0                        46.000  
                                                                
  24111670.118                   126707673.171 0                        37.000  
                                                                
  23399053.232    23399047.228   122962353.166 0  95814825.460 0        42.000  
        39.000                                                  
 22  1 19  4  0 20.0000000  0  0
 22  1 19  4  0 21.0000000  0  8E03E07E08E13E15E24E25E26
  24345506.797                   127937016.341 0                        47.000  
                  24345505.279    98029667.839          51.000  
  27363040.843                   143793936.303 0                        40.000  
                  27363041.522   110179770.517          46.000  
  21845852.739                   114800391.049 0                        48.000  
                  21845850.506    87963942.263          53.000  
  23745187.840                   124781680.710 0                        49.000  
                  23745185.553    95611938.717          53.000  
  24550144.528                   129012220.435 0                        47.000  
                  24550143.867    98853521.726          51.000  
  28669127.758                   150657590.539 0                        34.000  
                  28669126.257   115438933.336          40.000  
  28251743.585                   148463239.002 0                        35.000  
                  28251742.816   113757546.732          42.000  
  27461665.449                   144311584.093 0                        41.000  
                  27461662.358   110576409.257          44.000  
 22  1 19  4  0 22.0000000  0  9G01G03G04G06G09G17G19G21G31
  22111341.480    22111339.246   116195634.528 0  90542054.799 0        45.000  
        46.000                                                  
  20403060.419    20403057.506   107218621.37410  83547173.567 0        50.000  
        48.000                                                  
  20432014.204    20432009.272   107370554.759 0  83665373.793 0        48.000  
        50.000                                                  
  23081950.051    23081947.764   121296987.706 0  94516350.233 0        45.000  
        44.000                                                  
  22352186.336    22352183.102   117462166.602 0  91528964.942 0        47.000  
        45.000                                                  
  23244091.689    23244085.346   122147787.256 0  95181137.201 0        44.000  
        41.000                                                  
  22829961.482                   119972838.497 0                        46.000  
                                                                
  24112286.510                   126710912.236 0                        37.000  
                                                                
  23399496.724    23399490.684   122964683.969 0  95816641.645 0        42.000  
        39.000                                                  
 22  1 19  4  0 21.0000000  0  0
 22  1 19  4  0 22.0000000  0  8E03E07E08E13E15E24E25E26
  24345807.265                   127938595.626 0                        47.000  
                  24345805.782    98030877.931          51.000  
  27362568.458                   143791453.049 0                        40.000  
                  27362569.119   110177867.769          46.000  
  21845682.483                   114799496.206 0                        48.000  
                  21845680.303    87963256.602          53.000  
  23745131.731                   124781385.818 0                        49.000  
                  23745129.444    95611712.758          53.000  
  24550612.446                   129014679.180 0                        47.000  
                  24550611.785    98855405.689          51.000  
  28669069.327                   150657282.777 0                        34.000  
                  28669067.808   115438697.523          40.000  
  28251320.464                   148461015.374 0                        35.000  
                  28251319.713   113755842.902          42.000  
  27461157.986                   144308917.416 0                        41.000  
                  27461154.984   110574365.952          44.000  
 22  1 19  4  0 23.0000000  0  9G01G03G04G06G09G17G19G21G31
  22111964.519    22111962.232   116198908.436 0  90544605.888 0        45.000  
        46.000                                                  
  20403188.593    20403185.645   107219294.49210  83547698.086 0        50.000  
        48.000                                                  
  20431847.165    20431842.161   107369676.930 0  83664689.764 0        48.000  
        50.000                                                  
  23081380.351    23081377.974   121293993.597 0  94514017.156 0        45.000  
        44.000                                                  
  22351656.770    22351653.518   117459384.275 0  91526796.909 0        47.000  
        45.000                                                  
  23244457.557    23244451.089   122149709.610 0  95182635.134 0        44.000  
        41.000                                                  
  22830159.757                   119973880.414 0                        46.000  
                                                                
  24112902.884                   126714151.506 0                        37.000  
                                                                
  23399940.429    23399934.425   122967015.388 0  95818458.338 0        42.000  
        39.000                                                  
 22  1 19  4  0 22.0000000  0  0
 22  1 19  4  0 23.0000000  0  8E03E07E08E13E15E24E25E26
  24346107.786                   127940175.160 0                        47.000  
                  24346106.392    98032088.235          51.000  
  27362096.054                   143788969.998 0                        41.000  
                  27362096.590   110175965.171          46.000  
  21845512.102                   114798601.713 0                        48.000  
                  21845510.119    87962571.211          53.000  
  23745075.569                   124781091.464 0                        49.000  
                  23745073.424    95611487.221          53.000  
  24551080.311                   129017138.301 0                        47.000  
                  24551079.739    98857289.957          51.000  
  28669010.734                   150656975.564 0                        34.000  
                  28669009.412   115438462.142          40.000  
  28250897.254                   148458792.004 0                        35.000  
                  28250896.682   113754139.294          42.000  
  27460650.363                   144306250.998 0                        41.000  
                  27460647.540   110572322.861          44.000  
 22  1 19  4  0 24.0000000  0  9G01G03G04G06G09G17G19G21G31
  22112587.594    22112585.307   116202182.861 0  90547157.390 0        45.000  
        46.000                                                  
  20403316.893    20403313.855   107219968.16510  83548223.017 0        50.000  
        48.000                                                  
  20431680.214    20431675.282   107368799.771 0  83664006.267 0        48.000  
        50.000                                                  
  23080810.722    23080808.363   121290999.976 0  94511684.469 0        45.000  
        44.000                                                  
  22351127.436    22351124.148   117456602.439 0  91524629.237 0        47.000  
        45.000                                                  
  23244823.569    23244816.993   122151632.545 0  95184133.516 0        44.000  
        41.000                                                  
  22830358.210                   119974923.170 0                        46.000  
                                                                
  24113519.258                   126717391.069 0                        37.000  
                                                                
  23400384.260    23400378.185   122969347.512 0  95820275.572 0        42.000  
        39.000                                                  
 22  1 19  4  0 23.0000000  0  0
 22  1 19  4  0 24.0000000  0  8E03E07E08E13E15E24E25E26
  24346408.522                   127941755.049 0                        47.000  
                  24346406.932    98033298.786          51.000  
  27361623.597                   143786487.252 0                        41.000  
                  27361624.044   110174062.799          46.000  
  21845342.114                   114797707.663 0                        48.000  
                  21845339.988    87961886.159          53.000  
  23745019.764                   124780797.749 0                        49.000  
                  23745017.548    95611262.162          53.000  
  24551548.336                   129019597.912 0                        47.000  
                  24551547.729    98859174.591          51.000  
  28668952.499                   150656668.990 0                        34.000  
                  28668951.141   115438227.230          40.000  
  28250474.258                   148456569.051 0                        35.000  
                  28250473.544   113752435.979          42.000  
  27460142.954                   144303584.931 0                        41.000  
                  27460140.167   110570280.030          44.000  
 22  1 19  4  0 25.0000000  0  9G01G03G04G06G09G17G19G21G31
  22113210.884    22113208.525   116205457.828 0  90549709.310 0        45.000  
        46.000                                                  
  20403445.174    20403442.172   107220642.44310  83548748.431 0        50.000  
        48.000                                                  
  20431513.461    20431508.529   107367923.342 0  83663323.334 0        48.000  
        50.000                                                  
  23080241.218    23080238.753   121288006.885 0  94509352.193 0        45.000  
        44.000                                                  
  22350598.245    22350594.868   117453821.139 0  91522461.998 0        47.000  
        45.000                                                  
  23245189.616    23245183.075   122153556.117 0  95185632.404 0        44.000  
        41.000                                                  
  22830556.699                   119975966.780 0                        45.000  
                                                                
  24114135.829                   126720631.029 0                        37.000  
                                                                
  23400828.127    23400822.194   122971680.404 0  95822093.417 0        42.000  
        39.000                                                  
 22  1 19  4  0 24.0000000  0  0
 22  1 19  4  0 25.0000000  0  8E03E07E08E13E15E24E25E26
  24346709.204                   127943335.344 0                        47.000  
                  24346707.667    98034509.677          51.000  
  27361151.283                   143784004.826 0                        41.000  
                  27361151.766   110172160.680          46.000  
  21845172.144                   114796814.132 0                        48.000  
                  21845169.875    87961201.506          53.000  
  23744964.245                   124780504.742 0                        49.000  
                  23744961.725    95611037.643          53.000  
  24552016.398                   129022058.053 0                        47.000  
                  24552015.844    98861059.633          51.000  
  28668894.371                   150656363.115 0                        34.000  
                  28668892.870   115437992.856          40.000  
  28250051.370                   148454346.511 0                        35.000  
                  28250050.655   113750732.987          42.000  
  27459635.885                   144300919.290 0                        41.000  
                  27459632.847   110568237.533          45.000  
 22  1 19  4  0 26.0000000  0  9G01G03G04G06G09G17G19G21G31
  22113834.066    22113831.689   116208732.937 0  90552261.348 0        45.000  
        46.000                                                  
  20403573.563    20403570.472   107221316.88210  83549273.956 0        50.000  
        48.000                                                  
  20431346.760    20431341.864   107367047.204 0  83662640.631 0        48.000  
        50.000                                                  
  23079671.608    23079669.177   121285013.927 0  94507020.026 0        45.000  
        44.000                                                  
  22350069.000    22350065.659   117451039.951 0  91520294.829 0        47.000  
        45.000                                                  
  23245555.734    23245549.212   122155479.909 0  95187131.467 0        44.000  
        41.000                                                  
  22830755.260                   119977010.848 0                        45.000  
                                                                
  24114752.328                   126723870.895 0                        37.000  
                                                                
  23401272.118    23401266.186   122974013.631 0  95823911.525 0        42.000  
        39.000                                                  
 22  1 19  4  0 25.0000000  0  0
 22  1 19  4  0 26.0000000  0  8E03E07E08E13E15E24E25E26
  24347009.940                   127944915.618 0                        47.000  
                  24347008.439    98035720.532          51.000  
  27360678.934                   143781522.333 0                        41.000  
                  27360679.398   110170258.507          46.000  
  21845002.156                   114795920.660 0                        48.000  
                  21844999.958    87960516.898          53.000  
  23744908.333                   124780211.983 0                        49.000  
                  23744906.081    95610813.329          53.000  
  24552484.495                   129024518.307 0                        47.000  
                  24552484.048    98862944.766          51.000  
  28668836.064                   150656057.483 0                        34.000  
                  28668834.635   115437758.669          40.000  
  28249628.464                   148452123.954 0                        35.000  
                  28249627.678   113749030.020          42.000  
  27459128.602                   144298253.654 0                        41.000  
                  27459125.600   110566195.024          45.000  
 22  1 19  4  0 27.0000000  0  9G01G03G04G06G09G17G19G21G31
  22114457.373    22114454.871   116212008.175 0  90554813.481 0        45.000  
        46.000                                                  
  20403701.934    20403698.736   107221991.47610  83549799.621 0        50.000  
        48.000                                                  
  20431180.096    20431175.200   107366171.356 0  83661958.150 0        48.000  
        50.000                                                  
  23079102.158    23079099.638   121282021.063 0  94504687.917 0        45.000  
        43.000                                                  
  22349539.845    22349536.414   117448258.848 0  91518127.738 0        47.000  
        45.000                                                  
  23245921.888    23245915.205   122157403.913 0  95188630.690 0        44.000  
        41.000                                                  
  22830953.910                   119978055.357 0                        45.000  
                                                                
  24115368.809                   126727110.717 0                        37.000  
                                                                
  23401716.145    23401710.231   122976347.178 0  95825729.862 0        42.000  
        39.000                                                  
 22  1 19  4  0 26.0000000  0  0
 22  1 19  4  0 27.0000000  0  8E03E07E08E13E15E24E25E26
  24347310.622                   127946495.880 0                        47.000  
                  24347309.156    98036931.373          51.000  
  27360206.423                   143779039.740 0                        41.000  
                  27360206.941   110168356.272          46.000  
  21844832.097                   114795027.255 0                        48.000  
                  21844829.917    87959832.343          53.000  
  23744852.617                   124779919.498 0                        49.000  
                  23744850.419    95610589.212          53.000  
  24552952.609                   129026978.648 0                        47.000  
                  24552952.216    98864829.961          51.000  
  28668777.972                   150655752.116 0                        34.000  
                  28668776.507   115437524.661          40.000  
  28249205.611                   148449901.438 0                        36.000  
                  28249204.772   113747327.036          42.000  
  27458621.461                   144295587.987 0                        41.000  
                  27458618.387   110564152.491          45.000  
 22  1 19  4  0 28.0000000  0  9G01G03G04G06G09G17G19G21G31
  22115080.823    22115078.357   116215284.369 0  90557366.362 0        45.000  
        46.000                                                  
  20403830.466    20403827.339   107222667.09210  83550326.075 0        50.000  
        48.000                                                  
  20431013.610    20431008.732   107365296.647 0  83661276.565 0        48.000  
        50.000                                                  
  23078532.886    23078530.349   121279029.178 0  94502356.565 0        45.000  
        43.000                                                  
  22349010.779    22349007.366   117445478.717 0  91515961.400 0        47.000  
        45.000                                                  
  23246288.185    23246281.663   122159328.966 0  95190130.742 0        44.000  
        41.000                                                  
  22831152.899                   119979101.150 0                        45.000  
                                                                
  24115985.452                   126730351.296 0                        37.000  
                                                                
  23402160.494    23402154.491   122978681.907 0  95827549.125 0        42.000  
        39.000                                                  
 22  1 19  4  0 27.0000000  0  0
 22  1 19  4  0 28.0000000  0  8E03E07E08E13E15E24E25E26
  24347611.518                   127948076.946 0                        47.000  
                  24347610.142    98038142.841          51.000  
  27359734.288                   143776557.915 0                        41.000  
                  27359734.627   110166454.616          46.000  
  21844662.269                   114794134.766 0                        48.000  
                  21844660.071    87959148.486          53.000  
  23744797.259                   124779628.116 0                        49.000  
                  23744795.007    95610365.945          53.000  
  24553421.046                   129029439.958 0                        47.000  
                  24553420.599    98866715.890          51.000  
  28668720.184                   150655447.805 0                        34.000  
                  28668718.593   115437291.512          40.000  
  28248783.259                   148447679.761 0                        36.000  
                  28248781.812   113745624.714          42.000  
  27458114.320                   144292923.150 0                        40.000  
                  27458111.229   110562110.609          45.000  
 22  1 19  4  0 29.0000000  0  9G01G03G04G06G09G17G19G21G31
  22115704.291    22115701.808   116218560.669 0  90559919.318 0        45.000  
        46.000                                                  
  20403959.105    20403955.835   107223342.82510  83550852.622 0        50.000  
        48.000                                                  
  20430847.232    20430842.246   107364422.193 0  83660595.168 0        48.000  
        50.000                                                  
  23077963.615    23077960.935   121276037.338 0  94500025.268 0        45.000  
        43.000                                                  
  22348481.766    22348478.300   117442698.632 0  91513795.109 0        47.000  
        45.000                                                  
  23246654.536    23246647.942   122161254.199 0  95191630.923 0        44.000  
        41.000                                                  
  22831351.907                   119980147.339 0                        45.000  
                                                                
  24116601.986                   126733591.772 0                        37.000  
                                                                
  23402604.879    23402598.768   122981016.921 0  95829368.630 0        42.000  
        39.000                                                  
 22  1 19  4  0 28.0000000  0  0
 22  1 19  4  0 29.0000000  0  8E03E07E08E13E15E24E25E26
  24347912.343                   127949657.950 0                        47.000  
                  24347910.985    98039354.265          51.000  
  27359261.884                   143774075.965 0                        41.000  
                  27359262.242   110164552.860          46.000  
  21844492.514                   114793242.313 0                        48.000  
                  21844490.262    87958464.655          53.000  
  23744741.811                   124779336.945 0                        49.000  
                  23744739.560    95610142.845          53.000  
  24553889.303                   129031901.309 0                        47.000  
                  24553889.035    98868601.867          51.000  
  28668662.449                   150655143.740 0                        34.000  
                  28668660.751   115437058.523          40.000  
  28248360.585                   148445458.047 0                        36.000  
                  28248359.084   113743922.345          42.000  
  27457606.947                   144290258.236 0                        40.000  
                  27457604.177   110560068.667          45.000  
 22  1 19  4  0 30.0000000  0  9G01G03G04G06G09G17G19G21G31
  22116327.777    22116325.329   116221836.986 0  90562472.293 0        45.000  
        46.000                                                  
  20404087.709    20404084.421   107224018.63710  83551379.231 0        50.000  
        48.000                                                  
  20430680.889    20430675.922   107363547.930 0  83659913.921 0        48.000  
        50.000                                                  
  23077394.326    23077391.520   121273045.509 0  94497693.973 0        45.000  
        43.000                                                  
  22347952.897    22347949.234   117439918.544 0  91511628.814 0        47.000  
        45.000                                                  
  23247020.869    23247014.257   122163179.535 0  95193131.169 0        44.000  
        41.000                                                  
  22831551.111                   119981193.878 0                        45.000  
                                                                
  24117218.593                   126736832.081 0                        37.000  
                                                                
  23403049.210    23403043.188   122983352.170 0  95831188.309 0        42.000  
        39.000                                                  
 22  1 19  4  0 29.0000000  0  0
 22  1 19  4  0 30.0000000  0  8E03E07E08E13E15E24E25E26
  24348213.365                   127951238.829 0                        47.000  
                  24348211.721    98040565.580          51.000  
  27358789.427                   143771593.823 0                        41.000  
                  27358790.017   110162650.959          46.000  
  21844322.561                   114792349.800 0                        48.000  
                  21844320.453    87957780.786          53.000  
  23744686.489                   124779045.945 0                        49.000  
                  23744684.094    95609919.868          53.000  
  24554357.847                   129034362.662 0                        47.000  
                  24554357.329    98870487.842          51.000  
  28668604.768                   150654839.819 0                        34.000  
                  28668603.106   115436825.653          40.000  
  28247938.108                   148443236.200 0                        36.000  
                  28247936.339   113742219.905          42.000  
  27457099.788                   144287593.220 0                        40.000  
                  27457097.072   110558026.641          45.000  
 22  1 19  4  0 31.0000000  0  9G01G03G04G06G09G17G19G21G31
  22116951.353    22116948.905   116225113.468 0  90565025.400 0        45.000  
        45.000                                                  
  20404216.366    20404213.078   107224694.64310  83551905.982 0        50.000  
        48.000                                                  
  20430514.529    20430509.579   107362673.989 0  83659232.938 0        48.000  
        50.000                                                  
  23076825.019    23076822.142   121270053.833 0  94495362.797 0        45.000  
        43.000                                                  
  22347423.813    22347420.239   117437138.603 0  91509462.626 0        47.000  
        45.000                                                  
  23247387.398    23247380.644   122165105.114 0  95194631.620 0        44.000  
        41.000                                                  
  22831750.314                   119982240.866 0                        45.000  
                                                                
  24117835.163                   126740072.357 0                        37.000  
                                                                
  23403493.684    23403487.573   122985687.777 0  95833008.276 0        42.000  
        39.000                                                  
 22  1 19  4  0 30.0000000  0  0
 22  1 19  4  0 31.0000000  0  8E03E07E08E13E15E24E25E26
  24348514.047                   127952819.710 0                        47.000  
                  24348512.456    98041776.914          51.000  
  27358317.221                   143769111.635 0                        41.000  
                  27358317.649   110160749.023          46.000  
  21844152.734                   114791457.411 0                        48.000  
                  21844150.572    87957097.010          53.000  
  23744630.934                   124778755.244 0                        49.000  
                  23744628.897    95609697.121          53.000  
  24554826.158                   129036824.163 0                        47.000  
                  24554825.765    98872373.926          51.000  
  28668546.783                   150654536.180 0                        34.000  
                  28668545.460   115436592.995          40.000  
  28247515.130                   148441014.423 0                        36.000  
                  28247513.522   113740517.502          42.000  
  27456592.683                   144284928.210 0                        40.000  
                  27456589.967   110555984.623          45.000  
 22  1 19  4  0 32.0000000  0  9G01G03G04G06G09G17G19G21G31
  22117574.982    22117572.569   116228390.464 0  90567578.901 0        45.000  
        45.000                                                  
  20404345.148    20404341.788   107225371.21010  83552433.177 0        50.000  
        48.000                                                  
  20430348.436    20430343.486   107361800.739 0  83658552.481 0        48.000  
        50.000                                                  
  23076255.694    23076252.942   121267062.653 0  94493032.002 0        45.000  
        43.000                                                  
  22346894.836    22346891.298   117434359.155 0  91507296.825 0        47.000  
        45.000                                                  
  23247753.892    23247747.191   122167031.304 0  95196132.545 0        44.000  
        41.000                                                  
  22831949.679                   119983288.705 0                        45.000  
                                                                
  24118451.877                   126743312.957 0                        37.000  
                                                                
  23403938.212    23403932.155   122988024.102 0  95834828.785 0        42.000  
        39.000                                                  
 22  1 19  4  0 31.0000000  0  0
 22  1 19  4  0 32.0000000  0  8E03E07E08E13E15E24E25E26
  24348815.050                   127954400.967 0                        47.000  
                  24348813.317    98042988.529          51.000  
  27357845.139                   143766629.758 0                        41.000  
                  27357845.443   110158847.320          46.000  
  21843982.978                   114790565.474 0                        49.000  
                  21843980.852    87956413.580          53.000  
  23744575.790                   124778465.182 0                        49.000  
                  23744573.628    95609474.875          53.000  
  24555294.666                   129039286.153 0                        46.000  
                  24555294.255    98874260.384          51.000  
  28668489.227                   150654233.181 0                        34.000  
                  28668487.779   115436360.847          40.000  
  28247092.492                   148438793.034 0                        36.000  
                  28247090.777   113738815.390          42.000  
  27456085.614                   144282263.587 0                        40.000  
                  27456082.934   110553942.901          45.000  
 22  1 19  4  0 33.0000000  0  9G01G03G04G06G09G17G19G21G31
  22118198.664    22118196.180   116231667.890 0  90570132.740 0        45.000  
        45.000                                                  
  20404473.912    20404470.660   107226048.23110  83552960.731 0        50.000  
        48.000                                                  
  20430182.343    20430177.412   107360928.078 0  83657872.485 0        48.000  
        50.000                                                  
  23075686.530    23075683.742   121264071.898 0  94490701.531 0        45.000  
        43.000                                                  
  22346365.895    22346362.464   117431580.104 0  91505131.332 0        47.000  
        45.000                                                  
  23248120.511    23248113.863   122168957.975 0  95197633.867 0        44.000  
        41.000                                                  
  22832149.222                   119984337.286 0                        45.000  
                                                                
  24119068.555                   126746553.764 0                        37.000  
                                                                
  23404382.972    23404376.843   122990361.053 0  95836649.776 0        42.000  
        39.000                                                  
 22  1 19  4  0 32.0000000  0  0
 22  1 19  4  0 33.0000000  0  8E03E07E08E13E15E24E25E26
  24349115.840                   127955982.494 0                        47.000  
                  24349114.374    98044200.337          51.000  
  27357372.807                   143764148.077 0                        41.000  
                  27357373.146   110156945.777          46.000  
  21843813.473                   114789673.912 0                        49.000  
                  21843811.257    87955730.430          53.000  
  23744520.807                   124778175.699 0                        49.000  
                  23744518.573    95609253.059          53.000  
  24555763.228                   129041748.546 0                        46.000  
                  24555762.817    98876147.150          51.000  
  28668431.814                   150653930.754 0                        34.000  
                  28668430.116   115436129.088          40.000  
  28246669.908                   148436571.941 0                        36.000  
                  28246668.103   113737113.520          42.000  
  27455578.295                   144279599.248 0                        40.000  
                  27455575.936   110551901.388          45.000  
 22  1 19  4  0 34.0000000  0  9G01G03G04G06G09G17G19G21G31
  22118822.418    22118819.916   116234945.919 0  90572687.057 0        45.000  
        46.000                                                  
  20404602.962    20404599.638   107226725.91210  83553488.794 0        50.000  
        48.000                                                  
  20430016.430    20430011.533   107360056.186 0  83657193.093 0        48.000  
        50.000                                                  
  23075117.616    23075114.685   121261081.728 0  94488371.534 0        45.000  
        43.000                                                  
  22345837.169    22345833.738   117428801.651 0  91502966.295 0        47.000  
        45.000                                                  
  23248487.379    23248480.661   122170885.361 0  95199135.727 0        44.000  
        41.000                                                  
  22832349.016                   119985386.782 0                        45.000  
                                                                
  24119685.447                   126749795.021 0                        38.000  
                                                                
  23404827.750    23404821.674   122992698.834 0  95838471.430 0        42.000  
        39.000                                                  
 22  1 19  4  0 33.0000000  0  0
 22  1 19  4  0 34.0000000  0  8E03E07E08E13E15E24E25E26
  24349416.915                   127957564.478 0                        47.000  
                  24349415.503    98045412.514          51.000  
  27356900.529                   143761666.807 0                        41.000  
                  27356901.047   110155044.551          46.000  
  21843643.824                   114788782.890 0                        49.000  
                  21843641.555    87955047.706          53.000  
  23744465.788                   124777886.958 0                        49.000  
                  23744463.608    95609031.818          53.000  
  24556231.646                   129044211.513 0                        46.000  
                  24556231.521    98878034.371          51.000  
  28668374.365                   150653629.057 0                        34.000  
                  28668372.774   115435897.922          40.000  
  28246247.198                   148434351.324 0                        35.000  
                  28246245.572   113735412.013          42.000  
  27455071.493                   144276935.382 0                        40.000  
                  27455069.063   110549860.240          45.000  
 22  1 19  4  0 35.0000000  0  9G01G03G04G06G09G17G19G21G31
  22119446.208    22119443.760   116238224.108 0  90575241.488 0        45.000  
        46.000                                                  
  20404731.959    20404728.671   107227403.79610  83554017.011 0        50.000  
        48.000                                                  
  20429850.516    20429845.673   107359184.631 0  83656513.957 0        48.000  
        50.000                                                  
  23074548.630    23074545.735   121258091.701 0  94486041.641 0        45.000  
        43.000                                                  
  22345308.478    22345305.137   117426023.338 0  91500801.369 0        47.000  
        45.000                                                  
  23248854.177    23248847.315   122172812.998 0  95200637.765 0        44.000  
        41.000                                                  
  22832548.792                   119986436.760 0                        45.000  
                                                                
  24120302.322                   126753036.257 0                        38.000  
                                                                
  23405272.635    23405266.792   122995036.965 0  95840293.348 0        42.000  
        39.000                                                  
 22  1 19  4  0 34.0000000  0  0
 22  1 19  4  0 35.0000000  0  8E03E07E08E13E15E24E25E26
  24349717.954                   127959146.481 0                        47.000  
                  24349716.561    98046624.695          51.000  
  27356428.447                   143759185.473 0                        41.000  
                  27356428.876   110153143.280          46.000  
  21843474.247                   114787891.983 0                        49.000  
                  21843472.014    87954365.058          53.000  
  23744410.859                   124777598.511 0                        49.000  
                  23744408.786    95608810.795          53.000  
  24556700.583                   129046674.636 0                        46.000  
                  24556700.172    98879921.694          51.000  
  28668317.291                   150653327.637 0                        35.000  
                  28668315.397   115435666.977          40.000  
  28245824.489                   148432130.747 0                        35.000  
                  28245822.970   113733710.537          42.000  
  27454564.674                   144274271.520 0                        40.000  
                  27454562.244   110547819.114          45.000  
 22  1 19  4  0 36.0000000  0  9G01G03G04G06G09G17G19G21G31
  22120070.069    22120067.549   116241502.418 0  90577796.006 0        45.000  
        46.000                                                  
  20404860.937    20404857.792   107228081.82410  83554545.347 0        50.000  
        48.000                                                  
  20429684.745    20429679.920   107358313.364 0  83655835.043 0        48.000  
        50.000                                                  
  23073979.663    23073976.571   121255101.777 0  94483711.821 0        45.000  
        43.000                                                  
  22344779.805    22344776.446   117423245.120 0  91498636.542 0        47.000  
        45.000                                                  
  23249221.046    23249214.148   122174740.816 0  95202139.973 0        44.000  
        41.000                                                  
  22832748.746                   119987487.176 0                        45.000  
                                                                
  24120919.107                   126756277.359 0                        38.000  
                                                                
  23405717.574    23405711.731   122997375.409 0  95842115.524 0        42.000  
        39.000                                                  
 22  1 19  4  0 35.0000000  0  0
 22  1 19  4  0 36.0000000  0  8E03E07E08E13E15E24E25E26
  24350019.012                   127960728.442 0                        47.000  
                  24350017.564    98047836.845          51.000  
  27355956.276                   143756704.065 0                        41.000  
                  27355956.615   110151241.931          46.000  
  21843304.903                   114787001.134 0                        49.000  
                  21843302.526    87953682.456          53.000  
  23744356.055                   124777310.319 0                        49.000  
                  23744353.839    95608589.975          53.000  
  24557169.288                   129049137.848 0                        46.000  
                  24557168.966    98881809.088          51.000  
  28668260.253                   150653026.451 0                        35.000  
                  28668258.109   115435436.196          40.000  
  28245401.940                   148429910.188 0                        35.000  
                  28245400.332   113732009.052          42.000  
  27454057.802                   144271607.627 0                        41.000  
                  27454055.318   110545777.952          45.000  
 22  1 19  4  0 37.0000000  0  9G01G03G04G06G09G17G19G21G31
  22120694.073    22120691.357   116244781.207 0  90580350.899 0        45.000  
        46.000                                                  
  20404990.023    20404986.914   107228760.37410  83555074.092 0        50.000  
        48.000                                                  
  20429519.010    20429514.238   107357442.722 0  83655156.623 0        49.000  
        50.000                                                  
  23073410.820    23073407.693   121252112.310 0  94481382.378 0        45.000  
        43.000                                                  
  22344251.168    22344247.773   117420467.336 0  91496472.037 0        47.000  
        45.000                                                  
  23249588.022    23249581.196   122176669.200 0  95203642.610 0        44.000  
        41.000                                                  
  22832948.826                   119988538.357 0                        45.000  
                                                                
  24121535.927                   126759518.786 0                        38.000  
                                                                
  23406162.745    23406156.937   122999714.543 0  95843938.221 0        42.000  
        39.000                                                  
 22  1 19  4  0 36.0000000  0  0
 22  1 19  4  0 37.0000000  0  8E03E07E08E13E15E24E25E26
  24350320.051                   127962310.720 0                        47.000  
                  24350318.675    98049049.246          51.000  
  27355484.212                   143754222.913 0                        41.000  
                  27355484.569   110149340.790          46.000  
  21843135.486                   114786110.687 0                        49.000  
                  21843133.074    87953000.174          53.000  
  23744301.161                   124777022.740 0                        49.000  
                  23744299.195    95608369.620          53.000  
  24557638.189                   129051601.502 0                        46.000  
                  24557637.724    98883696.823          51.000  
  28668203.233                   150652725.890 0                        35.000  
                  28668200.910   115435205.889          40.000  
  28244979.570                   148427689.961 0                        35.000  
                  28244977.818   113730307.829          42.000  
  27453551.072                   144268944.090 0                        40.000  
                  27453548.409   110543737.046          45.000  
 22  1 19  4  0 38.0000000  0  9G01G03G04G06G09G17G19G21G31
  22121318.113    22121315.415   116248060.561 0  90582906.252 0        45.000  
        46.000                                                  
  20405119.377    20405116.035   107229439.53210  83555603.301 0        50.000  
        48.000                                                  
  20429353.471    20429348.628   107356572.825 0  83654478.779 0        49.000  
        50.000                                                  
  23072842.031    23072838.976   121249123.401 0  94479053.349 0        45.000  
        43.000                                                  
  22343722.692    22343719.314   117417690.115 0  91494307.962 0        47.000  
        45.000                                                  
  23249955.052    23249948.190   122178598.230 0  95205145.757 0        44.000  
        41.000                                                  
  22833149.048                   119989590.433 0                        45.000  
                                                                
  24122152.784                   126762760.559 0                        38.000  
                                                                
  23406608.130    23406602.162   123002054.454 0  95845761.520 0        42.000  
        39.000                                                  
 22  1 19  4  0 37.0000000  0  0
 22  1 19  4  0 38.0000000  0  8E03E07E08E13E15E24E25E26
  24350621.341                   127963893.417 0                        47.000  
                  24350619.804    98050261.954          51.000  
  27355012.255                   143751742.104 0                        41.000  
                  27355012.541   110147439.917          46.000  
  21842966.303                   114785220.757 0                        49.000  
                  21842963.747    87952318.273          53.000  
  23744246.732                   124776735.856 0                        49.000  
                  23744244.534    95608149.798          53.000  
  24558107.090                   129054065.705 0                        46.000  
                  24558106.607    98885584.974          51.000  
  28668146.159                   150652426.001 0                        35.000  
                  28668143.854   115434976.100          40.000  
  28244557.325                   148425470.163 0                        35.000  
                  28244555.359   113728606.967          42.000  
  27453044.503                   144266280.964 0                        40.000  
                  27453041.644   110541696.471          45.000  
 22  1 19  4  0 39.0000000  0  9G01G03G04G06G09G17G19G21G31
  22121942.099    22121939.544   116251340.183 0  90585461.795 0        45.000  
        45.000                                                  
  20405248.731    20405245.371   107230118.98910  83556132.757 0        50.000  
        48.000                                                  
  20429188.057    20429183.143   107355703.366 0  83653801.281 0        49.000  
        50.000                                                  
  23072273.296    23072270.330   121246134.748 0  94476724.528 0        45.000  
        43.000                                                  
  22343194.251    22343190.945   117414913.135 0  91492144.088 0        47.000  
        45.000                                                  
  23250322.278    23250315.381   122180527.624 0  95206649.172 0        44.000  
        41.000                                                  
  22833349.431                   119990643.104 0                        45.000  
                                                                
  24122769.712                   126766002.423 0                        38.000  
                                                                
  23407053.551    23407047.565   123004394.818 0  95847585.202 0        42.000  
        39.000                                                  
 22  1 19  4  0 38.0000000  0  0
 22  1 19  4  0 39.0000000  0  8E03E07E08E13E15E24E25E26
  24350922.541                   127965476.241 0                        47.000  
                  24350921.022    98051474.771          51.000  
  27354540.317                   143749261.368 0                        41.000  
                  27354540.495   110145539.105          46.000  
  21842796.904                   114784331.053 0                        49.000  
                  21842794.385    87951636.549          53.000  
  23744192.160                   124776449.390 0                        49.000  
                  23744189.980    95607930.300          53.000  
  24558576.241                   129056530.158 0                        46.000  
                  24558575.651    98887473.323          51.000  
  28668089.032                   150652126.526 0                        35.000  
                  28668086.888   115434746.650          40.000  
  28244135.026                   148423250.528 0                        35.000  
                  28244132.971   113726906.215          42.000  
  27452537.648                   144263617.969 0                        40.000  
                  27452534.753   110539655.993          45.000  
 22  1 19  4  0 40.0000000  0  9G01G03G04G06G09G17G19G21G31
  22122566.086    22122563.655   116254619.820 0  90588017.355 0        45.000  
        45.000                                                  
  20405378.120    20405374.707   107230798.51310  83556662.249 0        50.000  
        48.000                                                  
  20429022.715    20429017.766   107354834.076 0  83653123.915 0        49.000  
        50.000                                                  
  23071704.561    23071701.559   121243146.077 0  94474395.698 0        45.000  
        43.000                                                  
  22342665.739    22342662.505   117412136.134 0  91489980.194 0        47.000  
        45.000                                                  
  23250689.433    23250682.500   122182457.103 0  95208152.664 0        45.000  
        41.000                                                  
  22833549.939                   119991696.087 0                        45.000  
                                                                
  24123386.640                   126769244.114 0                        38.000  
                                                                
  23407498.990    23407492.879   123006735.413 0  95849409.022 0        42.000  
        39.000                                                  
 22  1 19  4  0 39.0000000  0  0
 22  1 19  4  0 40.0000000  0  8E03E07E08E13E15E24E25E26
  24351223.723                   127967058.910 0                        47.000  
                  24351222.222    98052687.470          51.000  
  27354068.324                   143746780.441 0                        41.000  
                  27354068.342   110143638.122          46.000  
  21842627.524                   114783441.281 0                        49.000  
                  21842624.986    87950954.783          53.000  
  23744137.606                   124776163.070 0                        49.000  
                  23744135.462    95607710.912          53.000  
  24559044.963                   129058994.575 0                        46.000  
                  24559044.499    98889361.649          51.000  
  28668032.191                   150651827.188 0                        35.000  
                  28668029.868   115434517.260          40.000  
  28243712.549                   148421030.794 0                        35.000  
                  28243710.565   113725205.355          42.000  
  27452030.847                   144260954.849 0                        40.000  
                  27452027.934   110537615.415          45.000  
 22  1 19  4  0 41.0000000  0  9G01G03G04G06G09G17G19G21G31
  22123190.197    22123187.713   116257899.679 0  90590573.090 0        45.000  
        45.000                                                  
  20405507.492    20405504.133   107231478.29810  83557191.948 0        50.000  
        48.000                                                  
  20428857.391    20428852.370   107353965.189 0  83652446.858 0        49.000  
        50.000                                                  
  23071135.861    23071132.788   121240157.614 0  94472067.035 0        45.000  
        43.000                                                  
  22342137.334    22342134.082   117409359.360 0  91487816.460 0        47.000  
        45.000                                                  
  23251056.588    23251049.797   122184386.899 0  95209656.392 0        45.000  
        41.000                                                  
  22833750.484                   119992749.616 0                        45.000  
                                                                
  24124003.550                   126772485.823 0                        38.000  
                                                                
  23407944.572    23407938.372   123009076.437 0  95851233.185 0        42.000  
        39.000                                                  
 22  1 19  4  0 40.0000000  0  0
 22  1 19  4  0 41.0000000  0  8E03E07E08E13E15E24E25E26
  24351524.995                   127968641.663 0                        47.000  
                  24351523.369    98053900.229          51.000  
  27353596.243                   143744299.509 0                        41.000  
                  27353596.135   110141737.152          46.000  
  21842458.376                   114782551.692 0                        49.000  
                  21842455.856    87950273.143          53.000  
  23744083.320                   124775877.105 0                        49.000  
                  23744081.104    95607491.796          53.000  
  24559513.972                   129061459.224 0                        46.000  
                  24559513.596    98891250.138          51.000  
  28667975.206                   150651528.154 0                        35.000  
                  28667973.026   115434288.168          40.000  
  28243290.125                   148418811.145 0                        35.000  
                  28243288.159   113723504.583          42.000  
  27451523.992                   144258291.799 0                        40.000  
                  27451521.240   110535574.912          45.000  
 22  1 19  4  0 42.0000000  0  9G01G03G04G06G09G17G19G21G31
  22123814.416    22123812.003   116261180.202 0  90593129.355 0        45.000  
        45.000                                                  
  20405637.025    20405633.683   107232158.77410  83557722.193 0        50.000  
        48.000                                                  
  20428692.246    20428687.189   107353097.112 0  83651770.438 0        49.000  
        50.000                                                  
  23070567.323    23070564.142   121237169.811 0  94469738.868 0        45.000  
        43.000                                                  
  22341609.036    22341605.713   117406583.207 0  91485653.233 0        47.000  
        45.000                                                  
  23251424.028    23251417.095   122186317.426 0  95211160.696 0        45.000  
        41.000                                                  
  22833951.188                   119993804.125 0                        45.000  
                                                                
  24124620.603                   126775727.971 0                        38.000  
                                                                
  23408390.172    23408384.007   123011418.303 0  95853058.032 0        42.000  
        39.000                                                  
 22  1 19  4  0 41.0000000  0  0
 22  1 19  4  0 42.0000000  0  8E03E07E08E13E15E24E25E26
  24351826.231                   127970224.924 0                        47.000  
                  24351824.730    98055113.372          51.000  
  27353124.161                   143741819.032 0                        41.000  
                  27353124.107   110139836.533          46.000  
  21842289.102                   114781662.700 0                        49.000  
                  21842286.690    87949591.970          53.000  
  23744028.855                   124775591.938 0                        49.000  
                  23744026.889    95607273.294          53.000  
  24559983.123                   129063924.489 0                        46.000  
                  24559982.712    98893139.107          51.000  
  28667918.544                   150651229.970 0                        35.000  
                  28667916.239   115434059.680          40.000  
  28242867.951                   148416592.024 0                        35.000  
                  28242865.986   113721804.224          42.000  
  27451017.316                   144255629.291 0                        40.000  
                  27451014.636   110533534.802          45.000  
 22  1 19  4  0 43.0000000  0  9G01G03G04G06G09G17G19G21G31
  22124438.706    22124436.436   116264461.094 0  90595685.888 0        45.000  
        45.000                                                  
  20405766.629    20405763.216   107232839.65410  83558252.751 0        50.000  
        48.000                                                  
  20428527.154    20428522.186   107352229.586 0  83651094.440 0        49.000  
        50.000                                                  
  23069998.945    23069995.657   121234182.358 0  94467410.982 0        45.000  
        43.000                                                  
  22341080.882    22341077.504   117403807.401 0  91483490.277 0        47.000  
        45.000                                                  
  23251791.576    23251784.589   122188248.402 0  95212665.364 0        45.000  
        41.000                                                  
  22834152.054                   119994859.302 0                        45.000  
                                                                
  24125237.656                   126778970.314 0                        38.000  
                                                                
  23408835.933    23408829.750   123013760.750 0  95854883.310 0        42.000  
        39.000                                                  
 22  1 19  4  0 42.0000000  0  0
 22  1 19  4  0 43.0000000  0  8E03E07E08E13E15E24E25E26
  24352127.646                   127971808.402 0                        47.000  
                  24352126.002    98056326.689          51.000  
  27352652.294                   143739338.712 0                        41.000  
                  27352652.097   110137936.025          46.000  
  21842120.061                   114780774.017 0                        49.000  
                  21842117.578    87948911.031          53.000  
  23743974.712                   124775307.282 0                        49.000  
                  23743972.657    95607055.181          53.000  
  24560452.292                   129066390.098 0                        46.000  
                  24560451.970    98895028.342          51.000  
  28667862.078                   150650932.249 0                        35.000  
                  28667859.487   115433831.548          40.000  
  28242445.581                   148414373.135 0                        35.000  
                  28242443.741   113720104.048          42.000  
  27450510.747                   144252966.975 0                        40.000  
                  27450508.013   110531494.843          45.000  
 22  1 19  4  0 44.0000000  0  9G01G03G04G06G09G17G19G21G31
  22125063.121    22125060.851   116267742.338 0  90598242.706 0        45.000  
        46.000                                                  
  20405896.340    20405892.909   107233520.94510  83558783.622 0        50.000  
        48.000                                                  
  20428362.097    20428357.273   107351362.565 0  83650418.839 0        49.000  
        50.000                                                  
  23069430.495    23069427.064   121231195.245 0  94465083.361 0        45.000  
        43.000                                                  
  22340552.673    22340549.332   117401031.935 0  91481327.562 0        47.000  
        45.000                                                  
  23252159.106    23252152.066   122190179.815 0  95214170.364 0        45.000  
        41.000                                                  
  22834352.955                   119995915.140 0                        45.000  
                                                                
  24125854.710                   126782212.809 0                        38.000  
                                                                
  23409281.818    23409275.600   123016103.754 0  95856709.012 0        42.000  
        39.000                                                  
 22  1 19  4  0 43.0000000  0  0
 22  1 19  4  0 44.0000000  0  8E03E07E08E13E15E24E25E26
  24352429.025                   127973392.071 0                        47.000  
                  24352427.381    98057540.154          51.000  
  27352180.462                   143736858.537 0                        41.000  
                  27352180.140   110136035.622          46.000  
  21841951.038                   114779885.619 0                        49.000  
                  21841948.519    87948230.317          53.000  
  23743920.730                   124775023.101 0                        49.000  
                  23743918.728    95606837.432          53.000  
  24560921.586                   129068856.047 0                        46.000  
                  24560921.175    98896917.831          51.000  
  28667805.433                   150650635.028 0                        35.000  
                  28667802.913   115433603.800          40.000  
  28242023.354                   148412154.528 0                        34.000  
                  28242021.514   113718404.067          42.000  
  27450004.321                   144250304.887 0                        40.000  
                  27450001.641   110529455.058          45.000  
 22  1 19  4  0 45.0000000  0  9G01G03G04G06G09G17G19G21G31
  22125687.429    22125685.213   116271023.600 0  90600799.527 0        45.000  
        45.000                                                  
  20406025.926    20406022.549   107234202.28210  83559314.537 0        50.000  
        48.000                                                  
  20428197.131    20428192.252   107350495.738 0  83649743.394 0        49.000  
        50.000                                                  
  23068862.028    23068858.740   121228208.153 0  94462755.748 0        45.000  
        43.000                                                  
  22340024.608    22340021.088   117398256.455 0  91479164.855 0        47.000  
        45.000                                                  
  23252526.654    23252519.703   122192111.339 0  95215675.443 0        45.000  
        41.000                                                  
  22834553.821                   119996971.322 0                        45.000  
                                                                
  24126471.673                   126785455.140 0                        38.000  
                                                                
  23409727.668    23409721.486   123018446.988 0  95858534.922 0        42.000  
        39.000                                                  
 22  1 19  4  0 44.0000000  0  0
 22  1 19  4  0 45.0000000  0  8E03E07E08E13E15E24E25E26
  24352730.243                   127974975.620 0                        47.000  
                  24352728.724    98058753.525          51.000  
  27351708.380                   143734378.168 0                        41.000  
                  27351708.166   110134135.090          46.000  
  21841782.087                   114778997.209 0                        49.000  
                  21841779.478    87947549.580          53.000  
  23743866.586                   124774739.087 0                        49.000  
                  23743864.567    95606619.813          53.000  
  24561390.684                   129071321.984 0                        46.000  
                  24561390.398    98898807.320          51.000  
  28667748.931                   150650337.944 0                        35.000  
                  28667746.358   115433376.171          40.000  
  28241601.038                   148409935.782 0                        35.000  
                  28241599.251   113716703.987          42.000  
  27449497.645                   144247642.680 0                        40.000  
                  27449495.018   110527415.188          45.000  
 22  1 19  4  0 46.0000000  0  9G01G03G04G06G09G17G19G21G31
  22126311.915    22126309.753   116274305.267 0  90603356.672 0        44.000  
        46.000                                                  
  20406155.619    20406152.224   107234884.08110  83559845.809 0        50.000  
        48.000                                                  
  20428032.289    20428027.482   107349629.489 0  83649068.394 0        49.000  
        50.000                                                  
  23068293.686    23068290.291   121225221.450 0  94460428.441 0        45.000  
        43.000                                                  
  22339496.560    22339493.040   117395481.367 0  91477002.451 0        47.000  
        45.000                                                  
  23252894.202    23252887.430   122194043.348 0  95217180.895 0        45.000  
        41.000                                                  
  22834755.026                   119998028.234 0                        45.000  
                                                                
  24127088.726                   126788697.691 0                        38.000  
                                                                
  23410173.751    23410167.496   123020790.817 0  95860361.298 0        43.000  
        39.000                                                  
 22  1 19  4  0 45.0000000  0  0
 22  1 19  4  0 46.0000000  0  8E03E07E08E13E15E24E25E26
  24353031.693                   127976559.436 0                        47.000  
                  24353030.067    98059967.094          51.000  
  27351236.352                   143731897.990 0                        41.000  
                  27351236.209   110132234.699          46.000  
  21841613.099                   114778109.130 0                        49.000  
                  21841610.508    87946869.109          53.000  
  23743812.693                   124774455.623 0                        49.000  
                  23743810.603    95606402.613          53.000  
  24561860.139                   129073788.303 0                        46.000  
                  24561859.728    98900697.099          51.000  
  28667692.626                   150650041.380 0                        35.000  
                  28667689.927   115433148.945          40.000  
  28241178.757                   148407717.322 0                        34.000  
                  28241177.185   113715004.143          42.000  
  27448991.273                   144244980.742 0                        40.000  
                  27448988.449   110525375.526          45.000  
 22  1 19  4  0 47.0000000  0  9G01G03G04G06G09G17G19G21G31
  22126936.473    22126934.401   116277587.486 0  90605914.241 0        44.000  
        46.000                                                  
  20406285.438    20406282.186   107235566.45210  83560377.529 0        50.000  
        48.000                                                  
  20427867.608    20427862.766   107348763.959 0  83648393.948 0        48.000  
        51.000                                                  
  23067725.594    23067722.056   121222235.262 0  94458101.547 0        45.000  
        43.000                                                  
  22338968.656    22338965.154   117392706.808 0  91474840.457 0        47.000  
        45.000                                                  
  23253261.929    23253255.156   122195975.987 0  95218686.841 0        45.000  
        41.000                                                  
  22834956.321                   119999085.994 0                        45.000  
                                                                
  24127705.815                   126791940.573 0                        38.000  
                                                                
  23410619.904    23410613.614   123023135.406 0  95862188.228 0        43.000  
        39.000                                                  
 22  1 19  4  0 46.0000000  0  0
 22  1 19  4  0 47.0000000  0  8E03E07E08E13E15E24E25E26
  24353333.144                   127978143.618 0                        47.000  
                  24353331.678    98061180.950          51.000  
  27350764.485                   143729418.149 0                        41.000  
                  27350764.288   110130334.565          46.000  
  21841444.166                   114777221.551 0                        49.000  
                  21841441.557    87946189.011          53.000  
  23743758.836                   124774172.842 0                        49.000  
                  23743756.835    95606185.932          53.000  
  24562329.379                   129076255.153 0                        46.000  
                  24562329.236    98902587.276          51.000  
  28667636.267                   150649745.508 0                        35.000  
                  28667633.533   115432922.214          40.000  
  28240756.726                   148405499.287 0                        34.000  
                  28240755.100   113713304.603          42.000  
  27448484.829                   144242319.223 0                        40.000  
                  27448482.166   110523336.163          45.000  
 22  1 19  4  0 48.0000000  0  9G01G03G04G06G09G17G19G21G31
  22127561.157    22127559.030   116280870.166 0  90608472.175 0        44.000  
        46.000                                                  
  20406415.346    20406412.093   107236249.32710  83560909.639 0        50.000  
        48.000                                                  
  20427703.016    20427698.210   107347899.042 0  83647719.992 0        49.000  
        51.000                                                  
  23067157.305    23067153.892   121219249.531 0  94455775.004 0        45.000  
        43.000                                                  
  22338440.805    22338437.249   117389932.689 0  91472678.804 0        47.000  
        45.000                                                  
  23253629.763    23253622.972   122197909.158 0  95220193.230 0        45.000  
        41.000                                                  
  22835157.705                   120000144.529 0                        45.000  
                                                                
  24128323.083                   126795183.764 0                        38.000  
                                                                
  23411066.183    23411059.893   123025480.649 0  95864015.702 0        43.000  
        39.000                                                  
 22  1 19  4  0 47.0000000  0  0
 22  1 19  4  0 48.0000000  0  8E03E07E08E13E15E24E25E26
  24353634.576                   127979728.150 0                        47.000  
                  24353633.039    98062395.067          51.000  
  27350292.457                   143726938.573 0                        41.000  
                  27350292.439   110128434.619          46.000  
  21841275.321                   114776334.367 0                        49.000  
                  21841272.712    87945509.223          53.000  
  23743705.158                   124773890.659 0                        48.000  
                  23743703.103    95605969.719          53.000  
  24562799.102                   129078722.446 0                        46.000  
                  24562798.655    98904477.799          51.000  
  28667580.212                   150649450.227 0                        35.000  
                  28667577.370   115432695.974          40.000  
  28240334.696                   148403281.586 0                        34.000  
                  28240332.945   113711605.331          42.000  
  27447978.295                   144239658.004 0                        40.000  
                  27447975.722   110521297.063          45.000  
 22  1 19  4  0 49.0000000  0  9G01G03G04G06G09G17G19G21G31
  22128185.804    22128183.731   116284153.200 0  90611030.377 0        44.000  
        46.000                                                  
  20406545.378    20406542.108   107236932.60510  83561442.056 0        50.000  
        48.000                                                  
  20427538.586    20427533.600   107347034.653 0  83647046.447 0        49.000  
        51.000                                                  
  23066589.142    23066585.836   121216264.141 0  94453448.730 0        45.000  
        43.000                                                  
  22337912.972    22337909.470   117387158.902 0  91470517.415 0        47.000  
        45.000                                                  
  23253997.704    23253990.985   122199842.771 0  95221699.942 0        45.000  
        41.000                                                  
  22835359.267                   120001203.735 0                        45.000  
                                                                
  24128940.243                   126798427.066 0                        39.000  
                                                                
  23411512.677    23411506.315   123027826.450 0  95865843.592 0        43.000  
        39.000                                                  
 22  1 19  4  0 48.0000000  0  0
 22  1 19  4  0 49.0000000  0  8E03E07E08E13E15E24E25E26
  24353936.312                   127981312.858 0                        47.000  
                  24353934.722    98063609.328          51.000  
  27349820.715                   143724459.137 0                        42.000  
                  27349820.643   110126534.803          46.000  
  21841106.584                   114775447.486 0                        49.000  
                  21841103.904    87944829.667          53.000  
  23743651.425                   124773608.961 0                        49.000  
                  23743649.478    95605753.870          53.000  
  24563268.486                   129081190.047 0                        46.000  
                  24563268.271    98906368.567          51.000  
  28667524.264                   150649155.417 0                        35.000  
                  28667521.297   115432470.084          40.000  
  28239912.683                   148401064.161 0                        34.000  
                  28239911.003   113709906.245          42.000  
  27447471.977                   144236996.985 0                        40.000  
                  27447469.386   110519258.102          45.000  
 22  1 19  4  0 50.0000000  0  9G01G03G04G06G09G17G19G21G31
  22128810.398    22128808.575   116287436.308 0  90613588.643 0        44.000  
        46.000                                                  
  20406675.376    20406672.052   107237615.98510  83561974.567 0        50.000  
        48.000                                                  
  20427374.155    20427369.205   107346170.505 0  83646373.082 0        49.000  
        51.000                                                  
  23066021.086    23066017.869   121213278.815 0  94451122.493 0        45.000  
        43.000                                                  
  22337385.192    22337381.636   117384385.161 0  91468356.046 0        47.000  
        45.000                                                  
  23254365.663    23254358.944   122201776.535 0  95223206.753 0        45.000  
        41.000                                                  
  22835560.848                   120002263.329 0                        45.000  
                                                                
  24129557.332                   126801670.253 0                        39.000  
                                                                
  23411959.223    23411952.683   123030172.533 0  95867671.713 0        43.000  
        39.000                                                  
 22  1 19  4  0 49.0000000  0  0
 22  1 19  4  0 50.0000000  0  8E03E07E08E13E15E24E25E26
  24354237.870                   127982897.486 0                        47.000  
                  24354236.119    98064823.522          51.000  
  27349348.883                   143721979.557 0                        42.000  
                  27349348.704   110124634.854          46.000  
  21840937.847                   114774560.622 0                        49.000  
                  21840935.166    87944150.118          53.000  
  23743597.872                   124773327.471 0                        48.000  
                  23743595.924    95605538.183          53.000  
  24563738.191                   129083657.710 0                        46.000  
                  24563737.869    98908259.367          51.000  
  28667468.298                   150648860.802 0                        35.000  
                  28667465.189   115432244.346          40.000  
  28239490.510                   148398846.599 0                        34.000  
                  28239489.044   113708207.114          42.000  
  27446965.622                   144234335.913 0                        40.000  
                  27446962.870   110517219.099          45.000  
 22  1 19  4  0 51.0000000  0  9G01G03G04G06G09G17G19G21G31
  22129435.206    22129433.419   116290719.501 0  90616146.977 0        44.000  
        46.000                                                  
  20406805.516    20406802.156   107238299.49410  83562507.172 0        50.000  
        48.000                                                  
  20427209.671    20427204.792   107345306.609 0  83645699.921 0        49.000  
        51.000                                                  
  23065453.012    23065449.777   121210293.553 0  94448796.327 0        45.000  
        43.000                                                  
  22336857.431    22336853.803   117381611.494 0  91466194.753 0        47.000  
        45.000                                                  
  23254733.711    23254726.992   122203710.468 0  95224713.741 0        45.000  
        41.000                                                  
  22835762.625                   120003323.323 0                        45.000  
                                                                
  24130174.528                   126804913.347 0                        39.000  
                                                                
  23412405.752    23412399.248   123032518.903 0  95869500.046 0        43.000  
        39.000                                                  
 22  1 19  4  0 50.0000000  0  0
 22  1 19  4  0 51.0000000  0  8E03E07E08E13E15E24E25E26
  24354539.320                   127984482.053 0                        47.000  
                  24354537.766    98066037.666          51.000  
  27348877.034                   143719499.846 0                        42.000  
                  27348876.891   110122734.819          46.000  
  21840769.288                   114773673.770 0                        49.000  
                  21840766.394    87943470.584          53.000  
  23743544.283                   124773046.195 0                        49.000  
                  23743542.550    95605322.664          53.000  
  24564208.021                   129086125.431 0                        46.000  
                  24564207.521    98910150.216          51.000  
  28667412.261                   150648566.432 0                        35.000  
                  28667409.205   115432018.763          40.000  
  28239068.372                   148396629.068 0                        34.000  
                  28239067.121   113706507.942          42.000  
  27446459.125                   144231674.787 0                        40.000  
                  27446456.498   110515180.057          45.000  
 22  1 19  4  0 52.0000000  0  9G01G03G04G06G09G17G19G21G31
  22130060.050    22130058.281   116294003.419 0  90618705.876 0        44.000  
        46.000                                                  
  20406935.727    20406932.368   107238983.77810  83563040.376 0        50.000  
        48.000                                                  
  20427045.401    20427040.665   107344443.608 0  83645027.446 0        48.000  
        51.000                                                  
  23064885.116    23064881.828   121207309.011 0  94446470.700 0        45.000  
        43.000                                                  
  22336329.651    22336326.113   117378838.531 0  91464034.012 0        47.000  
        45.000                                                  
  23255101.884    23255095.273   122205645.215 0  95226221.313 0        45.000  
        41.000                                                  
  22835964.545                   120004384.360 0                        45.000  
                                                                
  24130791.706                   126808156.969 0                        39.000  
                                                                
  23412852.460    23412845.938   123034866.204 0  95871329.123 0        43.000  
        39.000                                                  
 22  1 19  4  0 51.0000000  0  0
 22  1 19  4  0 52.0000000  0  8E03E07E08E13E15E24E25E26
  24354840.896                   127986067.195 0                        47.000  
                  24354839.449    98067252.260          51.000  
  27348405.399                   143717020.662 0                        42.000  
                  27348404.988   110120835.190          46.000  
  21840600.498                   114772787.602 0                        49.000  
                  21840597.781    87942791.572          53.000  
  23743490.944                   124772765.809 0                        49.000  
                  23743489.121    95605107.818          53.000  
  24564677.476                   129088593.851 0                        46.000  
                  24564677.244    98912041.608          51.000  
  28667356.456                   150648272.894 0                        35.000  
                  28667353.418   115431793.842          40.000  
  28238646.573                   148394412.163 0                        34.000  
                  28238645.233   113704809.263          42.000  
  27445952.699                   144229014.270 0                        40.000  
                  27445950.304   110513141.461          45.000  
 22  1 19  4  0 53.0000000  0  9G01G03G04G06G09G17G19G21G31
  22130685.001    22130683.322   116297287.639 0  90621264.995 0        44.000  
        46.000                                                  
  20407066.100    20407062.597   107239668.38810  83563573.838 0        50.000  
        48.000                                                  
  20426881.274    20426876.556   107343581.065 0  83644355.333 0        49.000  
        51.000                                                  
  23064317.203    23064314.004   121204324.741 0  94444145.298 0        45.000  
        43.000                                                  
  22335802.122    22335798.530   117376065.836 0  91461873.466 0        47.000  
        45.000                                                  
  23255470.129    23255463.500   122207580.325 0  95227729.205 0        45.000  
        41.000                                                  
  22836166.572                   120005446.000 0                        45.000  
                                                                
  24131409.027                   126811400.670 0                        39.000  
                                                                
  23413299.221    23413292.753   123037213.991 0  95873158.552 0        43.000  
        39.000                                                  
 22  1 19  4  0 52.0000000  0  0
 22  1 19  4  0 53.0000000  0  8E03E07E08E13E15E24E25E26
  24355142.454                   127987652.478 0                        47.000  
                  24355141.060    98068466.960          51.000  
  27347933.621                   143714541.549 0                        41.000  
                  27347933.245   110118935.608          46.000  
  21840432.046                   114771901.663 0                        49.000  
                  21840429.044    87942112.731          53.000  
  23743437.873                   124772485.836 0                        49.000  
                  23743435.871    95604893.298          53.000  
  24565147.288                   129091062.547 0                        46.000  
                  24565147.038    98913933.203          51.000  
  28667300.704                   150647979.751 0                        36.000  
                  28667297.559   115431569.235          40.000  
  28238224.704                   148392195.363 0                        34.000  
                  28238223.310   113703110.686          42.000  
  27445446.291                   144226353.867 0                        40.000  
                  27445444.021   110511102.979          45.000  
 22  1 19  4  0 54.0000000  0  9G01G03G04G06G09G17G19G21G31
  22131309.988    22131308.344   116300572.038 0  90623824.279 0        44.000  
        46.000                                                  
  20407196.401    20407192.934   107240353.22710  83564107.478 0        50.000  
        48.000                                                  
  20426717.218    20426712.501   107342718.878 0  83643683.498 0        49.000  
        51.000                                                  
  23063749.397    23063746.198   121201340.663 0  94441820.028 0        45.000  
        43.000                                                  
  22335274.521    22335270.930   117373293.293 0  91459713.052 0        47.000  
        45.000                                                  
  23255838.445    23255831.762   122209515.714 0  95229237.291 0        45.000  
        41.000                                                  
  22836368.653                   120006508.156 0                        45.000  
                                                                
  24132026.313                   126814644.377 0                        39.000  
                                                                
  23413746.161    23413739.621   123039562.166 0  95874988.303 0        43.000  
        39.000                                                  
 22  1 19  4  0 53.0000000  0  0
 22  1 19  4  0 54.0000000  0  8E03E07E08E13E15E24E25E26
  24355444.083                   127989237.802 0                        47.000  
                  24355442.743    98069681.688          51.000  
  27347461.575                   143712062.416 0                        41.000  
                  27347461.467   110117036.019          46.000  
  21840263.381                   114771015.858 0                        49.000  
                  21840260.593    87941433.998          53.000  
  23743384.569                   124772206.186 0                        49.000  
                  23743382.693    95604679.021          53.000  
  24565616.993                   129093531.407 0                        46.000  
                  24565616.725    98915824.927          51.000  
  28667245.024                   150647686.952 0                        36.000  
                  28667241.772   115431344.889          40.000  
  28237803.048                   148389978.666 0                        34.000  
                  28237801.637   113701412.166          42.000  
  27444939.936                   144223693.525 0                        40.000  
                  27444937.845   110509064.553          45.000  
 22  1 19  4  0 55.0000000  0  9G01G03G04G06G09G17G19G21G31
  22131935.118    22131933.474   116303856.842 0  90626383.855 0        44.000  
        46.000                                                  
  20407326.844    20407323.306   107241038.51110  83564641.467 0        50.000  
        48.000                                                  
  20426553.431    20426548.481   107341857.259 0  83643012.107 0        49.000  
        51.000                                                  
  23063181.716    23063178.517   121198356.957 0  94439495.073 0        45.000  
        43.000                                                  
  22334747.046    22334743.454   117370521.146 0  91457552.932 0        47.000  
        45.000                                                  
  23256206.833    23256200.079   122211451.587 0  95230745.762 0        45.000  
        41.000                                                  
  22836570.823                   120007571.010 0                        45.000  
                                                                
  24132643.652                   126817888.272 0                        40.000  
                                                                
  23414193.173    23414186.526   123041910.955 0  95876818.526 0        43.000  
        39.000                                                  
 22  1 19  4  0 54.0000000  0  0
 22  1 19  4  0 55.0000000  0  8E03E07E08E13E15E24E25E26
  24355745.980                   127990823.367 0                        47.000  
                  24355744.443    98070896.599          51.000  
  27346989.815                   143709583.482 0                        41.000  
                  27346989.743   110115136.569          46.000  
  21840095.090                   114770130.392 0                        49.000  
                  21840092.160    87940755.525          53.000  
  23743331.445                   124771927.079 0                        49.000  
                  23743329.497    95604465.157          53.000  
  24566086.788                   129096000.625 0                        46.000  
                  24566086.663    98917716.928          51.000  
  28667189.648                   150647394.684 0                        36.000  
                  28667186.128   115431120.925          40.000  
  28237380.928                   148387762.192 0                        34.000  
                  28237379.856   113699713.874          42.000  
  27444433.653                   144221033.453 0                        41.000  
                  27444431.705   110507026.296          46.000  
 22  1 19  4  0 56.0000000  0  9G01G03G04G06G09G17G19G21G31
  22132560.302    22132558.515   116307142.212 0  90628943.890 0        44.000  
        46.000                                                  
  20407457.449    20407453.875   107241724.40110  83565175.930 0        50.000  
        48.000                                                  
  20426389.590    20426384.729   107340996.380 0  83642341.292 0        49.000  
        51.000                                                  
  23062614.088    23062610.854   121195373.814 0  94437170.544 0        45.000  
        43.000                                                  
  22334219.570    22334215.943   117367749.547 0  91455393.248 0        47.000  
        45.000                                                  
  23256575.346    23256568.574   122213388.115 0  95232254.742 0        45.000  
        41.000                                                  
  22836773.279                   120008634.751 0                        45.000  
                                                                
  24133261.098                   126821132.554 0                        40.000  
                                                                
  23414640.274    23414633.537   123044260.509 0  95878649.372 0        43.000  
        39.000                                                  
 22  1 19  4  0 55.0000000  0  0
 22  1 19  4  0 56.0000000  0  8E03E07E08E13E15E24E25E26
  24356047.680                   127992409.360 0                        47.000  
                  24356046.340    98072111.848          51.000  
  27346518.108                   143707104.888 0                        41.000  
                  27346518.162   110113237.400          46.000  
  21839926.567                   114769245.441 0                        49.000  
                  21839923.673    87940077.451          53.000  
  23743278.463                   124771648.685 0                        48.000  
                  23743276.462    95604251.842          53.000  
  24566556.868                   129098470.412 0                        46.000  
                  24566556.690    98919609.362          51.000  
  28667134.254                   150647103.102 0                        36.000  
                  28667130.609   115430897.517          40.000  
  28236959.291                   148385546.252 0                        34.000  
                  28236958.165   113698015.912          42.000  
  27443927.745                   144218373.816 0                        41.000  
                  27443925.494   110504988.395          46.000  
 22  1 19  4  0 57.0000000  0  9G01G03G04G06G09G17G19G21G31
  22133185.431    22133183.734   116310427.568 0  90631503.905 0        44.000  
        46.000                                                  
  20407587.893    20407584.462   107242410.34010  83565710.426 0        50.000  
        48.000                                                  
  20426225.766    20426220.924   107340135.656 0  83641670.600 0        49.000  
        51.000                                                  
  23062046.479    23062043.209   121192390.654 0  94434846.011 0        45.000  
        43.000                                                  
  22333692.148    22333688.646   117364977.920 0  91453233.536 0        47.000  
        45.000                                                  
  23256943.930    23256937.158   122215324.725 0  95233763.793 0        45.000  
        41.000                                                  
  22836975.699                   120009698.802 0                        45.000  
                                                                
  24133878.473                   126824376.639 0                        40.000  
                                                                
  23415087.392    23415080.602   123046610.257 0  95880480.331 0        43.000  
        39.000                                                  
 22  1 19  4  0 56.0000000  0  0
 22  1 19  4  0 57.0000000  0  8E03E07E08E13E15E24E25E26
  24356349.560                   127993995.195 0                        47.000  
                  24356348.041    98073326.959          51.000  
  27346046.437                   143704626.113 0                        41.000  
                  27346046.330   110111338.058          46.000  
  21839758.080                   114768360.423 0                        49.000  
                  21839755.328    87939399.320          53.000  
  23743225.482                   124771370.417 0                        48.000  
                  23743223.570    95604038.629          53.000  
  24567026.788                   129100940.162 0                        46.000  
                  24567026.645    98921501.763          51.000  
  28667078.753                   150646811.653 0                        35.000  
                  28667075.233   115430674.192          40.000  
  28236537.636                   148383330.139 0                        33.000  
                  28236536.385   113696317.858          42.000  
  27443421.784                   144215714.011 0                        41.000  
                  27443419.586   110502950.367          46.000  
 22  1 19  4  0 58.0000000  0  9G01G03G04G06G09G17G19G21G31
  22133810.776    22133809.060   116313713.495 0  90634064.360 0        44.000  
        46.000                                                  
  20407718.533    20407715.103   107243096.87410  83566245.388 0        50.000  
        48.000                                                  
  20426062.068    20426057.387   107339275.669 0  83641000.478 0        49.000  
        51.000                                                  
  23061478.959    23061475.653   121189408.045 0  94432521.902 0        45.000  
        43.000                                                  
  22333164.922    22333161.313   117362206.853 0  91451074.256 0        47.000  
        45.000                                                  
  23257312.622    23257305.742   122217261.983 0  95235273.327 0        45.000  
        41.000                                                  
  22837178.388                   120010763.734 0                        45.000  
                                                                
  24134495.847                   126827621.083 0                        40.000  
                                                                
  23415534.708    23415527.935   123048960.779 0  95882311.912 0        43.000  
        39.000                                                  
 22  1 19  4  0 57.0000000  0  0
 22  1 19  4  0 58.0000000  0  8E03E07E08E13E15E24E25E26
  24356651.332                   127995581.434 0                        47.000  
                  24356649.902    98074542.393          51.000  
  27345574.767                   143702147.660 0                        41.000  
                  27345574.713   110109439.000          46.000  
  21839589.915                   114767475.919 0                        49.000  
                  21839586.895    87938721.583          53.000  
  23743172.536                   124771092.856 0                        49.000  
                  23743170.695    95603825.952          53.000  
  24567496.815                   129103410.445 0                        46.000  
                  24567496.761    98923394.580          51.000  
  28667023.484                   150646520.902 0                        35.000  
                  28667019.785   115430451.393          40.000  
  28236115.891                   148381114.475 0                        33.000  
                  28236114.837   113694620.137          42.000  
  27442915.537                   144213054.644 0                        41.000  
                  27442913.446   110500912.668          46.000  
 22  1 19  4  0 59.0000000  0  9G01G03G04G06G09G17G19G21G31
  22134436.120    22134434.387   116316999.453 0  90636624.850 0        44.000  
        46.000                                                  
  20407849.192    20407845.743   107243783.45910  83566780.396 0        50.000  
        48.000                                                  
  20425898.460    20425893.706   107338415.870 0  83640330.505 0        49.000  
        51.000                                                  
  23060911.403    23060908.079   121186425.463 0  94430197.806 0        45.000  
        43.000                                                  
  22332637.607    22332634.069   117359435.762 0  91448914.980 0        47.000  
        45.000                                                  
  23257681.331    23257674.434   122219199.344 0  95236782.968 0        45.000  
        41.000                                                  
  22837381.076                   120011828.997 0                        45.000  
                                                                
  24135113.169                   126830865.356 0                        40.000  
                                                                
  23415982.077    23415975.304   123051311.513 0  95884143.650 0        43.000  
        39.000                                                  
 22  1 19  4  0 58.0000000  0  0
 22  1 19  4  0 59.0000000  0  8E03E07E08E13E15E24E25E26
  24356953.157                   127997167.554 0                        47.000  
                  24356951.728    98075757.732          51.000  
  27345103.007                   143699669.037 0                        41.000  
                  27345103.078   110107539.791          46.000  
  21839421.678                   114766591.376 0                        49.000  
                  21839418.640    87938043.817          53.000  
  23743119.876                   124770815.451 0                        49.000  
                  23743117.964    95603613.397          53.000  
  24567966.967                   129105880.737 0                        46.000  
                  24567966.806    98925287.398          51.000  
  28666968.090                   150646230.262 0                        35.000  
                  28666964.481   115430228.722          40.000  
  28235694.164                   148378898.738 0                        33.000  
                  28235693.271   113692922.358          42.000  
  27442409.504                   144210395.156 0                        41.000  
                  27442407.467   110498874.888          46.000  
 22  1 19  4  1  0.0000000  0  9G01G03G04G06G09G17G19G21G31
  22135061.572    22135059.803   116320285.950 0  90639185.755 0        44.000  
        46.000                                                  
  20407979.886    20407976.580   107244470.64810  83567315.863 0        50.000  
        48.000                                                  
  20425734.922    20425730.330   107337556.784 0  83639661.089 0        49.000  
        51.000                                                  
  23060343.990    23060340.720   121183443.397 0  94427874.104 0        45.000  
        43.000                                                  
  22332110.489    22332106.790   117356665.211 0  91446756.098 0        47.000  
        45.000                                                  
  23258050.059    23258043.286   122221137.336 0  95238293.075 0        45.000  
        41.000                                                  
  22837584.014                   120012895.118 0                        45.000  
                                                                
  24135730.650                   126834109.997 0                        40.000  
                                                                
  23416429.535    23416422.709   123053663.016 0  95885975.983 0        43.000  
        39.000                                                  
 22  1 19  4  0 59.0000000  0  0
 22  1 19  4  1  0.0000000  0  8E03E07E08E13E15E24E25E26
  24357255.090                   127998754.075 0                        47.000  
                  24357253.643    98076973.371          51.000  
  27344631.497                   143697190.746 0                        41.000  
                  27344631.443   110105640.838          46.000  
  21839253.459                   114765707.336 0                        49.000  
                  21839250.403    87937366.430          53.000  
  23743067.233                   124770538.741 0                        48.000  
                  23743065.286    95603401.366          53.000  
  24568437.190                   129108351.548 0                        46.000  
                  24568437.011    98927180.622          51.000  
  28666913.018                   150645940.342 0                        35.000  
                  28666909.337   115430006.548          40.000  
  28235272.580                   148376683.396 0                        33.000  
                  28235271.615   113691224.891          42.000  
  27441903.525                   144207736.080 0                        41.000  
                  27441901.398   110496837.411          46.000  
 22  1 19  4  1  1.0000000  0  9G01G03G04G06G09G17G19G21G31
  22135687.202    22135685.326   116323572.949 0  90641747.043 0        44.000  
        46.000                                                  
  20408110.776    20408107.524   107245158.37110  83567851.756 0        50.000  
        48.000                                                  
  20425571.671    20425566.828   107336698.361 0  83638992.191 0        48.000  
        51.000                                                  
  23059776.541    23059773.361   121180461.807 0  94425550.817 0        45.000  
        43.000                                                  
  22331583.353    22331579.743   117353895.133 0  91444597.603 0        47.000  
        45.000                                                  
  23258418.982    23258412.174   122223075.903 0  95239803.668 0        44.000  
        41.000                                                  
  22837787.042                   120013962.051 0                        45.000  
                                                                
  24136348.186                   126837354.915 0                        40.000  
                                                                
  23416877.243    23416870.364   123056015.208 0  95887808.860 0        43.000  
        39.000                                                  
 22  1 19  4  1  0.0000000  0  0
 22  1 19  4  1  1.0000000  0  8E03E07E08E13E15E24E25E26
  24357556.898                   128000340.931 0                        47.000  
                  24357555.647    98078189.280          51.000  
  27344160.058                   143694712.745 0                        41.000  
                  27344159.862   110103742.108          46.000  
  21839085.240                   114764823.726 0                        49.000  
                  21839082.220    87936689.384          53.000  
  23743014.645                   124770262.657 0                        48.000  
                  23743012.858    95603189.823          53.000  
  24568907.413                   129110822.829 0                        46.000  
                  24568907.199    98929074.197          51.000  
  28666858.017                   150645650.990 0                        35.000  
                  28666854.211   115429784.876          40.000  
  28234850.853                   148374468.451 0                        33.000  
                  28234850.085   113689527.723          42.000  
  27441397.545                   144205077.334 0                        41.000  
                  27441395.526   110494800.215          46.000  
 22  1 19  4  1  2.0000000  0  9G01G03G04G06G09G17G19G21G31
  22136312.707    22136310.867   116326860.294 0  90644308.604 0        44.000  
        46.000                                                  
  20408241.774    20408238.468   107245846.48810  83568387.946 0        50.000  
        48.000                                                  
  20425408.455    20425403.577   107335840.472 0  83638323.703 0        48.000  
        51.000                                                  
  23059209.235    23059206.055   121177480.583 0  94423227.770 0        45.000  
        43.000                                                  
  22331056.235    22331052.643   117351125.395 0  91442439.356 0        47.000  
        45.000                                                  
  23258788.013    23258781.027   122225014.904 0  95241314.573 0        45.000  
        41.000                                                  
  22837990.338                   120015029.656 0                        45.000  
                                                                
  24136965.668                   126840600.028 0                        40.000  
                                                                
  23417324.898    23417317.983   123058367.949 0  95889642.167 0        43.000  
        38.000                                                  
 22  1 19  4  1  1.0000000  0  0
 22  1 19  4  1  2.0000000  0  8E03E07E08E13E15E24E25E26
  24357858.920                   128001928.004 0                        47.000  
                  24357857.598    98079405.354          51.000  
  27343688.495                   143692234.882 0                        41.000  
                  27343688.334   110101843.495          46.000  
  21838917.182                   114763940.416 0                        49.000  
                  21838914.234    87936012.564          53.000  
  23742962.039                   124769987.071 0                        48.000  
                  23742960.430    95602978.660          53.000  
  24569377.779                   129113294.448 0                        46.000  
                  24569377.654    98930968.039          51.000  
  28666803.249                   150645362.182 0                        35.000  
                  28666799.335   115429563.570          40.000  
  28234429.198                   148372253.706 0                        33.000  
                  28234428.751   113687830.719          42.000  
  27440891.334                   144202418.839 0                        40.000  
                  27440889.708   110492763.175          46.000  
 22  1 19  4  1  3.0000000  0  9G01G03G04G06G09G17G19G21G31
  22136938.266    22136936.425   116330147.906 0  90646870.396 0        44.000  
        46.000                                                  
  20408372.754    20408369.466   107246534.91210  83568924.379 0        50.000  
        48.000                                                  
  20425245.186    20425240.415   107334983.005 0  83637655.550 0        49.000  
        51.000                                                  
  23058641.965    23058638.821   121174499.595 0  94420904.926 0        45.000  
        43.000                                                  
  22330529.188    22330525.614   117348355.889 0  91440281.306 0        47.000  
        45.000                                                  
  23259157.062    23259150.111   122226954.266 0  95242825.749 0        44.000  
        41.000                                                  
  22838193.545                   120016097.839 0                        45.000  
                                                                
  24137583.150                   126843845.185 0                        40.000  
                                                                
  23417772.713    23417765.852   123060721.168 0  95891475.853 0        43.000  
        38.000                                                  
 22  1 19  4  1  2.0000000  0  0
 22  1 19  4  1  3.0000000  0  8E03E07E08E13E15E24E25E26
  24358161.086                   128003515.176 0                        47.000  
                  24358159.727    98080621.492          51.000  
  27343217.038                   143689757.072 0                        41.000  
                  27343216.896   110099944.911          46.000  
  21838749.052                   114763057.306 0                        49.000  
                  21838746.050    87935335.893          53.000  
  23742909.897                   124769711.884 0                        49.000  
                  23742907.842    95602767.803          53.000  
  24569848.271                   129115766.307 0                        46.000  
                  24569847.860    98932862.054          51.000  
  28666748.266                   150645073.749 0                        35.000  
                  28666744.549   115429342.556          40.000  
  28234007.882                   148370039.148 0                        33.000  
                  28234007.239   113686133.836          42.000  
  27440385.658                   144199760.463 0                        41.000  
                  27440383.693   110490726.231          46.000  
 22  1 19  4  1  4.0000000  0  9G01G03G04G06G09G17G19G21G31
  22137563.842    22137562.002   116333435.251 0  90649431.955 0        44.000  
        46.000                                                  
  20408503.734    20408500.428   107247223.12510  83569460.653 0        50.000  
        48.000                                                  
  20425082.024    20425077.271   107334125.439 0  83636987.319 0        49.000  
        51.000                                                  
  23058074.642    23058071.461   121171518.342 0  94418581.881 0        45.000  
        43.000                                                  
  22330002.159    22329998.585   117345586.110 0  91438123.039 0        47.000  
        45.000                                                  
  23259526.058    23259519.178   122228893.441 0  95244336.787 0        45.000  
        41.000                                                  
  22838396.751                   120017166.075 0                        45.000  
                                                                
  24138200.650                   126847089.895 0                        40.000  
                                                                
  23418220.475    23418213.649   123063074.326 0  95893309.480 0        43.000  
        38.000                                                  
 22  1 19  4  1  3.0000000  0  0
 22  1 19  4  1  4.0000000  0  8E03E07E08E13E15E24E25E26
  24358462.983                   128005101.941 0                        47.000  
                  24358461.535    98081837.325          51.000  
  27342745.296                   143687278.792 0                        41.000  
                  27342745.296   110098045.978          46.000  
  21838580.976                   114762173.887 0                        49.000  
                  21838578.046    87934658.987          53.000  
  23742857.487                   124769436.574 0                        49.000  
                  23742855.503    95602556.851          53.000  
  24570318.566                   129118237.866 0                        46.000  
                  24570318.423    98934755.855          51.000  
  28666693.301                   150644785.193 0                        35.000  
                  28666689.673   115429121.452          40.000  
  28233586.388                   148367824.191 0                        32.000  
                  28233585.816   113684436.659          42.000  
  27439879.715                   144197101.703 0                        41.000  
                  27439877.856   110488688.983          46.000  
 22  1 19  4  1  5.0000000  0  9G01G03G04G06G09G17G19G21G31
  22138189.616    22138187.686   116336723.274 0  90651994.044 0        44.000  
        46.000                                                  
  20408634.803    20408631.623   107247912.03710  83569997.465 0        50.000  
        48.000                                                  
  20424919.041    20424914.127   107333268.727 0  83636319.746 0        48.000  
        51.000                                                  
  23057507.425    23057504.298   121168537.758 0  94416259.341 0        45.000  
        43.000                                                  
  22329475.326    22329471.681   117342816.995 0  91435965.273 0        47.000  
        45.000                                                  
  23259895.142    23259888.299   122230833.367 0  95245848.435 0        44.000  
        41.000                                                  
  22838600.136                   120018235.306 0                        45.000  
                                                                
  24138818.221                   126850335.058 0                        40.000  
                                                                
  23418668.398    23418661.572   123065428.361 0  95895143.775 0        43.000  
        39.000                                                  
 22  1 19  4  1  4.0000000  0  0
 22  1 19  4  1  5.0000000  0  8E03E07E08E13E15E24E25E26
  24358765.148                   128006689.231 0                        47.000  
                  24358763.647    98083053.560          51.000  
  27342273.572                   143684800.988 0                        41.000  
                  27342273.840   110096147.392          46.000  
  21838413.115                   114761291.085 0                        49.000  
                  21838410.041    87933982.545          53.000  
  23742805.291                   124769162.077 0                        49.000  
                  23742803.308    95602346.517          53.000  
  24570788.878                   129120710.086 0                        46.000  
                  24570788.789    98936650.149          51.000  
  28666638.460                   150644497.403 0                        35.000  
                  28666634.744   115428900.931          40.000  
  28233164.768                   148365609.762 0                        32.000  
                  28233164.447   113682739.910          42.000  
  27439373.932                   144194443.442 0                        41.000  
                  27439372.038   110486652.150          46.000  
 22  1 19  4  1  6.0000000  0  9G01G03G04G06G09G17G19G21G31
  22138815.371    22138813.405   116340011.623 0  90654556.407 0        44.000  
        46.000                                                  
  20408765.908    20408762.728   107248601.33010  83570534.574 0        50.000  
        48.000                                                  
  20424756.057    20424751.268   107332412.517 0  83635652.565 0        48.000  
        51.000                                                  
  23056940.263    23056937.189   121165557.488 0  94413937.048 0        45.000  
        43.000                                                  
  22328948.440    22328944.885   117340048.181 0  91433807.768 0        47.000  
        45.000                                                  
  23260264.424    23260257.544   122232773.712 0  95247360.393 0        44.000  
        41.000                                                  
  22838803.665                   120019305.168 0                        45.000  
                                                                
  24139435.828                   126853580.385 0                        40.000  
                                                                
  23419116.410    23419109.620   123067782.930 0  95896978.525 0        43.000  
        39.000                                                  
 22  1 19  4  1  5.0000000  0  0
 22  1 19  4  1  6.0000000  0  8E03E07E08E13E15E24E25E26
  24359067.188                   128008276.703 0                        47.000  
                  24359065.758    98084269.935          51.000  
  27341802.062                   143682323.307 0                        41.000  
                  27341802.241   110094248.916          46.000  
  21838245.164                   114760408.564 0                        49.000  
                  21838241.947    87933306.328          53.000  
  23742753.185                   124768888.064 0                        49.000  
                  23742751.166    95602136.559          53.000  
  24571259.334                   129123182.615 0                        46.000  
                  24571259.334    98938544.681          51.000  
  28666583.799                   150644210.115 0                        35.000  
                  28666580.190   115428680.799          40.000  
  28232743.113                   148363395.548 0                        32.000  
                  28232743.059   113681043.324          42.000  
  27438868.221                   144191785.395 0                        41.000  
                  27438866.237   110484615.462          46.000  
 22  1 19  4  1  7.0000000  0  9G01G03G04G06G09G17G19G21G31
  22139441.484    22139439.304   116343300.808 0  90657119.397 0        45.000  
        46.000                                                  
  20408897.264    20408893.976   107249291.49210  83571072.363 0        50.000  
        48.000                                                  
  20424593.378    20424588.642   107331557.295 0  83634986.159 0        48.000  
        51.000                                                  
  23056373.350    23056370.205   121162578.049 0  94411615.405 0        45.000  
        43.000                                                  
  22328421.715    22328418.177   117337280.175 0  91431650.879 0        47.000  
        45.000                                                  
  23260633.758    23260627.040   122234714.964 0  95248873.034 0        44.000  
        41.000                                                  
  22839007.496                   120020376.174 0                        45.000  
                                                                
  24140053.542                   126856826.316 0                        40.000  
                                                                
  23419564.762    23419557.918   123070138.517 0  95898814.045 0        43.000  
        38.000                                                  
 22  1 19  4  1  6.0000000  0  0
 22  1 19  4  1  7.0000000  0  8E03E07E08E13E15E24E25E26
  24359369.532                   128009864.847 0                        47.000  
                  24359367.924    98085486.827          51.000  
  27341330.731                   143679846.236 0                        41.000  
                  27341330.856   110092350.894          46.000  
  21838077.499                   114759526.797 0                        49.000  
                  21838074.175    87932630.696          53.000  
  23742701.401                   124768614.990 0                        49.000  
                  23742699.114    95601927.323          53.000  
  24571730.040                   129125655.950 0                        46.000  
                  24571729.950    98940439.827          51.000  
  28666529.370                   150643923.762 0                        35.000  
                  28666525.635   115428461.388          40.000  
  28232321.601                   148361182.058 0                        32.000  
                  28232321.690   113679347.267          42.000  
  27438362.617                   144189128.044 0                        41.000  
                  27438360.598   110482579.301          46.000  
 22  1 19  4  1  8.0000000  0  9G01G03G04G06G09G17G19G21G31
  22140067.525    22140065.381   116346590.744 0  90659682.981 0        45.000  
        46.000                                                  
  20409028.726    20409025.438   107249982.43710  83571610.759 0        50.000  
        48.000                                                  
  20424430.859    20424426.016   107330702.983 0  83634320.468 0        48.000  
        51.000                                                  
  23055806.580    23055803.435   121159599.337 0  94409294.335 0        45.000  
        43.000                                                  
  22327895.187    22327891.595   117334512.902 0  91429494.561 0        47.000  
        45.000                                                  
  23261003.433    23260996.643   122236657.041 0  95250386.347 0        45.000  
        41.000                                                  
  22839211.453                   120021448.251 0                        45.000  
                                                                
  24140671.310                   126860072.825 0                        40.000  
                                                                
  23420013.203    23420006.395   123072495.058 0  95900650.322 0        43.000  
        38.000                                                  
 22  1 19  4  1  7.0000000  0  0
 22  1 19  4  1  8.0000000  0  8E03E07E08E13E15E24E25E26
  24359671.697                   128011453.575 0                        47.000  
                  24359670.267    98086704.164          51.000  
  27340859.525                   143677369.712 0                        41.000  
                  27340859.471   110090453.295          46.000  
  21837909.852                   114758645.732 0                        49.000  
                  21837906.546    87931955.594          53.000  
  23742649.366                   124768342.814 0                        49.000  
                  23742647.294    95601718.777          53.000  
  24572200.746                   129128130.004 0                        46.000  
                  24572200.781    98942335.536          51.000  
  28666475.334                   150643638.314 0                        35.000  
                  28666471.332   115428242.655          40.000  
  28231900.356                   148358969.202 0                        32.000  
                  28231900.678   113677651.700          42.000  
  27437857.084                   144186471.273 0                        41.000  
                  27437855.029   110480543.605          46.000  
 22  1 19  4  1  9.0000000  0  9G01G03G04G06G09G17G19G21G31
  22140693.477    22140691.350   116349879.982 0  90662246.033 0        45.000  
        46.000                                                  
  20409160.028    20409156.829   107250672.74610  83572148.669 0        50.000  
        48.000                                                  
  20424268.215    20424263.301   107329848.158 0  83633654.373 0        49.000  
        51.000                                                  
  23055239.686    23055236.487   121156619.927 0  94406972.706 0        45.000  
        43.000                                                  
  22327368.336    22327364.709   117331744.907 0  91427337.688 0        47.000  
        45.000                                                  
  23261372.857    23261366.031   122238598.504 0  95251899.176 0        45.000  
        41.000                                                  
  22839415.428                   120022519.950 0                        45.000  
                                                                
  24141289.007                   126863318.451 0                        40.000  
                                                                
  23420461.519    23420454.639   123074851.130 0  95902486.195 0        43.000  
        38.000                                                  
 22  1 19  4  1  8.0000000  0  0
 22  1 19  4  1  9.0000000  0  8E03E07E08E13E15E24E25E26
  24359973.809                   128013041.496 0                        47.000  
                  24359972.486    98087920.880          51.000  
  27340388.104                   143674892.271 0                        41.000  
                  27340388.104   110088555.003          46.000  
  21837741.918                   114757763.919 0                        49.000  
                  21837738.720    87931279.923          53.000  
  23742597.421                   124768070.107 0                        49.000  
                  23742595.527    95601509.811          53.000  
  24572671.434                   129130603.347 0                        46.000  
                  24572671.416    98944230.693          51.000  
  28666420.798                   150643352.261 0                        35.000  
                  28666417.045   115428023.480          40.000  
  28231479.005                   148356755.525 0                        32.000  
                  28231479.433   113675955.523          42.000  
  27437351.445                   144183813.690 0                        41.000  
                  27437349.443   110478507.286          46.000  
 22  1 19  4  1 10.0000000  0  9G01G03G04G06G09G17G19G21G31
  22141319.411    22141317.249   116353169.367 0  90664809.192 0        45.000  
        46.000                                                  
  20409291.383    20409288.113   107251363.23610  83572686.716 0        50.000  
        48.000                                                  
  20424105.589    20424100.747   107328993.644 0  83632988.508 0        48.000  
        51.000                                                  
  23054672.809    23054669.574   121153640.643 0  94404651.188 0        45.000  
        43.000                                                  
  22326841.683    22326838.091   117328977.056 0  91425180.912 0        47.000  
        45.000                                                  
  23261742.442    23261735.562   122240540.205 0  95253412.192 0        45.000  
        41.000                                                  
  22839619.439                   120023592.107 0                        45.000  
                                                                
  24141906.578                   126866564.001 0                        40.000  
                                                                
  23420909.942    23420903.080   123077207.513 0  95904322.346 0        43.000  
        38.000                                                  
 22  1 19  4  1  9.0000000  0  0
 22  1 19  4  1 10.0000000  0  8E03E07E08E13E15E24E25E26
  24360276.063                   128014629.388 0                        47.000  
                  24360274.580    98089137.574          51.000  
  27339916.630                   143672414.778 0                        41.000  
                  27339916.684   110086656.655          46.000  
  21837574.057                   114756882.196 0                        49.000  
                  21837571.019    87930604.313          53.000  
  23742545.672                   124767797.670 0                        49.000  
                  23742543.564    95601301.065          53.000  
  24573142.068                   129133076.812 0                        46.000  
                  24573142.121    98946125.938          51.000  
  28666366.494                   150643066.516 0                        35.000  
                  28666362.616   115427804.522          40.000  
  28231057.689                   148354541.865 0                        32.000  
                  28231058.171   113674259.351          42.000  
  27436845.769                   144181156.119 0                        41.000  
                  27436843.643   110476470.956          46.000  
 22  1 19  4  1 11.0000000  0  9G01G03G04G06G09G17G19G21G31
  22141945.541    22141943.326   116356459.523 0  90667372.939 0        45.000  
        46.000                                                  
  20409422.952    20409419.754   107252054.53010  83573225.384 0        50.000  
        48.000                                                  
  20423943.124    20423938.335   107328140.054 0  83632323.378 0        48.000  
        50.000                                                  
  23054105.985    23054102.751   121150662.116 0  94402330.267 0        45.000  
        43.000                                                  
  22326315.172    22326311.544   117326209.933 0  91423024.719 0        47.000  
        45.000                                                  
  23262112.152    23262105.237   122242482.742 0  95254925.867 0        45.000  
        41.000                                                  
  22839823.682                   120024665.343 0                        46.000  
                                                                
  24142524.310                   126869810.112 0                        40.000  
                                                                
  23421358.580    23421351.521   123079564.866 0  95906159.236 0        43.000  
        38.000                                                  
 22  1 19  4  1 10.0000000  0  0
 22  1 19  4  1 11.0000000  0  8E03E07E08E13E15E24E25E26
  24360578.389                   128016217.896 0                        47.000  
                  24360576.906    98090354.745          51.000  
  27339445.156                   143669937.816 0                        41.000  
                  27339445.281   110084758.741          46.000  
  21837406.481                   114756001.175 0                        49.000  
                  21837403.300    87929929.247          53.000  
  23742493.995                   124767526.131 0                        49.000  
                  23742491.940    95601092.993          53.000  
  24573612.952                   129135551.006 0                        46.000  
                  24573613.060    98948021.756          51.000  
  28666312.279                   150642781.628 0                        35.000  
                  28666308.277   115427586.231          40.000  
  28230636.480                   148352328.848 0                        32.000  
                  28230637.070   113672563.676          42.000  
  27436340.272                   144178499.163 0                        41.000  
                  27436338.199   110474435.110          46.000  
 22  1 19  4  1 12.0000000  0  9G01G03G04G06G09G17G19G21G31
  22142571.851    22142569.456   116359750.055 0  90669936.990 0        45.000  
        46.000                                                  
  20409554.593    20409551.395   107252746.25610  83573764.385 0        50.000  
        48.000                                                  
  20423780.766    20423776.048   107327287.024 0  83631658.679 0        48.000  
        51.000                                                  
  23053539.287    23053535.982   121147683.965 0  94400009.632 0        45.000  
        43.000                                                  
  22325788.643    22325785.087   117323443.182 0  91420868.810 0        47.000  
        45.000                                                  
  23262482.041    23262474.911   122244425.749 0  95256439.880 0        45.000  
        41.000                                                  
  22840028.032                   120025739.269 0                        46.000  
                                                                
  24143142.149                   126873056.448 0                        40.000  
                                                                
  23421807.396    23421800.159   123081922.816 0  95907996.613 0        43.000  
        38.000                                                  
 22  1 19  4  1 11.0000000  0  0
 22  1 19  4  1 12.0000000  0  8E03E07E08E13E15E24E25E26
  24360880.679                   128017806.636 0                        47.000  
                  24360879.232    98091572.091          51.000  
  27338974.003                   143667461.059 0                        41.000  
                  27338974.021   110082860.955          46.000  
  21837238.923                   114755120.479 0                        49.000  
                  21837235.743    87929254.431          53.000  
  23742442.407                   124767255.105 0                        49.000  
                  23742440.370    95600885.333          53.000  
  24574083.926                   129138025.565 0                        46.000  
                  24574083.890    98949917.849          51.000  
  28666258.190                   150642497.236 0                        35.000  
                  28666254.044   115427368.345          40.000  
  28230215.468                   148350116.115 0                        32.000  
                  28230215.968   113670868.192          42.000  
  27435834.793                   144175842.461 0                        41.000  
                  27435832.578   110472399.459          46.000  
 22  1 19  4  1 13.0000000  0  9G01G03G04G06G09G17G19G21G31
  22143198.196    22143195.837   116363041.045 0  90672501.409 0        45.000  
        45.000                                                  
  20409686.342    20409683.161   107253438.48710  83574303.794 0        50.000  
        48.000                                                  
  20423618.551    20423613.816   107326434.628 0  83630994.477 0        48.000  
        51.000                                                  
  23052972.750    23052969.391   121144706.281 0  94397689.359 0        45.000  
        43.000                                                  
  22325262.222    22325258.612   117320676.881 0  91418713.255 0        47.000  
        45.000                                                  
  23262851.948    23262844.800   122246369.314 0  95257954.350 0        45.000  
        41.000                                                  
  22840232.543                   120026813.984 0                        45.000  
                                                                
  24143759.989                   126876303.031 0                        40.000  
                                                                
  23422256.248    23422248.922   123084281.438 0  95909834.494 0        43.000  
        38.000                                                  
 22  1 19  4  1 12.0000000  0  0
 22  1 19  4  1 13.0000000  0  8E03E07E08E13E15E24E25E26
  24361183.023                   128019395.683 0                        47.000  
                  24361181.576    98092789.682          51.000  
  27338502.761                   143664984.561 0                        41.000  
                  27338502.708   110080963.376          46.000  
  21837071.258                   114754240.195 0                        49.000  
                  21837068.203    87928579.931          53.000  
  23742390.962                   124766984.699 0                        49.000  
                  23742388.890    95600678.139          53.000  
  24574554.918                   129140500.567 0                        46.000  
                  24574554.882    98951814.281          51.000  
  28666204.350                   150642213.463 0                        35.000  
                  28666200.151   115427150.913          40.000  
  28229794.331                   148347903.753 0                        32.000  
                  28229794.974   113669172.987          42.000  
  27435329.457                   144173186.092 0                        41.000  
                  27435327.081   110470364.051          46.000  
