     2.11           OBSERVATION DATA    M (Mixed)           RINEX VERSION / TYPE
RTCM3TORINEX on                         2022-01-14 10:59    PGM / RUN BY / DATE
RTCM3TORINEX                                                MARKER NAME
                                                            OBSERVER / AGENCY
                                                            REC # / TYPE / VERS
                                                            ANT # / TYPE
         .0000         .0000         .0000                  APPROX POSITION XYZ
         .0000         .0000         .0000                  ANTENNA: DELTA H/E/N
     1     1                                                WAVELENGTH FACT L1/2
     9    C1    C2    L1    L2    S1    S2    C7    L7    S7# / TYPES OF OBSERV
  2022     1    14    10    59   21.0010000     GPS         TIME OF FIRST OBS
                                                            END OF HEADER
 22  1 14 10 59 21.0010000  0  5E03E05E09E24E25
  25884922.858                   136026221.662 0                        45.000  
                  25884923.037   104227896.852          48.000  
  23387659.496                   122902999.143 0                        49.000  
                  23387659.729    94172433.275          54.000  
  23717528.290                   124636451.084 0                        44.000  
                  23717529.505    95500657.209          50.000  
  23639767.609                   124227864.082 0                        49.000  
                  23639766.179    95187597.394          53.000  
  25717983.030                   135148952.346 0                        45.000  
                  25717985.210   103555711.521          50.000  
 22  1 14 10 59 22.0010000  0 11G05G07G13G14G15G17G19G20G23G24G30
  22815116.005    22815112.324   119894222.047 0  93423714.008 0        46.000  
        44.000                                                  
  24294180.155    24294177.707   127666746.505 0  99480548.605 0        38.000  
        37.000                                                  
  20115052.242                   105705924.129 0                        49.000  
                                                                
  20585576.406    20585571.778   108178027.673 0  84294547.468 0        48.000  
        50.000                                                  
  21273141.279    21273137.741   111791151.783 0  87109975.721 0        48.000  
        46.000                                                  
  23277607.043    23277603.148   122324355.159 0  95318105.626 0        43.000  
        40.000                                                  
  24922327.025                   130966926.125 0                        28.000  
                                                                
  24180630.395                   127070005.551 0                        41.000  
                                                                
  24700344.745    24700340.170   129800612.064 0 101143334.940 0        42.000  
        41.000                                                  
  24272617.248    24272618.231   127553473.57910  99392324.813 0        38.000  
        38.000                                                  
  22259653.495    22259651.565   116975269.231 0  91149551.115 0        45.000  
        45.000                                                  
 22  1 14 10 59 21.0000000  0  0
 22  1 14 10 59 22.0010000  0  5E03E05E09E24E25
  25884481.975                   136023903.735 0                        45.000  
                  25884482.029   104226120.788          48.000  
  23387685.996                   122903138.028 0                        49.000  
                  23387686.211    94172539.689          54.000  
  23718001.426                   124638937.923 0                        44.000  
                  23718002.605    95502562.703          50.000  
  23639775.364                   124227904.375 0                        49.000  
                  23639773.899    95187628.268          53.000  
  25717517.827                   135146507.651 0                        45.000  
                  25717519.882   103553838.324          50.000  
 22  1 14 10 59 23.0010000  0 11G05G07G13G14G15G17G19G20G23G24G30
  22815656.400    22815652.773   119897062.212 0  93425927.121 0        46.000  
        44.000                                                  
  24294701.127    24294698.750   127669484.251 0  99482681.905 0        38.000  
        37.000                                                  
  20114953.319                   105705404.191 0                        49.000  
                                                                
  20585728.865    20585724.219   108178828.696 0  84295171.641 0        48.000  
        50.000                                                  
  21272742.300    21272738.655   111789054.953 0  87108341.825 0        48.000  
        46.000                                                  
  23277094.488    23277090.575   122321661.711 0  95316006.849 0        43.000  
        40.000                                                  
  24921652.058                   130963388.512 0                        27.000  
                                                                
  24181291.352                   127073479.093 0                        41.000  
                                                                
  24699889.549    24699885.136   129798220.793 0 101141471.596 0        42.000  
        41.000                                                  
  24272003.679    24272004.626   127550249.38110  99389812.480 0        38.000  
        38.000                                                  
  22260093.198    22260091.215   116977579.334 0  91151351.184 0        45.000  
        44.000                                                  
 22  1 14 10 59 22.0000000  0  0
 22  1 14 10 59 23.0010000  0  5E03E05E09E24E25
  25884040.771                   136021585.612 0                        45.000  
                  25884040.968   104224344.557          48.000  
  23387712.371                   122903276.924 0                        49.000  
                  23387712.639    94172646.116          54.000  
  23718474.598                   124641424.619 0                        44.000  
                  23718475.938    95504468.084          50.000  
  23639783.030                   124227944.638 0                        49.000  
                  23639781.529    95187659.119          53.000  
  25717052.643                   135144062.810 0                        45.000  
                  25717054.698   103551965.004          50.000  
 22  1 14 10 59 24.0010000  0 11G05G07G13G14G15G17G19G20G23G24G30
  22816197.027    22816193.454   119899903.187 0  93428140.881 0        46.000  
        44.000                                                  
  24295222.223    24295219.829   127672222.517 0  99484815.612 0        38.000  
        37.000                                                  
  20114854.557                   105704885.231 0                        49.000  
                                                                
  20585881.520    20585876.677   108179630.762 0  84295796.628 0        48.000  
        50.000                                                  
  21272343.463    21272339.782   111786959.073 0  87106708.683 0        48.000  
        46.000                                                  
  23276582.094    23276578.198   122318969.035 0  95313908.671 0        43.000  
        40.000                                                  
  24920977.217                   130959851.155 0                        27.000  
                                                                
  24181952.488                   127076953.101 0                        41.000  
                                                                
  24699434.693    24699430.244   129795830.453 0 101139609.001 0        42.000  
        41.000                                                  
  24271390.218    24271391.147   127547025.78910  99387300.577 0        37.000  
        38.000                                                  
  22260532.937    22260530.954   116979890.095 0  91153151.779 0        45.000  
        44.000                                                  
 22  1 14 10 59 23.0000000  0  0
 22  1 14 10 59 24.0010000  0  5E03E05E09E24E25
  25883599.817                   136019268.149 0                        45.000  
                  25883599.943   104222568.843          48.000  
  23387738.799                   122903416.680 0                        49.000  
                  23387739.174    94172753.204          54.000  
  23718947.823                   124643912.001 0                        44.000  
                  23718949.288    95506374.009          50.000  
  23639790.946                   124227985.741 0                        49.000  
                  23639789.266    95187690.625          53.000  
  25716587.262                   135141618.655 0                        45.000  
                  25716589.621   103550092.217          50.000  
 22  1 14 10 59 25.0010000  0 11G05G07G13G14G15G17G19G20G23G24G30
  22816737.762    22816734.206   119902744.695 0  93430355.032 0        46.000  
        44.000                                                  
  24295743.355    24295740.925   127674961.032 0  99486949.515 0        38.000  
        37.000                                                  
  20114755.938                   105704366.973 0                        49.000  
                                                                
  20586034.425    20586029.404   108180433.572 0  84296422.201 0        48.000  
        50.000                                                  
  21271944.698    21271941.106   111784863.850 0  87105076.038 0        48.000  
        46.000                                                  
  23276069.789    23276065.911   122316276.802 0  95311810.815 0        43.000  
        40.000                                                  
  24920301.107                   130956314.077 0                        27.000  
                                                                
  24182613.552                   127080427.327 0                        41.000  
                                                                
  24698979.963    24698975.567   129793440.762 0 101137746.899 0        42.000  
        41.000                                                  
  24270776.756    24270777.739   127543802.38910  99384788.847 0        38.000  
        38.000                                                  
  22260972.837    22260970.728   116982201.208 0  91154952.653 0        45.000  
        45.000                                                  
 22  1 14 10 59 24.0000000  0  0
 22  1 14 10 59 25.0010000  0  5E03E05E09E24E25
  25883158.810                   136016951.041 0                        45.000  
                  25883158.989   104220793.394          48.000  
  23387765.674                   122903557.002 0                        48.000  
                  23387765.942    94172860.728          54.000  
  23719421.191                   124646399.809 0                        44.000  
                  23719422.549    95508280.247          50.000  
  23639798.880                   124228027.393 0                        49.000  
                  23639797.200    95187722.533          53.000  
  25716122.293                   135139174.896 0                        45.000  
                  25716124.455   103548219.736          50.000  
 22  1 14 10 59 26.0010000  0 11G05G07G13G14G15G17G19G20G23G24G30
  22817278.657    22817275.137   119905586.829 0  93432569.686 0        46.000  
        44.000                                                  
  24296264.613    24296262.200   127677699.923 0  99489083.725 0        38.000  
        37.000                                                  
  20114657.497                   105703849.527 0                        49.000  
                                                                
  20586187.366    20586182.363   108181237.261 0  84297048.450 0        48.000  
        49.000                                                  
  21271546.201    21271542.484   111782769.414 0  87103444.009 0        48.000  
        46.000                                                  
  23275557.555    23275553.821   122313585.114 0  95309713.415 0        43.000  
        40.000                                                  
  24919627.945                   130952777.168 0                        27.000  
                                                                
  24183274.778                   127083901.825 0                        41.000  
                                                                
  24698525.500    24698520.979   129791051.822 0 101135885.398 0        42.000  
        41.000                                                  
  24270163.384    24270164.403   127540579.39010  99382277.424 0        38.000  
        38.000                                                  
  22261412.700    22261410.592   116984512.834 0  91156753.916 0        45.000  
        45.000                                                  
 22  1 14 10 59 25.0000000  0  0
 22  1 14 10 59 26.0010000  0  5E03E05E09E24E25
  25882718.088                   136014634.432 0                        45.000  
                  25882718.124   104219018.334          48.000  
  23387792.353                   122903698.023 0                        48.000  
                  23387792.799    94172968.781          54.000  
  23719894.881                   124648888.151 0                        44.000  
                  23719896.114    95510186.903          50.000  
  23639806.796                   124228069.707 0                        49.000  
                  23639805.330    95187754.961          53.000  
  25715657.519                   135136731.668 0                        45.000  
                  25715659.556   103546347.650          50.000  
 22  1 14 10 59 27.0010000  0 10G05G07G13G14G15G17G20G23G24G30
  22817819.463    22817816.015   119908428.956 0  93434784.324 0        46.000  
        44.000                                                  
  24296785.709    24296783.332   127680438.497 0  99491217.683 0        38.000  
        37.000                                                  
  20114559.110                   105703332.221 0                        49.000  
                                                                
  20586340.235    20586335.321   108182041.145 0  84297674.860 0        48.000  
        49.000                                                  
  21271147.597    21271143.916   111780675.078 0  87101812.057 0        48.000  
        46.000                                                  
  23275045.268    23275041.570   122310893.359 0  95307615.944 0        43.000  
        40.000                                                  
  24183935.878                   127087376.010 0                        41.000  
                                                                
  24698070.769    24698066.391   129788662.981 0 101134023.966 0        42.000  
        41.000                                                  
  24269549.887    24269550.995   127537356.07710  99379765.773 0        38.000  
        38.000                                                  
  22261852.457    22261850.545   116986824.258 0  91158555.028 0        45.000  
        45.000                                                  
 22  1 14 10 59 26.0000000  0  0
 22  1 14 10 59 27.0010000  0  5E03E05E09E24E25
  25882277.206                   136012317.635 0                        45.000  
                  25882277.295   104217243.117          48.000  
  23387819.138                   122903839.061 0                        48.000  
                  23387819.549    94173076.856          54.000  
  23720368.321                   124651376.355 0                        44.000  
                  23720369.661    95512093.447          50.000  
  23639814.765                   124228112.019 0                        49.000  
                  23639813.407    95187787.381          53.000  
  25715192.496                   135134288.267 0                        45.000  
                  25715194.622   103544475.452          50.000  
 22  1 14 10 59 28.0010000  0 10G05G07G13G14G15G17G20G23G24G30
  22818360.323    22818356.874   119911271.199 0  93436999.052 0        46.000  
        44.000                                                  
  24297306.752    24297304.500   127683176.939 0  99493351.509 0        38.000  
        37.000                                                  
  20114460.688                   105702815.233 0                        49.000  
                                                                
  20586493.266    20586488.280   108182845.395 0  84298301.546 0        48.000  
        49.000                                                  
  21270749.135    21270745.365   111778581.026 0  87100180.337 0        48.000  
        46.000                                                  
  23274533.089    23274529.336   122308201.660 0  95305518.493 0        43.000  
        40.000                                                  
  24184597.032                   127090849.971 0                        41.000  
                                                                
  24697616.163    24697611.839   129786274.413 0 101132162.740 0        42.000  
        41.000                                                  
  24268936.444    24268937.516   127534132.63310  99377254.023 0        38.000  
        38.000                                                  
  22262292.285    22262290.320   116989135.670 0  91160356.128 0        45.000  
        45.000                                                  
 22  1 14 10 59 27.0000000  0  0
 22  1 14 10 59 28.0010000  0  5E03E05E09E24E25
  25881836.324                   136010000.785 0                        45.000  
                  25881836.377   104215467.882          48.000  
  23387846.138                   122903980.291 0                        48.000  
                  23387846.442    94173185.064          54.000  
  23720841.796                   124653864.582 0                        44.000  
                  23720843.101    95514000.006          50.000  
  23639822.985                   124228154.487 0                        49.000  
                  23639821.413    95187819.928          53.000  
  25714727.365                   135131844.899 0                        45.000  
                  25714729.742   103542603.256          50.000  
 22  1 14 10 59 29.0010000  0 10G05G07G13G14G15G17G20G23G24G30
  22818901.254    22818897.823   119914113.907 0  93439214.154 0        46.000  
        44.000                                                  
  24297827.938    24297825.597   127685915.572 0  99495485.529 0        38.000  
        37.000                                                  
  20114362.355                   105702298.882 0                        49.000  
                                                                
  20586646.546    20586641.221   108183650.346 0  84298928.783 0        48.000  
        49.000                                                  
  21270350.817    21270346.975   111776487.570 0  87098549.068 0        48.000  
        46.000                                                  
  23274020.909    23274017.317   122305510.349 0  95303421.362 0        43.000  
        40.000                                                  
  24185258.150                   127094324.082 0                        41.000  
                                                                
  24697161.861    24697157.429   129783886.421 0 101130301.960 0        42.000  
        41.000                                                  
  24268323.089    24268324.144   127530909.41710  99374742.385 0        38.000  
        38.000                                                  
  22262732.203    22262730.273   116991447.411 0  91162157.476 0        45.000  
        45.000                                                  
 22  1 14 10 59 28.0000000  0  0
 22  1 14 10 59 29.0010000  0  5E03E05E09E24E25
  25881395.459                   136007684.276 0                        45.000  
                  25881395.674   104213692.892          48.000  
  23387873.013                   122904122.022 0                        48.000  
                  23387873.424    94173293.665          54.000  
  23721315.236                   124656353.156 0                        44.000  
                  23721316.594    95515906.838          50.000  
  23639831.241                   124228197.447 0                        49.000  
                  23639829.597    95187852.841          53.000  
  25714262.592                   135129401.877 0                        45.000  
                  25714264.825   103540731.332          50.000  
 22  1 14 10 59 30.0010000  0 10G05G07G13G14G15G17G20G23G24G30
  22819442.221    22819438.683   119916956.827 0  93441429.412 0        46.000  
        44.000                                                  
  24298349.016    24298346.765   127688654.181 0  99497619.467 0        38.000  
        37.000                                                  
  20114264.254                   105701782.924 0                        49.000  
                                                                
  20586799.809    20586794.412   108184455.735 0  84299556.356 0        48.000  
        49.000                                                  
  21269952.427    21269948.710   111774394.466 0  87096918.073 0        48.000  
        46.000                                                  
  23273508.801    23273505.137   122302819.160 0  95301324.357 0        43.000  
        40.000                                                  
  24185919.268                   127097798.076 0                        41.000  
                                                                
  24696707.452    24696703.020   129781498.766 0 101128441.450 0        42.000  
        41.000                                                  
  24267709.699    24267710.718   127527686.09610  99372230.745 0        38.000  
        38.000                                                  
  22263172.049    22263170.226   116993759.208 0  91163958.876 0        45.000  
        45.000                                                  
 22  1 14 10 59 29.0000000  0  0
 22  1 14 10 59 30.0010000  0  5E03E05E09E24E25
  25880954.863                   136005367.810 0                        45.000  
                  25880954.827   104211917.934          48.000  
  23387899.924                   122904264.028 0                        48.000  
                  23387900.496    94173402.473          54.000  
  23721788.569                   124658841.853 0                        44.000  
                  23721790.195    95517813.757          50.000  
  23639839.371                   124228240.654 0                        49.000  
                  23639837.852    95187885.945          53.000  
  25713797.640                   135126958.931 0                        45.000  
                  25713799.999   103538859.478          50.000  
 22  1 14 10 59 31.0010000  0 10G05G07G13G14G15G17G20G23G24G30
  22819983.384    22819979.810   119919800.531 0  93443645.287 0        46.000  
        44.000                                                  
  24298870.291    24298868.076   127691393.265 0  99499753.798 0        38.000  
        37.000                                                  
  20114166.314                   105701267.922 0                        49.000  
                                                                
  20586953.214    20586947.818   108185262.148 0  84300184.735 0        48.000  
        49.000                                                  
  21269554.430    21269550.553   111772302.295 0  87095287.817 0        48.000  
        46.000                                                  
  23272996.942    23272993.279   122300128.732 0  95299227.901 0        43.000  
        40.000                                                  
  24186580.422                   127101272.531 0                        41.000  
                                                                
  24696253.239    24696248.790   129779112.023 0 101126581.675 0        42.000  
        41.000                                                  
  24267096.560    24267097.453   127524463.31710  99369719.477 0        37.000  
        38.000                                                  
  22263612.073    22263610.179   116996071.638 0  91165760.772 0        45.000  
        45.000                                                  
 22  1 14 10 59 30.0000000  0  0
 22  1 14 10 59 31.0010000  0  5E03E05E09E24E25
  25880513.819                   136003051.982 0                        45.000  
                  25880514.070   104210143.473          48.000  
  23387927.157                   122904406.874 0                        48.000  
                  23387927.621    94173511.929          53.000  
  23722262.330                   124661331.222 0                        44.000  
                  23722263.885    95519721.193          50.000  
  23639847.894                   124228284.676 0                        49.000  
                  23639846.215    95187919.679          53.000  
  25713332.956                   135124516.663 0                        45.000  
                  25713335.064   103536988.129          50.000  
 22  1 14 10 59 32.0010000  0 10G05G07G13G14G15G17G20G23G24G30
  22820524.690    22820521.027   119922644.634 0  93445861.484 0        46.000  
        44.000                                                  
  24299391.584    24299389.208   127694132.473 0  99501888.261 0        38.000  
        37.000                                                  
  20114068.409                   105700753.496 0                        49.000  
                                                                
  20587106.799    20587101.349   108186069.180 0  84300813.595 0        48.000  
        49.000                                                  
  21269156.344    21269152.538   111770210.644 0  87093657.959 0        48.000  
        46.000                                                  
  23272485.031    23272481.314   122297438.611 0  95297131.692 0        43.000  
        40.000                                                  
  24187241.611                   127104747.038 0                        41.000  
                                                                
  24695799.151    24695794.630   129776725.800 0 101124722.265 0        42.000  
        41.000                                                  
  24266483.295    24266484.153   127521240.64710  99367208.320 0        37.000  
        38.000                                                  
  22264052.080    22264050.311   116998384.321 0  91167562.869 0        45.000  
        45.000                                                  
 22  1 14 10 59 31.0000000  0  0
 22  1 14 10 59 32.0010000  0  5E03E05E09E24E25
  25880073.366                   136000736.379 0                        45.000  
                  25880073.366   104208369.184          48.000  
  23387954.407                   122904550.152 0                        48.000  
                  23387954.889    94173621.715          53.000  
  23722736.145                   124663820.866 0                        43.000  
                  23722737.753    95521628.847          50.000  
  23639856.472                   124228329.098 0                        49.000  
                  23639854.613    95187953.721          53.000  
  25712868.272                   135122074.659 0                        45.000  
                  25712870.381   103535116.993          50.000  
 22  1 14 10 59 33.0010000  0 10G05G07G13G14G15G17G20G23G24G30
  22821065.979    22821062.334   119925488.821 0  93448077.712 0        46.000  
        44.000                                                  
  24299912.752    24299910.447   127696871.470 0  99504022.561 0        38.000  
        37.000                                                  
  20113970.523                   105700239.313 0                        49.000  
                                                                
  20587260.490    20587254.986   108186876.523 0  84301442.696 0        48.000  
        49.000                                                  
  21268758.383    21268754.613   111768119.207 0  87092028.270 0        48.000  
        46.000                                                  
  23271973.047    23271969.348   122294748.485 0  95295035.510 0        43.000  
        40.000                                                  
  24187902.712                   127108221.304 0                        41.000  
                                                                
  24695345.064    24695340.614   129774339.765 0 101122863.019 0        42.000  
        41.000                                                  
  24265870.066    24265870.816   127518017.78910  99364697.027 0        37.000  
        38.000                                                  
  22264492.176    22264490.407   117000696.934 0  91169364.900 0        45.000  
        45.000                                                  
 22  1 14 10 59 32.0000000  0  0
 22  1 14 10 59 33.0010000  0  5E03E05E09E24E25
  25879632.841                   135998420.698 0                        45.000  
                  25879632.734   104206594.828          48.000  
  23387981.711                   122904693.567 0                        48.000  
                  23387982.175    94173731.600          54.000  
  23723209.728                   124666310.476 0                        44.000  
                  23723211.479    95523536.472          50.000  
  23639864.799                   124228373.634 0                        49.000  
                  23639863.208    95187987.839          53.000  
  25712403.445                   135119632.623 0                        45.000  
                  25712405.697   103533245.822          50.000  
 22  1 14 10 59 34.0010000  0 10G05G07G13G14G15G17G20G23G24G30
  22821607.196    22821603.658   119928333.109 0  93450294.044 0        46.000  
        44.000                                                  
  24300433.938    24300431.579   127699610.337 0  99506156.713 0        38.000  
        37.000                                                  
  20113872.654                   105699725.435 0                        49.000  
                                                                
  20587414.146    20587408.589   108187684.204 0  84302072.055 0        48.000  
        49.000                                                  
  21268360.512    21268356.634   111766028.025 0  87090398.785 0        48.000  
        46.000                                                  
  23271461.189    23271457.383   122292058.412 0  95292939.340 0        43.000  
        40.000                                                  
  24188563.740                   127111695.360 0                        41.000  
                                                                
  24694890.994    24694886.491   129771953.982 0 101121003.979 0        42.000  
        41.000                                                  
  24265256.801    24265257.444   127514794.77010  99362185.579 0        38.000  
        38.000                                                  
  22264932.219    22264930.504   117003009.508 0  91171166.906 0        45.000  
        45.000                                                  
 22  1 14 10 59 33.0000000  0  0
 22  1 14 10 59 34.0010000  0  5E03E05E09E24E25
  25879192.012                   135996104.978 0                        45.000  
                  25879192.119   104204820.450          48.000  
  23388009.086                   122904837.144 0                        48.000  
                  23388009.426    94173841.616          54.000  
  23723683.686                   124668800.109 0                        43.000  
                  23723685.222    95525444.107          50.000  
  23639873.411                   124228418.311 0                        49.000  
                  23639871.571    95188022.070          53.000  
  25711938.886                   135117190.578 0                        45.000  
                  25711940.977   103531374.645          50.000  
 22  1 14 10 59 35.0010000  0 10G05G07G13G14G15G17G20G23G24G30
  22822148.609    22822145.053   119931177.998 0  93452510.848 0        46.000  
        44.000                                                  
  24300955.267    24300952.855   127702349.498 0  99508291.138 0        38.000  
        37.000                                                  
  20113774.946                   105699212.320 0                        49.000  
                                                                
  20587568.016    20587562.423   108188492.720 0  84302702.068 0        48.000  
        49.000                                                  
  21267962.604    21267958.798   111763937.588 0  87088769.869 0        48.000  
        46.000                                                  
  23270949.385    23270945.579   122289368.881 0  95290843.588 0        43.000  
        40.000                                                  
  24189224.823                   127115169.667 0                        41.000  
                                                                
  24694437.157    24694432.600   129769568.924 0 101119145.485 0        42.000  
        41.000                                                  
  24264643.679    24264644.144   127511572.08310  99359674.371 0        38.000  
        38.000                                                  
  22265372.369    22265370.600   117005322.516 0  91172969.262 0        45.000  
        45.000                                                  
 22  1 14 10 59 34.0000000  0  0
 22  1 14 10 59 35.0010000  0  5E03E05E09E24E25
  25878751.362                   135993789.698 0                        45.000  
                  25878751.576   104203046.400          48.000  
  23388036.515                   122904981.366 0                        48.000  
                  23388036.980    94173952.124          54.000  
  23724157.626                   124671290.223 0                        43.000  
                  23724159.037    95527352.114          50.000  
  23639882.132                   124228463.604 0                        49.000  
                  23639880.273    95188056.780          53.000  
  25711474.184                   135114749.002 0                        45.000  
                  25711476.239   103529503.831          50.000  
 22  1 14 10 59 36.0010000  0 10G05G07G13G14G15G17G20G23G24G30
  22822690.166    22822686.574   119934023.195 0  93454727.884 0        46.000  
        44.000                                                  
  24301476.739    24301474.058   127705088.735 0  99510425.593 0        38.000  
        37.000                                                  
  20113677.346                   105698699.690 0                        49.000  
                                                                
  20587721.904    20587716.418   108189301.768 0  84303332.495 0        48.000  
        49.000                                                  
  21267565.054    21267560.980   111761847.592 0  87087141.305 0        48.000  
        46.000                                                  
  23270437.652    23270433.917   122286679.565 0  95288748.029 0        43.000  
        40.000                                                  
  24189885.941                   127118643.966 0                        41.000  
                                                                
  24693983.373    24693978.834   129767184.297 0 101117287.330 0        42.000  
        41.000                                                  
  24264030.575    24264030.879   127508349.43010  99357163.227 0        38.000  
        38.000                                                  
  22265812.679    22265810.803   117007635.710 0  91174771.727 0        45.000  
        45.000                                                  
 22  1 14 10 59 35.0000000  0  0
 22  1 14 10 59 36.0010000  0  5E03E05E09E24E25
  25878310.587                   135991474.571 0                        45.000  
                  25878310.926   104201272.471          49.000  
  23388063.926                   122905125.946 0                        48.000  
                  23388064.534    94174062.904          54.000  
  23724631.405                   124673780.543 0                        44.000  
                  23724632.888    95529260.272          50.000  
  23639890.798                   124228509.229 0                        49.000  
                  23639888.815    95188091.735          53.000  
  25711009.429                   135112307.617 0                        45.000  
                  25711011.734   103527633.160          50.000  
 22  1 14 10 59 37.0010000  0 11G05G07G13G14G15G17G19G20G23G24G30
  22823231.722    22823228.149   119936868.806 0  93456945.225 0        46.000  
        44.000                                                  
  24301998.032    24301995.333   127707828.058 0  99512560.141 0        38.000  
        37.000                                                  
  20113579.888                   105698187.643 0                        49.000  
                                                                
  20587875.917    20587870.592   108190111.459 0  84303963.425 0        48.000  
        49.000                                                  
  21267167.272    21267163.323   111759758.147 0  87085513.157 0        48.000  
        46.000                                                  
  23269925.883    23269922.237   122283990.592 0  95286652.734 0        43.000  
        40.000                                                  
  24912226.238                   130915248.238 0                        27.000  
                                                                
  24190547.148                   127122118.342 0                        41.000  
                                                                
  24693529.625    24693525.193   129764800.205 0 101115429.598 0        42.000  
        41.000                                                  
  24263417.292    24263417.560   127505126.90710  99354652.209 0        38.000  
        38.000                                                  
  22266252.936    22266250.989   117009949.147 0  91176574.419 0        45.000  
        45.000                                                  
 22  1 14 10 59 36.0000000  0  0
 22  1 14 10 59 37.0010000  0  5E03E05E09E24E25
  25877870.258                   135989159.693 0                        45.000  
                  25877870.419   104199498.740          49.000  
  23388091.605                   122905270.984 0                        48.000  
                  23388092.105    94174174.046          54.000  
  23725105.381                   124676271.153 0                        43.000  
                  23725107.007    95531168.666          50.000  
  23639899.464                   124228555.297 0                        49.000  
                  23639897.713    95188127.038          53.000  
  25710545.031                   135109866.514 0                        45.000  
                  25710547.140   103525762.718          50.000  
 22  1 14 10 59 38.0010000  0 11G05G07G13G14G15G17G19G20G23G24G30
  22823773.332    22823769.741   119939714.704 0  93459162.811 0        46.000  
        44.000                                                  
  24302519.360    24302516.573   127710567.450 0  99514694.714 0        39.000  
        37.000                                                  
  20113482.520                   105697676.072 0                        49.000  
                                                                
  20588030.037    20588024.766   108190921.678 0  84304594.769 0        48.000  
        49.000                                                  
  21266769.811    21266765.737   111757669.131 0  87083885.368 0        48.000  
        46.000                                                  
  23269414.203    23269410.504   122281301.859 0  95284557.602 0        43.000  
        40.000                                                  
  24911554.345                   130911710.343 0                        28.000  
                                                                
  24191208.267                   127125592.682 0                        41.000  
                                                                
  24693076.037    24693071.588   129762416.532 0 101113572.197 0        41.000  
        41.000                                                  
  24262804.152    24262804.367   127501904.43410  99352141.170 0        38.000  
        38.000                                                  
  22266693.193    22266691.299   117012262.727 0  91178377.202 0        45.000  
        45.000                                                  
 22  1 14 10 59 37.0000000  0  0
 22  1 14 10 59 38.0010000  0  5E03E05E09E24E25
  25877429.805                   135986844.956 0                        45.000  
                  25877429.948   104197725.113          48.000  
  23388119.249                   122905416.380 0                        48.000  
                  23388119.767    94174285.446          54.000  
  23725579.339                   124678761.948 0                        43.000  
                  23725580.929    95533077.202          50.000  
  23639908.453                   124228601.664 0                        49.000  
                  23639906.451    95188162.568          53.000  
  25710080.633                   135107425.596 0                        45.000  
                  25710082.616   103523892.404          50.000  
 22  1 14 10 59 39.0010000  0 11G05G07G13G14G15G17G19G20G23G24G30
  22824314.907    22824311.333   119942561.184 0  93461380.854 0        46.000  
        44.000                                                  
  24303040.653    24303037.848   127713307.145 0  99516829.523 0        39.000  
        37.000                                                  
  20113385.419                   105697165.270 0                        49.000  
                                                                
  20588184.408    20588178.994   108191732.709 0  84305226.747 0        48.000  
        49.000                                                  
  21266372.386    21266368.437   111755580.845 0  87082258.130 0        48.000  
        46.000                                                  
  23268902.685    23268898.878   122278613.643 0  95282462.888 0        43.000  
        40.000                                                  
  24910881.755                   130908172.584 0                        28.000  
                                                                
  24191869.438                   127129067.274 0                        41.000  
                                                                
  24692622.468    24692618.161   129760033.557 0 101111715.343 0        41.000  
        41.000                                                  
  24262191.084    24262191.298   127498682.26910  99349630.401 0        38.000  
        38.000                                                  
  22267133.504    22267131.663   117014576.760 0  91180180.345 0        45.000  
        45.000                                                  
 22  1 14 10 59 38.0000000  0  0
 22  1 14 10 59 39.0010000  0  5E03E05E09E24E25
  25876989.387                   135984530.656 0                        45.000  
                  25876989.709   104195951.821          49.000  
  23388147.017                   122905562.413 0                        48.000  
                  23388147.553    94174397.344          54.000  
  23726053.458                   124681253.233 0                        43.000  
                  23726054.959    95534986.109          50.000  
  23639917.351                   124228648.677 0                        49.000  
                  23639915.493    95188198.596          53.000  
  25709616.163                   135104985.144 0                        45.000  
                  25709618.308   103522022.452          50.000  
 22  1 14 10 59 40.0010000  0 11G05G07G13G14G15G17G19G20G23G24G30
  22824856.624    22824852.997   119945408.019 0  93463599.164 0        46.000  
        44.000                                                  
  24303562.036    24303559.230   127716046.919 0  99518964.430 0        39.000  
        37.000                                                  
  20113288.301                   105696654.996 0                        49.000  
                                                                
  20588338.868    20588333.400   108192544.328 0  84305859.170 0        48.000  
        49.000                                                  
  21265975.086    21265971.137   111753493.050 0  87080631.274 0        48.000  
        46.000                                                  
  23268391.148    23268387.342   122275925.709 0  95280368.378 0        43.000  
        40.000                                                  
  24910207.074                   130904634.822 0                        28.000  
                                                                
  24192530.574                   127132541.884 0                        41.000  
                                                                
  24692168.952    24692164.753   129757651.064 0 101109858.857 0        41.000  
        41.000                                                  
  24261578.051    24261578.212   127495460.17410  99347119.678 0        38.000  
        38.000                                                  
  22267573.814    22267572.099   117016890.969 0  91181983.638 0        45.000  
        45.000                                                  
 22  1 14 10 59 39.0000000  0  0
 22  1 14 10 59 40.0010000  0  5E03E05E09E24E25
  25876548.880                   135982216.535 0                        45.000  
                  25876549.291   104194178.666          49.000  
  23388175.018                   122905708.830 0                        48.000  
                  23388175.411    94174509.534          54.000  
  23726527.648                   124683744.756 0                        43.000  
                  23726529.167    95536895.191          50.000  
  23639926.197                   124228696.048 0                        49.000  
                  23639924.445    95188234.888          53.000  
  25709151.801                   135102544.907 0                        45.000  
                  25709153.928   103520152.671          50.000  
 22  1 14 10 59 41.0010000  0 11G05G07G13G14G15G17G19G20G23G24G30
  22825398.359    22825394.696   119948254.712 0  93465817.369 0        46.000  
        44.000                                                  
  24304083.257    24304080.505   127718786.259 0  99521098.981 0        39.000  
        37.000                                                  
  20113191.183                   105696144.751 0                        49.000  
                                                                
  20588493.256    20588487.913   108193356.017 0  84306491.666 0        48.000  
        49.000                                                  
  21265577.733    21265573.927   111751405.243 0  87079004.421 0        48.000  
        46.000                                                  
  23267879.647    23267875.877   122273237.540 0  95278273.717 0        43.000  
        40.000                                                  
  24909531.911                   130901096.449 0                        28.000  
                                                                
  24193191.728                   127136016.042 0                        41.000  
                                                                
  24691715.597    24691711.380   129755268.547 0 101108002.362 0        41.000  
        41.000                                                  
  24260964.751    24260965.037   127492237.65310  99344608.649 0        38.000  
        38.000                                                  
  22268014.018    22268012.410   117019204.905 0  91183786.703 0        45.000  
        45.000                                                  
 22  1 14 10 59 40.0000000  0  0
 22  1 14 10 59 41.0010000  0  5E03E05E09E24E25
  25876108.283                   135979902.118 0                        45.000  
                  25876108.748   104192405.283          49.000  
  23388202.733                   122905855.165 0                        48.000  
                  23388203.287    94174621.658          54.000  
  23727001.856                   124686236.009 0                        44.000  
                  23727003.214    95538804.079          50.000  
  23639935.506                   124228743.298 0                        49.000  
                  23639933.523    95188271.095          53.000  
  25708687.403                   135100104.420 0                        45.000  
                  25708689.422   103518282.687          50.000  
 22  1 14 10 59 42.0010000  0 11G05G07G13G14G15G17G19G20G23G24G30
  22825940.202    22825936.610   119951101.923 0  93468035.977 0        46.000  
        44.000                                                  
  24304604.568    24304601.798   127721525.852 0  99523233.728 0        39.000  
        37.000                                                  
  20113094.244                   105695635.207 0                        49.000  
                                                                
  20588647.859    20588642.516   108194168.469 0  84307124.736 0        48.000  
        49.000                                                  
  21265180.522    21265176.734   111749318.096 0  87077378.065 0        48.000  
        46.000                                                  
  23267368.182    23267364.358   122270549.829 0  95276179.394 0        43.000  
        40.000                                                  
  24908859.553                   130897558.332 0                        28.000  
                                                                
  24193852.936                   127139490.370 0                        41.000  
                                                                
  24691262.367    24691258.043   129752886.691 0 101106146.360 0        41.000  
        41.000                                                  
  24260351.540    24260351.915   127489015.38810  99342097.786 0        38.000  
        38.000                                                  
  22268454.400    22268452.792   117021519.204 0  91185590.058 0        45.000  
        45.000                                                  
 22  1 14 10 59 41.0000000  0  0
 22  1 14 10 59 42.0010000  0  5E03E05E09E24E25
  25875668.008                   135977588.053 0                        45.000  
                  25875668.544   104190632.173          49.000  
  23388230.769                   122906002.073 0                        48.000  
                  23388231.162    94174734.224          54.000  
  23727475.886                   124688727.690 0                        44.000  
                  23727477.333    95540713.285          50.000  
  23639944.477                   124228791.089 0                        49.000  
                  23639942.636    95188307.714          53.000  
  25708223.094                   135097664.318 0                        45.000  
                  25708225.114   103516413.003          50.000  
 22  1 14 10 59 43.0010000  0 11G05G07G13G14G15G17G19G20G23G24G30
  22826482.169    22826478.506   119953949.573 0  93470254.918 0        46.000  
        44.000                                                  
  24305125.986    24305123.091   127724265.620 0  99525368.597 0        39.000  
        37.000                                                  
  20112997.447                   105695126.257 0                        49.000  
                                                                
  20588802.497    20588797.315   108194981.581 0  84307758.333 0        48.000  
        49.000                                                  
  21264783.419    21264779.649   111747231.515 0  87075752.158 0        48.000  
        46.000                                                  
  23266856.824    23266853.000   122267862.488 0  95274085.369 0        43.000  
        40.000                                                  
  24908187.338                   130894020.150 0                        28.000  
                                                                
  24194514.054                   127142964.810 0                        41.000  
                                                                
  24690809.227    24690804.902   129750505.377 0 101104290.823 0        41.000  
        41.000                                                  
  24259738.596    24259738.739   127485793.30310  99339587.097 0        38.000  
        38.000                                                  
  22268894.853    22268893.174   117023833.795 0  91187393.628 0        45.000  
        45.000                                                  
 22  1 14 10 59 42.0000000  0  0
 22  1 14 10 59 43.0010000  0  5E03E05E09E24E25
  25875227.841                   135975274.288 0                        45.000  
                  25875228.216   104188859.290          49.000  
  23388258.734                   122906149.458 0                        48.000  
                  23388259.288    94174847.158          54.000  
  23727950.183                   124691219.697 0                        44.000  
                  23727951.613    95542622.745          50.000  
  23639953.625                   124228839.346 0                        49.000  
                  23639951.767    95188344.688          53.000  
  25707758.947                   135095224.541 0                        45.000  
                  25707760.841   103514543.568          50.000  
 22  1 14 10 59 44.0010000  0 11G05G07G13G14G15G17G19G20G23G24G30
  22827024.172    22827020.527   119956797.898 0  93472474.390 0        46.000  
        44.000                                                  
  24305647.440    24305644.492   127727005.787 0  99527503.801 0        39.000  
        37.000                                                  
  20112900.776                   105694618.174 0                        49.000  
                                                                
  20588957.350    20588952.186   108195795.597 0  84308392.640 0        48.000  
        49.000                                                  
  21264386.495    21264382.814   111745145.753 0  87074126.901 0        48.000  
        46.000                                                  
  23266345.502    23266341.660   122265175.765 0  95271991.794 0        43.000  
        40.000                                                  
  24907517.339                   130890482.294 0                        28.000  
                                                                
  24195175.315                   127146439.599 0                        41.000  
                                                                
  24690356.158    24690351.887   129748124.891 0 101102435.874 0        41.000  
        41.000                                                  
  24259125.528    24259125.671   127482571.62410  99337076.692 0        38.000  
        38.000                                                  
  22269335.450    22269333.770   117026148.910 0  91189197.611 0        45.000  
        45.000                                                  
 22  1 14 10 59 43.0000000  0  0
 22  1 14 10 59 44.0010000  0  5E03E05E09E24E25
  25874787.405                   135972961.044 0                        45.000  
                  25874787.995   104187086.796          49.000  
  23388286.967                   122906297.583 0                        48.000  
                  23388287.468    94174960.654          54.000  
  23728424.498                   124693712.276 0                        44.000  
                  23728425.910    95544532.634          50.000  
  23639962.935                   124228888.307 0                        49.000  
                  23639961.059    95188382.206          53.000  
  25707294.834                   135092785.325 0                        45.000  
                  25707296.728   103512674.563          50.000  
 22  1 14 10 59 45.0010000  0 11G05G07G13G14G15G17G19G20G23G24G30
  22827566.265    22827562.620   119959646.602 0  93474694.176 0        46.000  
        44.000                                                  
  24306168.894    24306165.963   127729746.054 0  99529639.076 0        39.000  
        37.000                                                  
  20112804.265                   105694110.650 0                        49.000  
                                                                
  20589112.293    20589107.182   108196610.232 0  84309027.418 0        48.000  
        49.000                                                  
  21263989.713    21263985.871   111743060.520 0  87072502.039 0        48.000  
        46.000                                                  
  23265834.234    23265830.446   122262489.348 0  95269898.505 0        43.000  
        40.000                                                  
  24906844.606                   130886944.350 0                        28.000  
                                                                
  24195836.594                   127149914.414 0                        41.000  
                                                                
  24689903.249    24689898.997   129745744.883 0 101100581.345 0        41.000  
        41.000                                                  
  24258512.370    24258512.728   127479350.03110  99334566.387 0        38.000  
        38.000                                                  
  22269775.993    22269774.438   117028464.257 0  91191001.773 0        45.000  
        45.000                                                  
 22  1 14 10 59 44.0000000  0  0
 22  1 14 10 59 45.0010000  0  5E03E05E09E24E25
  25874347.148                   135970648.018 0                        45.000  
                  25874347.702   104185314.488          49.000  
  23388315.272                   122906446.128 0                        48.000  
                  23388315.718    94175074.478          54.000  
  23728899.100                   124696205.107 0                        44.000  
                  23728900.243    95546442.735          50.000  
  23639972.531                   124228937.670 0                        49.000  
                  23639970.530    95188420.030          53.000  
  25706830.669                   135090346.355 0                        45.000  
                  25706832.581   103510805.744          50.000  
 22  1 14 10 59 46.0010000  0 11G05G07G13G14G15G17G19G20G23G24G30
  22828108.322    22828104.730   119962495.133 0  93476913.782 0        46.000  
        44.000                                                  
  24306690.366    24306687.346   127732485.852 0  99531773.970 0        39.000  
        37.000                                                  
  20112707.612                   105693603.099 0                        49.000  
                                                                
  20589267.253    20589262.375   108197424.888 0  84309662.215 0        48.000  
        49.000                                                  
  21263592.842    21263589.214   111740975.215 0  87070877.124 0        48.000  
        46.000                                                  
  23265322.894    23265319.141   122259802.670 0  95267804.964 0        43.000  
        40.000                                                  
  24906171.856                   130883405.889 0                        28.000  
                                                                
  24196497.801                   127153388.719 0                        41.000  
                                                                
  24689450.323    24689446.017   129743364.831 0 101098726.741 0        41.000  
        41.000                                                  
  24257899.320    24257899.624   127476127.97510  99332055.705 0        38.000  
        38.000                                                  
  22270216.554    22270214.928   117030779.255 0  91192805.670 0        45.000  
        45.000                                                  
 22  1 14 10 59 45.0000000  0  0
 22  1 14 10 59 46.0010000  0  5E03E05E09E24E25
  25873906.927                   135968334.628 0                        45.000  
                  25873907.570   104183541.893          49.000  
  23388343.398                   122906594.526 0                        48.000  
                  23388344.023    94175188.184          54.000  
  23729373.397                   124698697.646 0                        44.000  
                  23729374.612    95548352.595          50.000  
  23639981.680                   124228986.855 0                        49.000  
                  23639979.929    95188457.714          53.000  
  25706366.414                   135087907.068 0                        45.000  
                  25706368.290   103508936.685          50.000  
 22  1 14 10 59 47.0010000  0 11G05G07G13G14G15G17G19G20G23G24G30
  22828650.343    22828646.751   119965343.807 0  93479133.536 0        46.000  
        44.000                                                  
  24307211.676    24307208.621   127735225.515 0  99533908.774 0        39.000  
        37.000                                                  
  20112611.047                   105693095.859 0                        49.000  
                                                                
  20589422.267    20589417.513   108198239.919 0  84310297.306 0        48.000  
        49.000                                                  
  21263196.150    21263192.433   111738890.196 0  87069252.438 0        48.000  
        46.000                                                  
  23264811.661    23264807.926   122257116.041 0  95265711.513 0        43.000  
        40.000                                                  
  24905497.479                   130879867.159 0                        28.000  
                                                                
  24197158.901                   127156862.842 0                        41.000  
                                                                
  24688997.540    24688993.162   129740985.037 0 101096872.356 0        41.000  
        41.000                                                  
  24257286.180    24257286.341   127472905.79810  99329544.904 0        38.000  
        38.000                                                  
  22270657.043    22270655.435   117033094.239 0  91194609.551 0        45.000  
        45.000                                                  
 22  1 14 10 59 46.0000000  0  0
 22  1 14 10 59 47.0010000  0  5E03E05E09E24E25
  25873466.777                   135966021.229 0                        45.000  
                  25873467.349   104181769.289          49.000  
  23388371.934                   122906743.118 0                        48.000  
                  23388372.256    94175302.040          54.000  
  23729847.838                   124701190.213 0                        44.000  
                  23729848.892    95550262.482          50.000  
  23639991.168                   124229036.212 0                        49.000  
                  23639989.256    95188495.529          53.000  
  25705902.355                   135085467.814 0                        45.000  
                  25705904.196   103507067.641          50.000  
 22  1 14 10 59 48.0010000  0 11G05G07G13G14G15G17G19G20G23G24G30
  22829192.650    22829188.987   119968193.344 0  93481353.963 0        46.000  
        44.000                                                  
  24307733.148    24307729.967   127737965.773 0  99536044.034 0        39.000  
        37.000                                                  
  20112514.769                   105692589.696 0                        49.000  
                                                                
  20589577.548    20589572.760   108199056.072 0  84310933.265 0        48.000  
        49.000                                                  
  21262799.529    21262795.830   111736806.192 0  87067628.548 0        48.000  
        46.000                                                  
  23264300.643    23264296.855   122254430.249 0  95263618.672 0        43.000  
        40.000                                                  
  24904820.511                   130876328.898 0                        28.000  
                                                                
  24197820.180                   127160337.510 0                        41.000  
                                                                
  24688544.936    24688540.486   129738606.250 0 101095018.758 0        41.000  
        41.000                                                  
  24256673.291    24256673.344   127469684.25510  99327034.617 0        38.000  
        38.000                                                  
  22271097.568    22271096.174   117035409.968 0  91196414.013 0        45.000  
        45.000                                                  
 22  1 14 10 59 47.0000000  0  0
 22  1 14 10 59 48.0010000  0  5E03E05E09E24E25
  25873026.734                   135963708.555 0                        45.000  
                  25873027.235   104179997.244          49.000  
  23388400.525                   122906892.649 0                        48.000  
                  23388400.614    94175416.615          54.000  
  23730322.349                   124703683.558 0                        44.000  
                  23730323.368    95552172.968          50.000  
  23640000.907                   124229086.479 0                        49.000  
                  23639998.673    95188534.045          53.000  
  25705438.350                   135083029.311 0                        45.000  
                  25705440.101   103505199.196          50.000  
 22  1 14 10 59 49.0010000  0 11G05G07G13G14G15G17G19G20G23G24G30
  22829735.028    22829731.490   119971043.627 0  93483574.951 0        46.000  
        44.000                                                  
  24308254.709    24308251.493   127740706.527 0  99538179.673 0        39.000  
        37.000                                                  
  20112418.723                   105692084.434 0                        49.000  
                                                                
  20589732.973    20589728.274   108199873.192 0  84311569.982 0        48.000  
        49.000                                                  
  21262403.212    21262399.388   111734723.080 0  87066005.332 0        48.000  
        46.000                                                  
  23263789.714    23263785.836   122251745.123 0  95261526.368 0        43.000  
        39.000                                                  
  24904148.099                   130872790.968 0                        28.000  
                                                                
  24198481.370                   127163812.596 0                        41.000  
                                                                
  24688092.367    24688087.989   129736228.314 0 101093165.825 0        41.000  
        41.000                                                  
  24256060.204    24256060.365   127466463.17210  99324524.694 0        38.000  
        38.000                                                  
  22271538.361    22271537.021   117037726.274 0  91198218.932 0        45.000  
        45.000                                                  
 22  1 14 10 59 48.0000000  0  0
 22  1 14 10 59 49.0010000  0  5E03E05E09E24E25
  25872586.710                   135961396.477 0                        45.000  
                  25872587.317   104178225.652          49.000  
  23388428.829                   122907042.963 0                        48.000  
                  23388429.258    94175531.795          54.000  
  23730796.969                   124706177.534 0                        44.000  
                  23730798.023    95554083.929          50.000  
  23640010.717                   124229137.503 0                        49.000  
                  23640008.519    95188573.146          53.000  
  25704974.488                   135080591.433 0                        45.000  
                  25704976.204   103503331.211          50.000  
 22  1 14 10 59 50.0010000  0 11G05G07G13G14G15G17G19G20G23G24G30
  22830277.442    22830273.851   119973893.986 0  93485796.013 0        46.000  
        44.000                                                  
  24308776.234    24308772.982   127743447.079 0  99540315.175 0        39.000  
        37.000                                                  
  20112322.570                   105691579.436 0                        49.000  
                                                                
  20589888.577    20589883.913   108200690.624 0  84312206.937 0        48.000  
        50.000                                                  
  21262006.787    21262003.035   111732640.182 0  87064382.300 0        48.000  
        46.000                                                  
  23263278.785    23263274.872   122249060.006 0  95259434.071 0        42.000  
        40.000                                                  
  24903475.206                   130869252.713 0                        28.000  
                                                                
  24199142.685                   127167287.440 0                        41.000  
                                                                
  24687639.959    24687635.545   129733850.610 0 101091313.062 0        41.000  
        41.000                                                  
  24255447.172    24255447.368   127463241.88210  99322014.573 0        38.000  
        38.000                                                  
  22271979.136    22271977.778   117040042.520 0  91200023.789 0        45.000  
        45.000                                                  
 22  1 14 10 59 49.0000000  0  0
 22  1 14 10 59 50.0010000  0  5E03E05E09E24E25
  25872146.578                   135959084.323 0                        45.000  
                  25872147.311   104176453.996          49.000  
  23388457.634                   122907193.418 0                        48.000  
                  23388457.867    94175647.072          54.000  
  23731271.409                   124708671.475 0                        44.000  
                  23731272.588    95555994.871          50.000  
  23640020.331                   124229188.639 0                        49.000  
                  23640018.186    95188612.331          53.000  
  25704510.340                   135078153.505 0                        45.000  
                  25704512.288   103501463.195          50.000  
 22  1 14 10 59 51.0010000  0 11G05G07G13G14G15G17G19G20G23G24G30
  22830819.839    22830816.318   119976744.535 0  93488017.220 0        46.000  
        44.000                                                  
  24309297.778    24309294.525   127746187.564 0  99542450.608 0        39.000  
        37.000                                                  
  20112226.595                   105691074.813 0                        49.000  
                                                                
  20590044.144    20590039.570   108201508.478 0  84312844.226 0        48.000  
        50.000                                                  
  21261610.524    21261606.700   111730557.630 0  87062759.537 0        48.000  
        46.000                                                  
  23262767.838    23262763.960   122246375.024 0  95257341.868 0        42.000  
        39.000                                                  
  24902802.401                   130865714.282 0                        28.000  
                                                                
  24199803.874                   127170762.127 0                        41.000  
                                                                
  24687187.533    24687183.119   129731473.213 0 101089460.550 0        41.000  
        41.000                                                  
  24254834.121    24254834.372   127460020.50310  99319504.444 0        38.000  
        38.000                                                  
  22272419.983    22272418.643   117042358.800 0  91201828.690 0        45.000  
        45.000                                                  
 22  1 14 10 59 50.0000000  0  0
 22  1 14 10 59 51.0010000  0  5E03E05E09E24E25
  25871706.589                   135956772.200 0                        45.000  
                  25871707.339   104174682.382          49.000  
  23388486.278                   122907344.122 0                        48.000  
                  23388486.636    94175762.543          54.000  
  23731746.100                   124711165.507 0                        44.000  
                  23731747.207    95557905.887          50.000  
  23640030.194                   124229239.992 0                        49.000  
                  23640028.014    95188651.677          53.000  
  25704046.639                   135075715.670 0                        45.000  
                  25704048.372   103499595.249          50.000  
 22  1 14 10 59 52.0010000  0 11G05G07G13G14G15G17G19G20G23G24G30
  22831362.253    22831358.786   119979595.185 0  93490238.503 0        46.000  
        44.000                                                  
  24309819.303    24309815.997   127748927.863 0  99544585.938 0        39.000  
        36.000                                                  
  20112130.585                   105690570.470 0                        49.000  
                                                                
  20590199.819    20590195.334   108202326.667 0  84313481.781 0        48.000  
        50.000                                                  
  21261214.135    21261210.329   111728475.325 0  87061136.968 0        48.000  
        46.000                                                  
  23262256.873    23262252.960   122243690.071 0  95255249.708 0        42.000  
        39.000                                                  
  24902131.026                   130862175.592 0                        28.000  
                                                                
  24200465.117                   127174236.608 0                        41.000  
                                                                
  24686735.250    24686730.783   129729096.067 0 101087608.212 0        41.000  
        41.000                                                  
  24254221.089    24254221.303   127456798.98910  99316994.171 0        38.000  
        38.000                                                  
  22272860.758    22272859.400   117044675.057 0  91203633.563 0        45.000  
        45.000                                                  
 22  1 14 10 59 51.0000000  0  0
 22  1 14 10 59 52.0010000  0  5E03E05E09E24E25
  25871266.671                   135954460.043 0                        45.000  
                  25871267.350   104172910.722          49.000  
  23388514.887                   122907494.973 0                        48.000  
                  23388515.333    94175878.139          54.000  
  23732220.808                   124713659.535 0                        44.000  
                  23732221.862    95559816.896          50.000  
  23640039.986                   124229291.491 0                        49.000  
                  23640037.789    95188691.140          53.000  
  25703582.777                   135073277.810 0                        45.000  
                  25703584.493   103497727.282          50.000  
 22  1 14 10 59 53.0010000  0 11G05G07G13G14G15G17G19G20G23G24G30
  22831904.703    22831901.308   119982445.934 0  93492459.868 0        46.000  
        44.000                                                  
  24310340.739    24310337.522   127751668.001 0  99546721.053 0        39.000  
        37.000                                                  
  20112034.736                   105690066.408 0                        49.000  
                                                                
  20590355.530    20590351.098   108203145.190 0  84314119.586 0        48.000  
        50.000                                                  
  21260818.104    21260814.155   111726393.260 0  87059514.578 0        48.000  
        46.000                                                  
  23261745.909    23261742.031   122241005.154 0  95253157.567 0        43.000  
        39.000                                                  
  24901457.918                   130858636.556 0                        28.000  
                                                                
  24201126.218                   127177710.815 0                        41.000  
                                                                
  24686282.950    24686278.500   129726719.105 0 101085756.077 0        41.000  
        41.000                                                  
  24253608.092    24253608.253   127453577.33110  99314483.757 0        38.000  
        38.000                                                  
  22273301.623    22273300.068   117046991.250 0  91205438.384 0        45.000  
        45.000                                                  
 22  1 14 10 59 52.0000000  0  0
 22  1 14 10 59 53.0010000  0  5E03E05E09E24E25
  25870826.772                   135952147.806 0                        45.000  
                  25870827.344   104171139.014          49.000  
  23388543.566                   122907645.977 0                        48.000  
                  23388544.049    94175993.841          54.000  
  23732695.266                   124716153.555 0                        44.000  
                  23732696.428    95561727.891          50.000  
  23640049.868                   124229343.091 0                        49.000  
                  23640047.652    95188730.681          53.000  
  25703118.826                   135070839.923 0                        45.000  
                  25703120.577   103495859.298          50.000  
 22  1 14 10 59 54.0010000  0 11G05G07G13G14G15G17G19G20G23G24G30
  22832447.314    22832443.918   119985297.616 0  93494681.949 0        46.000  
        44.000                                                  
  24310862.407    24310859.066   127754408.788 0  99548856.763 0        39.000  
        37.000                                                  
  20111938.993                   105689563.446 0                        49.000  
                                                                
  20590511.491    20590507.131   108203964.864 0  84314758.300 0        48.000  
        50.000                                                  
  21260422.037    21260418.213   111724312.267 0  87057893.027 0        48.000  
        46.000                                                  
  23261235.140    23261231.209   122238321.108 0  95251066.096 0        42.000  
        39.000                                                  
  24900786.489                   130855098.078 0                        29.000  
                                                                
  24201787.550                   127181185.663 0                        41.000  
                                                                
  24685830.792    24685826.414   129724343.240 0 101083904.741 0        41.000  
        41.000                                                  
  24252995.042    24252995.292   127450356.27510  99311973.884 0        38.000  
        38.000                                                  
  22273742.594    22273741.004   117049308.228 0  91207243.827 0        45.000  
        45.000                                                  
 22  1 14 10 59 53.0000000  0  0
 22  1 14 10 59 54.0010000  0  5E03E05E09E24E25
  25870386.640                   135949836.350 0                        45.000  
                  25870387.533   104169367.899          49.000  
  23388572.586                   122907797.967 0                        48.000  
                  23388572.907    94176110.307          54.000  
  23733170.243                   124718648.406 0                        44.000  
                  23733171.118    95563639.530          50.000  
  23640059.946                   124229395.664 0                        49.000  
                  23640057.605    95188770.965          53.000  
  25702655.321                   135068402.869 0                        45.000  
                  25702656.733   103493991.943          50.000  
 22  1 14 10 59 55.0010000  0 11G05G07G13G14G15G17G19G20G23G24G30
  22832989.942    22832986.708   119988149.651 0  93496904.314 0        46.000  
        44.000                                                  
  24311384.004    24311380.609   127757149.692 0  99550992.519 0        39.000  
        36.000                                                  
  20111843.394                   105689061.030 0                        49.000  
                                                                
  20590667.630    20590663.199   108204785.142 0  84315397.475 0        48.000  
        50.000                                                  
  21260026.167    21260022.325   111722231.778 0  87056271.865 0        48.000  
        46.000                                                  
  23260724.462    23260720.495   122235637.355 0  95248974.849 0        43.000  
        39.000                                                  
  24900114.275                   130851559.559 0                        29.000  
                                                                
  24202448.865                   127184660.540 0                        41.000  
                                                                
  24685378.777    24685374.488   129721967.851 0 101082053.793 0        41.000  
        41.000                                                  
  24252382.134    24252382.384   127447135.35710  99309464.075 0        38.000  
        38.000                                                  
  22274183.512    22274181.940   117051625.430 0  91209049.448 0        45.000  
        45.000                                                  
 22  1 14 10 59 54.0000000  0  0
 22  1 14 10 59 55.0010000  0  5E03E05E09E24E25
  25869947.062                   135947525.122 0                        45.000  
                  25869947.580   104167596.963          49.000  
  23388601.802                   122907950.376 0                        48.000  
                  23388601.909    94176227.080          54.000  
  23733644.969                   124721143.500 0                        44.000  
                  23733645.916    95565551.358          50.000  
  23640070.114                   124229448.628 0                        49.000  
                  23640067.630    95188811.543          53.000  
  25702191.620                   135065966.042 0                        45.000  
                  25702192.978   103492124.772          50.000  
 22  1 14 10 59 56.0010000  0 11G05G07G13G14G15G17G19G20G23G24G30
  22833532.767    22833529.408   119991001.985 0  93499126.918 0        46.000  
        44.000                                                  
  24311905.493    24311902.188   127759890.604 0  99553128.300 0        39.000  
        37.000                                                  
  20111747.848                   105688559.108 0                        49.000  
                                                                
  20590823.895    20590819.392   108205605.963 0  84316037.072 0        48.000  
        50.000                                                  
  21259630.172    21259626.544   111720151.733 0  87054651.052 0        48.000  
        46.000                                                  
  23260213.908    23260209.798   122232953.849 0  95246883.805 0        42.000  
        39.000                                                  
  24899442.489                   130848020.993 0                        29.000  
                                                                
  24203110.197                   127188135.391 0                        41.000  
                                                                
  24684926.780    24684922.545   129719592.897 0 101080203.176 0        41.000  
        41.000                                                  
  24251769.155    24251769.423   127443914.48310  99306954.283 0        38.000  
        38.000                                                  
  22274624.377    22274622.876   117053942.782 0  91210855.178 0        45.000  
        45.000                                                  
 22  1 14 10 59 55.0000000  0  0
 22  1 14 10 59 56.0010000  0  5E03E05E09E24E25
  25869507.162                   135945214.036 0                        45.000  
                  25869507.966   104165826.135          49.000  
  23388630.642                   122908103.150 0                        48.000  
                  23388631.071    94176344.149          54.000  
  23734119.838                   124723638.808 0                        44.000  
                  23734120.803    95567463.345          50.000  
  23640080.067                   124229501.924 0                        49.000  
                  23640077.762    95188852.387          53.000  
  25701727.883                   135063529.423 0                        45.000  
                  25701729.384   103490257.761          50.000  
 22  1 14 10 59 57.0010000  0 11G05G07G13G14G15G17G19G20G23G24G30
  22834075.628    22834072.251   119993854.594 0  93501349.731 0        46.000  
        44.000                                                  
  24312427.090    24312423.784   127762631.535 0  99555264.078 0        39.000  
        37.000                                                  
  20111652.392                   105688057.637 0                        49.000  
                                                                
  20590980.195    20590975.799   108206427.283 0  84316677.063 0        48.000  
        50.000                                                  
  21259234.373    21259230.799   111718072.115 0  87053030.569 0        48.000  
        46.000                                                  
  23259703.354    23259699.226   122230270.545 0  95244792.907 0        42.000  
        39.000                                                  
  24898769.381                   130844482.294 0                        29.000  
                                                                
  24203771.458                   127191610.197 0                        41.000  
                                                                
  24684474.872    24684470.763   129717218.353 0 101078352.889 0        41.000  
        41.000                                                  
  24251156.212    24251156.623   127440693.56510  99304444.481 0        38.000  
        39.000                                                  
  22275065.384    22275063.901   117056260.265 0  91212661.001 0        45.000  
        45.000                                                  
 22  1 14 10 59 56.0000000  0  0
 22  1 14 10 59 57.0010000  0  5E03E05E09E24E25
  25869067.424                   135942903.073 0                        45.000  
                  25869068.210   104164055.394          49.000  
  23388659.733                   122908256.240 0                        48.000  
                  23388660.197    94176461.445          54.000  
  23734594.779                   124726134.275 0                        44.000  
                  23734595.637    95569375.456          50.000  
  23640090.252                   124229555.521 0                        49.000  
                  23640087.965    95188893.453          53.000  
  25701264.164                   135061092.944 0                        45.000  
                  25701265.665   103488390.852          50.000  
 22  1 14 10 59 58.0010000  0 11G05G07G13G14G15G17G19G20G23G24G30
  22834618.453    22834615.040   119996707.521 0  93503572.777 0        46.000  
        44.000                                                  
  24312948.705    24312945.292   127765372.503 0  99557399.920 0        39.000  
        37.000                                                  
  20111557.168                   105687556.674 0                        49.000  
                                                                
  20591136.585    20591132.261   108207249.160 0  84317317.478 0        48.000  
        50.000                                                  
  21258838.806    21258835.054   111715992.950 0  87051410.433 0        48.000  
        46.000                                                  
  23259192.800    23259188.708   122227587.488 0  95242702.218 0        42.000  
        39.000                                                  
  24898095.897                   130840943.479 0                        29.000  
                                                                
  24204432.630                   127195084.977 0                        41.000  
                                                                
  24684023.072    24684018.926   129714844.246 0 101076502.945 0        41.000  
        41.000                                                  
  24250543.233    24250543.787   127437472.75010  99301934.764 0        38.000  
        38.000                                                  
  22275506.446    22275504.891   117058577.916 0  91214466.962 0        45.000  
        45.000                                                  
 22  1 14 10 59 57.0000000  0  0
 22  1 14 10 59 58.0010000  0  5E03E05E09E24E25
  25868627.560                   135940592.277 0                        45.000  
                  25868628.417   104162284.776          49.000  
  23388689.092                   122908409.706 0                        48.000  
                  23388689.449    94176579.031          54.000  
  23735069.559                   124728629.953 0                        44.000  
                  23735070.524    95571287.724          50.000  
  23640100.491                   124229609.462 0                        49.000  
                  23640098.257    95188934.780          53.000  
  25700800.713                   135058656.671 0                        45.000  
                  25700802.161   103486524.095          50.000  
 22  1 14 10 59 59.0010000  0 11G05G07G13G14G15G17G19G20G23G24G30
  22835161.493    22835157.973   119999560.799 0  93505796.111 0        46.000  
        44.000                                                  
  24313470.373    24313466.817   127768113.563 0  99559535.788 0        39.000  
        37.000                                                  
  20111461.998                   105687056.227 0                        49.000  
                                                                
  20591293.082    20591288.883   108208071.613 0  84317958.357 0        48.000  
        50.000                                                  
  21258443.240    21258439.505   111713914.266 0  87049790.695 0        48.000  
        46.000                                                  
  23258682.229    23258678.173   122224904.727 0  95240611.767 0        42.000  
        39.000                                                  
  24897419.376                   130837404.636 0                        29.000  
                                                                
  24205093.766                   127198559.804 0                        41.000  
                                                                
  24683571.379    24683567.233   129712470.632 0 101074653.383 0        41.000  
        41.000                                                  
  24249930.182    24249930.844   127434251.98710  99299425.129 0        38.000  
        38.000                                                  
  22275947.507    22275946.077   117060895.781 0  91216273.091 0        45.000  
        45.000                                                  
 22  1 14 10 59 58.0000000  0  0
 22  1 14 10 59 59.0010000  0  5E03E05E09E24E25
  25868187.928                   135938281.683 0                        45.000  
                  25868188.607   104160514.330          49.000  
  23388718.540                   122908563.576 0                        48.000  
                  23388718.647    94176696.941          54.000  
  23735544.661                   124731125.865 0                        44.000  
                  23735545.501    95573200.188          50.000  
  23640110.909                   124229663.776 0                        49.000  
                  23640108.532    95188976.403          53.000  
  25700337.137                   135056220.630 0                        45.000  
                  25700338.549   103484657.529          50.000  
 22  1 14 11  0  0.0010000  0 11G05G07G13G14G15G17G19G20G23G24G30
  22835704.551    22835700.977   120002414.230 0  93508019.562 0        46.000  
        44.000                                                  
  24313991.898    24313988.396   127770854.481 0  99561671.594 0        39.000  
        37.000                                                  
  20111366.756                   105686556.118 0                        49.000  
                                                                
  20591449.704    20591445.451   108208894.447 0  84318599.524 0        47.000  
        50.000                                                  
  21258047.762    21258044.135   111711835.881 0  87048171.168 0        48.000  
        46.000                                                  
  23258171.729    23258167.744   122222222.040 0  95238521.375 0        42.000  
        39.000                                                  
  24896741.532                   130833865.592 0                        28.000  
                                                                
  24205754.920                   127202034.438 0                        41.000  
                                                                
  24683119.722    24683115.469   129710097.286 0 101072804.022 0        41.000  
        41.000                                                  
  24249317.150    24249317.883   127431031.12210  99296915.334 0        38.000  
        38.000                                                  
  22276388.568    22276387.120   117063213.643 0  91218079.215 0        45.000  
        45.000                                                  
 22  1 14 10 59 59.0000000  0  0
 22  1 14 11  0  0.0010000  0  5E03E05E09E24E25
  25867748.064                   135935971.069 0                        45.000  
                  25867749.047   104158743.868          49.000  
  23388747.559                   122908717.649 0                        48.000  
                  23388747.988    94176814.995          54.000  
  23736019.548                   124733621.840 0                        44.000  
                  23736020.406    95575112.679          50.000  
  23640121.058                   124229718.269 0                        49.000  
                  23640118.968    95189018.157          53.000  
  25699873.257                   135053784.618 0                        45.000  
                  25699874.991   103482790.977          50.000  
 22  1 14 11  0  1.0010000  0 11G05G07G13G14G15G17G19G20G23G24G30
  22836247.697    22836244.088   120005268.196 0  93510243.428 0        46.000  
        44.000                                                  
  24314513.585    24314510.029   127773595.717 0  99563807.590 0        39.000  
        37.000                                                  
  20111271.621                   105686056.730 0                        49.000  
                                                                
  20591606.415    20591602.216   108209718.058 0  84319241.297 0        47.000  
        50.000                                                  
  21257652.375    21257648.801   111709758.186 0  87046552.185 0        48.000  
        46.000                                                  
  23257661.354    23257657.405   122219539.857 0  95236431.342 0        42.000  
        39.000                                                  
  24896067.459                   130830326.618 0                        28.000  
                                                                
  24206416.127                   127205509.265 0                        41.000  
                                                                
  24682668.207    24682663.936   129707724.614 0 101070955.205 0        41.000  
        41.000                                                  
  24248704.242    24248705.064   127427810.53610  99294405.773 0        38.000  
        38.000                                                  
  22276829.772    22276828.253   117065531.902 0  91219885.641 0        45.000  
        45.000                                                  
 22  1 14 11  0  0.0000000  0  0
 22  1 14 11  0  1.0010000  0  5E03E05E09E24E25
  25867308.576                   135933660.860 0                        45.000  
                  25867309.398   104156973.701          49.000  
  23388777.150                   122908872.318 0                        48.000  
                  23388777.490    94176933.507          54.000  
  23736494.703                   124736118.239 0                        44.000  
                  23736495.525    95577025.502          50.000  
  23640131.619                   124229773.340 0                        49.000  
                  23640129.475    95189060.350          53.000  
  25699410.092                   135051349.035 0                        45.000  
                  25699411.468   103480924.759          50.000  
 22  1 14 11  0  2.0010000  0 11G05G07G13G14G15G17G19G20G23G24G30
  22836790.719    22836787.252   120008122.434 0  93512467.499 0        46.000  
        44.000                                                  
  24315035.199    24315031.608   127776336.905 0  99565943.608 0        39.000  
        37.000                                                  
  20111176.594                   105685557.789 0                        49.000  
                                                                
  20591763.323    20591759.088   108210542.163 0  84319883.452 0        47.000  
        50.000                                                  
  21257257.165    21257253.538   111707680.884 0  87044933.499 0        48.000  
        46.000                                                  
  23257151.032    23257146.958   122216857.856 0  95234341.464 0        42.000  
        39.000                                                  
  24895391.170                   130826787.591 0                        28.000  
                                                                
  24207077.335                   127208984.030 0                        41.000  
                                                                
  24682216.728    24682212.386   129705352.338 0 101069106.674 0        41.000  
        41.000                                                  
  24248091.210    24248092.193   127424589.90810  99291896.250 0        38.000  
        39.000                                                  
  22277270.994    22277269.421   117067850.269 0  91221692.163 0        45.000  
        45.000                                                  
 22  1 14 11  0  1.0000000  0  0
 22  1 14 11  0  2.0010000  0  5E03E05E09E24E25
  25866868.855                   135931350.760 0                        45.000  
                  25866869.802   104155203.624          49.000  
  23388806.634                   122909027.304 0                        48.000  
                  23388806.884    94177052.269          54.000  
  23736969.948                   124738614.798 0                        44.000  
                  23736970.627    95578938.452          50.000  
  23640142.126                   124229828.695 0                        49.000  
                  23640140.017    95189102.768          53.000  
  25698946.534                   135048913.592 0                        45.000  
                  25698948.035   103479058.646          50.000  
 22  1 14 11  0  3.0010000  0 11G05G07G13G14G15G17G19G20G23G24G30
  22837333.955    22837330.471   120010977.159 0  93514691.967 0        46.000  
        44.000                                                  
  24315556.850    24315553.276   127779078.346 0  99568079.778 0        39.000  
        37.000                                                  
  20111081.870                   105685059.531 0                        49.000  
                                                                
  20591920.285    20591916.175   108211367.001 0  84320526.185 0        47.000  
        50.000                                                  
  21256861.956    21256858.382   111705604.246 0  87043315.339 0        48.000  
        46.000                                                  
  23256640.657    23256636.744   122214176.296 0  95232251.925 0        42.000  
        39.000                                                  
  24894716.650                   130823248.640 0                        28.000  
                                                                
  24207738.542                   127212458.990 0                        41.000  
                                                                
  24681765.428    24681760.890   129702980.699 0 101067258.623 0        42.000  
        41.000                                                  
  24247478.320    24247479.374   127421369.56510  99289386.880 0        38.000  
        38.000                                                  
  22277712.234    22277710.607   117070168.996 0  91223498.954 0        45.000  
        45.000                                                  
 22  1 14 11  0  2.0000000  0  0
 22  1 14 11  0  3.0010000  0  5E03E05E09E24E25
  25866429.366                   135929041.011 0                        45.000  
                  25866430.260   104153433.813          49.000  
  23388836.225                   122909182.856 0                        48.000  
                  23388836.583    94177171.445          54.000  
  23737445.156                   124741111.746 0                        44.000  
                  23737445.728    95580851.698          50.000  
  23640152.740                   124229884.564 0                        49.000  
                  23640150.667    95189145.574          53.000  
  25698483.405                   135046478.540 0                        45.000  
                  25698484.781   103477192.824          50.000  
 22  1 14 11  0  4.0010000  0 11G05G07G13G14G15G17G19G20G23G24G30
  22837877.299    22837873.778   120013832.457 0  93516916.876 0        46.000  
        44.000                                                  
  24316078.589    24316075.016   127781820.089 0  99570216.201 0        39.000  
        37.000                                                  
  20110987.128                   105684562.025 0                        49.000  
                                                                
  20592077.425    20592073.386   108212192.646 0  84321169.545 0        47.000  
        50.000                                                  
  21256467.033    21256463.370   111703528.323 0  87041697.741 0        48.000  
        46.000                                                  
  23256130.550    23256126.583   122211495.261 0  95230162.806 0        42.000  
        39.000                                                  
  24894042.845                   130819709.877 0                        28.000  
                                                                
  24208399.768                   127215934.166 0                        41.000  
                                                                
  24681314.235    24681309.768   129700609.765 0 101065411.135 0        42.000  
        40.000                                                  
  24246865.520    24246866.681   127418149.50410  99286877.755 0        38.000  
        39.000                                                  
  22278153.473    22278151.954   117072488.141 0  91225306.080 0        45.000  
        45.000                                                  
 22  1 14 11  0  3.0000000  0  0
 22  1 14 11  0  4.0010000  0  5E03E05E09E24E25
  25865989.895                   135926731.682 0                        45.000  
                  25865990.699   104151664.340          48.000  
  23388865.977                   122909339.028 0                        48.000  
                  23388866.263    94177291.118          54.000  
  23737920.455                   124743609.179 0                        44.000  
                  23737921.044    95582765.315          50.000  
  23640163.587                   124229941.073 0                        49.000  
                  23640161.299    95189188.877          53.000  
  25698020.007                   135044043.949 0                        45.000  
                  25698021.455   103475327.367          50.000  
 22  1 14 11  0  5.0010000  0 11G05G07G13G14G15G17G19G20G23G24G30
  22838420.553    22838417.247   120016687.842 0  93519141.845 0        46.000  
        44.000                                                  
  24316600.293    24316596.720   127784561.660 0  99572352.460 0        39.000  
        37.000                                                  
  20110892.548                   105684064.792 0                        49.000  
                                                                
  20592234.547    20592230.491   108213018.623 0  84321813.161 0        47.000  
        50.000                                                  
  21256071.949    21256068.411   111701452.629 0  87040080.322 0        48.000  
        46.000                                                  
  23255620.247    23255616.423   122208814.225 0  95228073.692 0        42.000  
        39.000                                                  
  24893370.666                   130816170.789 0                        29.000  
                                                                
  24209061.029                   127219409.122 0                        41.000  
                                                                
  24680863.132    24680858.540   129698239.050 0 101063563.838 0        42.000  
        40.000                                                  
  24246252.880    24246253.881   127414929.26110  99284368.461 0        38.000  
        39.000                                                  
  22278594.802    22278593.301   117074807.238 0  91227113.174 0        45.000  
        45.000                                                  
 22  1 14 11  0  4.0000000  0  0
 22  1 14 11  0  5.0010000  0  5E03E05E09E24E25
  25865550.353                   135924422.286 0                        45.000  
                  25865551.354   104149894.810          48.000  
  23388895.640                   122909495.346 0                        48.000  
                  23388895.943    94177410.894          54.000  
  23738395.735                   124746106.585 0                        44.000  
                  23738396.235    95584678.901          50.000  
  23640174.379                   124229997.678 0                        49.000  
                  23640172.092    95189232.248          53.000  
  25697556.574                   135041609.319 0                        46.000  
                  25697558.165   103473461.878          50.000  
 22  1 14 11  0  6.0010000  0 11G05G07G13G14G15G17G19G20G23G24G30
  22838963.878    22838960.519   120019543.163 0  93521366.775 0        46.000  
        44.000                                                  
  24317121.890    24317118.388   127787302.854 0  99574488.476 0        39.000  
        36.000                                                  
  20110797.895                   105683567.655 0                        49.000  
                                                                
  20592391.866    20592387.720   108213844.738 0  84322456.889 0        47.000  
        50.000                                                  
  21255677.043    21255673.434   111699377.009 0  87038462.955 0        48.000  
        46.000                                                  
  23255109.943    23255106.137   122206133.061 0  95225984.476 0        42.000  
        39.000                                                  
  24892696.808                   130812631.310 0                        29.000  
                                                                
  24209722.147                   127222883.667 0                        41.000  
                                                                
  24680411.993    24680407.329   129695868.386 0 101061716.567 0        42.000  
        40.000                                                  
  24245640.098    24245640.992   127411708.68010  99281858.934 0        37.000  
        39.000                                                  
  22279036.060    22279034.613   117077126.113 0  91228920.093 0        45.000  
        45.000                                                  
 22  1 14 11  0  5.0000000  0  0
 22  1 14 11  0  6.0010000  0  5E03E05E09E24E25
  25865110.900                   135922112.667 0                        45.000  
                  25865111.722   104148125.093          48.000  
  23388925.463                   122909651.643 0                        48.000  
                  23388925.785    94177530.648          54.000  
  23738870.836                   124748603.795 0                        44.000  
                  23738871.337    95586592.359          50.000  
  23640185.119                   124230054.225 0                        49.000  
                  23640182.903    95189275.578          53.000  
  25697093.302                   135039174.501 0                        46.000  
                  25697094.857   103471596.241          50.000  
 22  1 14 11  0  7.0010000  0 11G05G07G13G14G15G17G19G20G23G24G30
  22839507.239    22839503.969   120022398.972 0  93523592.073 0        46.000  
        44.000                                                  
  24317643.487    24317640.056   127790044.304 0  99576624.668 0        39.000  
        36.000                                                  
  20110703.493                   105683071.181 0                        49.000  
                                                                
  20592549.203    20592545.146   108214671.577 0  84323101.173 0        47.000  
        50.000                                                  
  21255282.209    21255278.636   111697302.022 0  87036846.083 0        48.000  
        46.000                                                  
  23254599.854    23254596.030   122203452.334 0  95223895.593 0        41.000  
        39.000                                                  
  24892025.093                   130809091.881 0                        29.000  
                                                                
  24210383.390                   127226358.377 0                        41.000  
                                                                
  24679960.943    24679956.279   129693498.332 0 101059869.788 0        42.000  
        40.000                                                  
  24245027.244    24245028.227   127408488.31410  99279349.560 0        38.000  
        39.000                                                  
  22279477.389    22279475.942   117079445.331 0  91230727.274 0        44.000  
        45.000                                                  
 22  1 14 11  0  6.0000000  0  0
 22  1 14 11  0  7.0010000  0  5E03E05E09E24E25
  25864671.537                   135919803.385 0                        45.000  
                  25864672.412   104146355.643          48.000  
  23388955.179                   122909808.469 0                        48.000  
                  23388955.590    94177650.820          54.000  
  23739346.260                   124751101.407 0                        44.000  
                  23739346.724    95588506.106          50.000  
  23640196.108                   124230111.291 0                        49.000  
                  23640193.660    95189319.311          53.000  
  25696630.101                   135036740.051 0                        46.000  
                  25696631.513   103469730.887          50.000  
 22  1 14 11  0  8.0010000  0 11G05G07G13G14G15G17G19G20G23G24G30
  22840050.940    22840047.563   120025255.596 0  93525818.007 0        46.000  
        44.000                                                  
  24318165.245    24318161.796   127792786.288 0  99578761.272 0        39.000  
        36.000                                                  
  20110609.145                   105682575.715 0                        49.000  
                                                                
  20592706.718    20592702.733   108215499.459 0  84323746.285 0        47.000  
        50.000                                                  
  21254887.429    21254884.016   111695227.989 0  87035229.951 0        48.000  
        46.000                                                  
  23254089.872    23254086.066   122200772.343 0  95221807.284 0        41.000  
        39.000                                                  
  24891350.073                   130805552.825 0                        29.000  
                                                                
  24211044.776                   127229833.589 0                        41.000  
                                                                
  24679510.215    24679505.390   129691129.237 0 101058023.729 0        42.000  
        40.000                                                  
  24244414.515    24244415.570   127405268.53110  99276840.627 0        38.000  
        39.000                                                  
  22279918.933    22279917.378   117081765.212 0  91232534.964 0        44.000  
        45.000                                                  
 22  1 14 11  0  7.0000000  0  0
 22  1 14 11  0  8.0010000  0  5E03E05E09E24E25
  25864232.191                   135917494.755 0                        45.000  
                  25864232.995   104144586.701          48.000  
  23388985.146                   122909966.187 0                        48.000  
                  23388985.592    94177771.664          54.000  
  23739821.665                   124753599.726 0                        44.000  
                  23739822.112    95590420.394          50.000  
  23640207.080                   124230169.208 0                        49.000  
                  23640204.739    95189363.689          53.000  
  25696167.025                   135034306.301 0                        46.000  
                  25696168.330   103467866.075          50.000  
 22  1 14 11  0  9.0010000  0 11G05G07G13G14G15G17G19G20G23G24G30
  22840594.569    22840591.210   120028112.654 0  93528044.291 0        46.000  
        44.000                                                  
  24318687.038    24318683.518   127795528.456 0  99580898.015 0        39.000  
        36.000                                                  
  20110514.993                   105682080.876 0                        49.000  
                                                                
  20592864.448    20592860.427   108216328.038 0  84324391.929 0        47.000  
        50.000                                                  
  21254493.024    21254489.432   111693154.564 0  87033614.297 0        48.000  
        46.000                                                  
  23253579.926    23253576.120   122198092.745 0  95219719.290 0        41.000  
        39.000                                                  
  24890673.730                   130802013.906 0                        29.000  
                                                                
  24211706.127                   127233308.909 0                        41.000  
                                                                
  24679059.522    24679054.572   129688760.723 0 101056178.140 0        42.000  
        40.000                                                  
  24243801.751    24243802.841   127402048.92210  99274331.859 0        38.000  
        39.000                                                  
  22280360.387    22280358.868   117084085.401 0  91234342.917 0        44.000  
        45.000                                                  
 22  1 14 11  0  8.0000000  0  0
 22  1 14 11  0  9.0010000  0  5E03E05E09E24E25
  25863792.863                   135915186.447 0                        45.000  
                  25863793.703   104142817.996          48.000  
  23389015.291                   122910124.395 0                        48.000  
                  23389015.720    94177892.895          54.000  
  23740296.999                   124756098.379 0                        44.000  
                  23740297.714    95592334.955          50.000  
  23640217.926                   124230227.604 0                        49.000  
                  23640215.853    95189408.434          53.000  
  25695703.968                   135031872.898 0                        46.000  
                  25695705.361   103466001.520          50.000  
 22  1 14 11  0 10.0010000  0 11G05G07G13G14G15G17G19G20G23G24G30
  22841138.270    22841134.893   120030970.000 0  93530270.776 0        46.000  
        44.000                                                  
  24319208.849    24319205.365   127798270.590 0  99583034.750 0        39.000  
        36.000                                                  
  20110420.913                   105681586.483 0                        49.000  
                                                                
  20593022.374    20593018.282   108217157.111 0  84325037.959 0        47.000  
        50.000                                                  
  21254098.547    21254094.902   111691081.543 0  87031998.952 0        48.000  
        46.000                                                  
  23253069.926    23253066.334   122195413.351 0  95217631.455 0        41.000  
        39.000                                                  
  24890002.105                   130798474.879 0                        29.000  
                                                                
  24212367.405                   127236784.164 0                        41.000  
                                                                
  24678608.830    24678604.023   129686392.600 0 101054332.843 0        42.000  
        41.000                                                  
  24243189.094    24243190.094   127398829.28310  99271823.029 0        38.000  
        39.000                                                  
  22280801.895    22280800.501   117086405.698 0  91236150.942 0        44.000  
        45.000                                                  
 22  1 14 11  0  9.0000000  0  0
 22  1 14 11  0 10.0010000  0  5E03E05E09E24E25
  25863353.678                   135912878.239 0                        45.000  
                  25863354.465   104141049.369          48.000  
  23389045.454                   122910282.928 0                        48.000  
                  23389045.882    94178014.364          54.000  
  23740772.368                   124758597.197 0                        44.000  
                  23740773.101    95594249.630          50.000  
  23640229.041                   124230286.287 0                        49.000  
                  23640227.057    95189453.403          53.000  
  25695240.874                   135029439.627 0                        46.000  
                  25695242.339   103464137.072          50.000  
 22  1 14 11  0 11.0010000  0 11G05G07G13G14G15G17G19G20G23G24G30
  22841681.917    22841678.576   120033827.240 0  93532497.199 0        46.000  
        44.000                                                  
  24319730.589    24319727.069   127801012.403 0  99585171.193 0        39.000  
        36.000                                                  
  20110326.832                   105681092.181 0                        49.000  
                                                                
  20593180.122    20593176.066   108217986.319 0  84325684.095 0        47.000  
        50.000                                                  
  21253704.160    21253700.426   111689008.575 0  87030383.661 0        48.000  
        46.000                                                  
  23252559.962    23252556.370   122192733.800 0  95215543.500 0        41.000  
        39.000                                                  
  24889325.709                   130794935.245 0                        29.000  
                                                                
  24213028.667                   127240258.980 0                        41.000  
                                                                
  24678158.191    24678153.438   129684024.512 0 101052487.593 0        42.000  
        41.000                                                  
  24242576.258    24242577.419   127395609.30710  99269314.000 0        38.000  
        39.000                                                  
  22281243.420    22281241.902   117088725.761 0  91237958.790 0        44.000  
        45.000                                                  
 22  1 14 11  0 10.0000000  0  0
 22  1 14 11  0 11.0010000  0  5E03E05E09E24E25
  25862914.494                   135910569.785 0                        45.000  
                  25862915.137   104139280.567          48.000  
  23389075.527                   122910441.424 0                        48.000  
                  23389076.010    94178135.818          54.000  
  23741248.113                   124761095.815 0                        44.000  
                  23741248.578    95596164.151          50.000  
  23640240.173                   124230344.911 0                        49.000  
                  23640238.243    95189498.321          53.000  
  25694777.727                   135027006.151 0                        46.000  
                  25694779.174   103462272.471          50.000  
 22  1 14 11  0 12.0010000  0 11G05G07G13G14G15G17G19G20G23G24G30
  22842225.779    22842222.598   120036684.958 0  93534724.006 0        46.000  
        44.000                                                  
  24320252.471    24320248.880   127803754.408 0  99587307.836 0        39.000  
        36.000                                                  
  20110232.823                   105680598.545 0                        49.000  
                                                                
  20593338.066    20593333.992   108218816.248 0  84326330.789 0        47.000  
        50.000                                                  
  21253309.862    21253306.056   111686936.233 0  87028768.849 0        48.000  
        46.000                                                  
  23252050.141    23252046.603   122190054.666 0  95213455.854 0        41.000  
        39.000                                                  
  24888652.190                   130791395.787 0                        29.000  
                                                                
  24213689.928                   127243733.992 0                        41.000  
                                                                
  24677707.713    24677702.977   129681657.049 0 101050642.816 0        42.000  
        41.000                                                  
  24241963.547    24241964.690   127392389.51610  99266805.097 0        38.000  
        39.000                                                  
  22281684.946    22281683.374   117091046.179 0  91239766.898 0        44.000  
        45.000                                                  
 22  1 14 11  0 11.0000000  0  0
 22  1 14 11  0 12.0010000  0  5E03E05E09E24E25
  25862475.487                   135908261.657 0                        45.000  
                  25862476.023   104137512.008          48.000  
  23389105.869                   122910600.462 0                        48.000  
                  23389106.262    94178257.671          54.000  
  23741723.680                   124763594.803 0                        44.000  
                  23741724.019    95598078.962          50.000  
  23640251.591                   124230404.043 0                        49.000  
                  23640249.394    95189543.628          53.000  
  25694314.848                   135024573.044 0                        46.000  
                  25694316.206   103460408.143          50.000  
 22  1 14 11  0 13.0010000  0 11G05G07G13G14G15G17G19G20G23G24G30
  22842769.712    22842766.424   120039543.064 0  93536951.102 0        46.000  
        44.000                                                  
  24320774.301    24320770.655   127806496.524 0  99589444.559 0        39.000  
        36.000                                                  
  20110138.868                   105680105.469 0                        49.000  
                                                                
  20593496.029    20593492.008   108219646.791 0  84326977.961 0        47.000  
        50.000                                                  
  21252915.547    21252911.901   111684864.415 0  87027154.439 0        48.000  
        46.000                                                  
  23251540.427    23251536.782   122187375.870 0  95211368.474 0        41.000  
        39.000                                                  
  24887978.992                   130787856.337 0                        28.000  
                                                                
  24214351.242                   127247209.036 0                        41.000  
                                                                
  24677257.252    24677252.571   129679290.093 0 101048798.438 0        42.000  
        41.000                                                  
  24241350.800    24241351.997   127389169.88910  99264296.292 0        38.000  
        39.000                                                  
  22282126.490    22282125.060   117093366.821 0  91241575.179 0        44.000  
        45.000                                                  
 22  1 14 11  0 12.0000000  0  0
 22  1 14 11  0 13.0010000  0  5E03E05E09E24E25
  25862036.177                   135905953.786 0                        45.000  
                  25862036.785   104135743.631          48.000  
  23389136.228                   122910759.938 0                        48.000  
                  23389136.693    94178379.865          54.000  
  23742199.335                   124766094.079 0                        44.000  
                  23742199.728    95599993.994          50.000  
  23640262.867                   124230463.592 0                        49.000  
                  23640260.848    95189589.256          53.000  
  25693851.968                   135022140.204 0                        46.000  
                  25693853.326   103458544.026          50.000  
 22  1 14 11  0 14.0010000  0 11G05G07G13G14G15G17G19G20G23G24G30
  22843313.734    22843310.304   120042401.639 0  93539178.552 0        46.000  
        44.000                                                  
  24321296.076    24321292.556   127809238.871 0  99591581.428 0        39.000  
        36.000                                                  
  20110045.288                   105679613.054 0                        49.000  
                                                                
  20593654.330    20593650.238   108220478.035 0  84327625.686 0        47.000  
        50.000                                                  
  21252521.481    21252517.764   111682793.229 0  87025540.532 0        48.000  
        46.000                                                  
  23251030.713    23251027.050   122184697.502 0  95209281.427 0        41.000  
        39.000                                                  
  24887306.331                   130784316.934 0                        28.000  
                                                                
  24215012.557                   127250684.233 0                        41.000  
                                                                
  24676806.953    24676802.254   129676923.760 0 101046954.553 0        42.000  
        41.000                                                  
  24240738.160    24240739.411   127385950.43810  99261787.638 0        38.000  
        39.000                                                  
  22282568.176    22282566.747   117095687.793 0  91243383.745 0        45.000  
        45.000                                                  
 22  1 14 11  0 13.0000000  0  0
 22  1 14 11  0 14.0010000  0  5E03E05E09E24E25
  25861597.136                   135903646.233 0                        45.000  
                  25861597.707   104133975.503          48.000  
  23389166.749                   122910919.935 0                        48.000  
                  23389167.106    94178502.469          54.000  
  23742675.223                   124768593.724 0                        44.000  
                  23742675.366    95601909.306          50.000  
  23640274.339                   124230523.640 0                        49.000  
                  23640272.194    95189635.267          53.000  
  25693389.161                   135019707.734 0                        46.000  
                  25693390.376   103456680.187          50.000  
 22  1 14 11  0 15.0010000  0 11G05G07G13G14G15G17G19G20G23G24G30
  22843857.864    22843854.362   120045260.637 0  93541406.340 0        46.000  
        44.000                                                  
  24321817.941    24321814.439   127811981.342 0  99593718.437 0        39.000  
        36.000                                                  
  20109951.869                   105679121.250 0                        49.000  
                                                                
  20593812.614    20593808.522   108221309.942 0  84328273.925 0        47.000  
        50.000                                                  
  21252127.469    21252123.717   111680722.626 0  87023927.073 0        48.000  
        46.000                                                  
  23250521.035    23250517.479   122182019.498 0  95207194.684 0        41.000  
        39.000                                                  
  24886630.399                   130780777.570 0                        28.000  
                                                                
  24215673.872                   127254159.523 0                        41.000  
                                                                
  24676356.672    24676352.008   129674557.969 0 101045111.066 0        42.000  
        40.000                                                  
  24240125.628    24240126.736   127382731.19310  99259279.129 0        38.000  
        39.000                                                  
  22283009.970    22283008.487   117098009.039 0  91245192.508 0        44.000  
        45.000                                                  
 22  1 14 11  0 14.0000000  0  0
 22  1 14 11  0 15.0010000  0  5E03E05E09E24E25
  25861157.986                   135901338.938 0                        45.000  
                  25861158.594   104132207.578          48.000  
  23389197.287                   122911080.420 0                        48.000  
                  23389197.555    94178625.432          54.000  
  23743150.950                   124771093.684 0                        44.000  
                  23743151.057    95603824.857          50.000  
  23640285.560                   124230584.139 0                        49.000  
                  23640283.702    95189681.630          53.000  
  25692926.353                   135017275.561 0                        46.000  
                  25692927.443   103454816.578          50.000  
 22  1 14 11  0 16.0010000  0 11G05G07G13G14G15G17G19G20G23G24G30
  22844402.012    22844398.473   120048119.852 0  93543634.302 0        46.000  
        44.000                                                  
  24322339.859    24322336.214   127814723.796 0  99595855.388 0        39.000  
        36.000                                                  
  20109858.378                   105678629.847 0                        49.000  
                                                                
  20593971.077    20593966.967   108222142.307 0  84328922.521 0        47.000  
        50.000                                                  
  21251733.600    21251729.705   111678652.364 0  87022313.879 0        48.000  
        46.000                                                  
  23250011.428    23250007.944   122179341.638 0  95205108.042 0        40.000  
        39.000                                                  
  24885956.630                   130777238.074 0                        28.000  
                                                                
  24216335.115                   127257634.706 0                        41.000  
                                                                
  24675906.604    24675901.869   129672192.537 0 101043267.868 0        42.000  
        40.000                                                  
  24239513.221    24239514.061   127379511.88610  99256770.557 0        38.000  
        38.000                                                  
  22283451.639    22283450.102   117100330.363 0  91247001.321 0        44.000  
        45.000                                                  
 22  1 14 11  0 15.0000000  0  0
 22  1 14 11  0 16.0010000  0  5E03E05E09E24E25
  25860719.016                   135899031.734 0                        45.000  
                  25860719.588   104130439.720          48.000  
  23389227.878                   122911241.187 0                        48.000  
                  23389228.218    94178748.612          54.000  
  23743626.605                   124773593.766 0                        44.000  
                  23743626.891    95605740.507          50.000  
  23640297.229                   124230644.894 0                        49.000  
                  23640295.228    95189728.176          53.000  
  25692463.653                   135014843.502 0                        46.000  
                  25692464.707   103452953.055          50.000  
 22  1 14 11  0 17.0010000  0 11G05G07G13G14G15G17G19G20G23G24G30
  22844946.123    22844942.710   120050979.352 0  93545862.497 0        46.000  
        44.000                                                  
  24322861.742    24322857.989   127817466.249 0  99597992.370 0        39.000  
        36.000                                                  
  20109764.959                   105678138.919 0                        49.000  
                                                                
  20594129.593    20594125.554   108222975.198 0  84329571.524 0        48.000  
        50.000                                                  
  21251339.767    21251335.907   111676582.554 0  87020701.043 0        48.000  
        46.000                                                  
  23249501.840    23249498.409   122176664.015 0  95203021.592 0        40.000  
        39.000                                                  
  24885284.522                   130773698.489 0                        28.000  
                                                                
  24216996.376                   127261109.841 0                        41.000  
                                                                
  24675456.591    24675451.641   129669827.530 0 101041425.026 0        42.000  
        40.000                                                  
  24238900.599    24238901.475   127376292.57610  99254262.047 0        38.000  
        38.000                                                  
  22283893.397    22283891.949   117102651.838 0  91248810.264 0        44.000  
        45.000                                                  
 22  1 14 11  0 16.0000000  0  0
 22  1 14 11  0 17.0010000  0  5E03E05E09E24E25
  25860280.224                   135896724.667 0                        45.000  
                  25860280.546   104128671.963          48.000  
  23389258.399                   122911402.294 0                        48.000  
                  23389258.917    94178872.067          54.000  
  23744102.332                   124776094.031 0                        44.000  
                  23744102.618    95607656.292          50.000  
  23640308.719                   124230705.963 0                        49.000  
                  23640306.950    95189774.978          53.000  
  25692000.845                   135012411.616 0                        46.000  
                  25692001.971   103451089.668          50.000  
 22  1 14 11  0 18.0010000  0 11G05G07G13G14G15G17G19G20G23G24G30
  22845490.414    22845486.840   120053839.230 0  93548090.953 0        46.000  
        44.000                                                  
  24323383.571    24323379.872   127820208.808 0  99600129.447 0        39.000  
        36.000                                                  
  20109671.718                   105677648.532 0                        49.000  
                                                                
  20594288.270    20594284.142   108223808.666 0  84330220.985 0        47.000  
        50.000                                                  
  21250945.952    21250942.074   111674513.236 0  87019088.594 0        48.000  
        46.000                                                  
  23248992.358    23248988.891   122173986.718 0  95200935.359 0        40.000  
        39.000                                                  
  24884609.949                   130770158.814 0                        29.000  
                                                                
  24217657.691                   127264585.026 0                        41.000  
                                                                
  24675006.685    24675001.807   129667463.010 0 101039582.543 0        42.000  
        40.000                                                  
  24238288.067    24238288.711   127373073.39210  99251753.567 0        37.000  
        39.000                                                  
  22284335.262    22284333.689   117104973.509 0  91250619.368 0        44.000  
        45.000                                                  
 22  1 14 11  0 17.0000000  0  0
 22  1 14 11  0 18.0010000  0  5E03E05E09E24E25
  25859841.129                   135894417.795 0                        45.000  
                  25859841.576   104126904.375          48.000  
  23389289.223                   122911563.812 0                        48.000  
                  23389289.634    94178995.832          54.000  
  23744578.184                   124778594.551 0                        44.000  
                  23744578.435    95609572.270          50.000  
  23640320.548                   124230767.425 0                        49.000  
                  23640318.565    95189822.072          53.000  
  25691538.109                   135009979.962 0                        46.000  
                  25691539.199   103449226.466          50.000  
 22  1 14 11  0 19.0010000  0 11G05G07G13G14G15G17G19G20G23G24G30
  22846034.651    22846031.005   120056699.188 0  93550319.498 0        46.000  
        44.000                                                  
  24323905.400    24323901.683   127822951.179 0  99602266.343 0        39.000  
        36.000                                                  
  20109578.495                   105677158.423 0                        49.000  
                                                                
  20594447.018    20594442.855   108224642.475 0  84330870.704 0        48.000  
        50.000                                                  
  21250552.208    21250548.348   111672444.177 0  87017476.338 0        48.000  
        46.000                                                  
  23248482.823    23248479.410   122171309.448 0  95198849.195 0        40.000  
        39.000                                                  
  24883939.110                   130766618.868 0                        29.000  
                                                                
  24218318.916                   127268059.991 0                        41.000  
                                                                
  24674556.779    24674551.882   129665098.728 0 101037740.236 0        42.000  
        40.000                                                  
  24237675.321    24237676.160   127369854.04110  99249244.986 0        37.000  
        39.000                                                  
  22284777.109    22284775.537   117107295.151 0  91252428.434 0        44.000  
        45.000                                                  
 22  1 14 11  0 18.0000000  0  0
 22  1 14 11  0 19.0010000  0  5E03E05E09E24E25
  25859402.176                   135892110.881 0                        45.000  
                  25859402.480   104125136.743          48.000  
  23389319.922                   122911725.488 0                        48.000  
                  23389320.315    94179119.709          54.000  
  23745054.108                   124781095.053 0                        45.000  
                  23745054.376    95611488.246          50.000  
  23640332.288                   124230829.013 0                        49.000  
                  23640330.251    95189869.259          53.000  
  25691075.319                   135007548.307 0                        46.000  
                  25691076.498   103447363.246          50.000  
 22  1 14 11  0 20.0010000  0 11G05G07G13G14G15G17G19G20G23G24G30
  22846578.995    22846575.403   120059559.491 0  93552548.300 0        46.000  
        43.000                                                  
  24324427.265    24324423.512   127825693.624 0  99604403.320 0        39.000  
        36.000                                                  
  20109485.344                   105676668.843 0                        49.000  
                                                                
  20594605.856    20594601.639   108225476.859 0  84331520.871 0        48.000  
        50.000                                                  
  21250158.714    21250154.747   111670375.611 0  87015864.466 0        48.000  
        46.000                                                  
  23247973.323    23247969.982   122168632.456 0  95196763.207 0        40.000  
        39.000                                                  
  24883264.108                   130763078.961 0                        29.000  
                                                                
  24218980.213                   127271534.935 0                        40.000  
                                                                
  24674106.979    24674102.030   129662734.930 0 101035898.315 0        42.000  
        40.000                                                  
  24237062.663    24237063.485   127366634.72510  99246736.445 0        37.000  
        39.000                                                  
  22285218.921    22285217.491   117109616.986 0  91254237.643 0        44.000  
        45.000                                                  
 22  1 14 11  0 19.0000000  0  0
 22  1 14 11  0 20.0010000  0  5E03E05E09E24E25
  25858963.295                   135889804.164 0                        45.000  
                  25858963.492   104123369.256          48.000  
  23389350.853                   122911887.579 0                        48.000  
                  23389351.282    94179243.901          54.000  
  23745529.871                   124783595.804 0                        45.000  
                  23745530.085    95613404.409          50.000  
  23640344.064                   124230890.977 0                        49.000  
                  23640342.044    95189916.733          53.000  
  25690612.565                   135005116.873 0                        46.000  
                  25690613.780   103445500.204          50.000  
 22  1 14 11  0 21.0010000  0 11G05G07G13G14G15G17G19G20G23G24G30
  22847123.482    22847119.872   120062420.801 0  93554777.892 0        46.000  
        44.000                                                  
  24324949.291    24324945.592   127828436.834 0  99606540.861 0        39.000  
        36.000                                                  
  20109392.497                   105676180.457 0                        49.000  
                                                                
  20594764.854    20594760.727   108226312.487 0  84332172.007 0        48.000  
        50.000                                                  
  21249765.131    21249761.360   111668308.196 0  87014253.493 0        48.000  
        46.000                                                  
  23247464.038    23247460.768   122165956.409 0  95194677.985 0        41.000  
        39.000                                                  
  24882589.892                   130759539.576 0                        28.000  
                                                                
  24219641.545                   127275010.587 0                        40.000  
                                                                
  24673657.431    24673652.392   129660372.262 0 101034057.273 0        42.000  
        40.000                                                  
  24236450.167    24236450.989   127363416.18110  99244228.486 0        38.000  
        38.000                                                  
  22285660.875    22285659.339   117111939.681 0  91256047.542 0        44.000  
        45.000                                                  
 22  1 14 11  0 20.0000000  0  0
 22  1 14 11  0 21.0010000  0  5E03E05E09E24E25
  25858524.521                   135887498.307 0                        45.000  
                  25858524.718   104121602.430          48.000  
  23389381.749                   122912050.719 0                        48.000  
                  23389382.303    94179368.907          54.000  
  23746006.009                   124786097.454 0                        45.000  
                  23746006.205    95615321.259          50.000  
  23640355.982                   124230953.974 0                        49.000  
                  23640354.088    95189965.010          53.000  
  25690150.007                   135002686.340 0                        46.000  
                  25690151.312   103443637.854          50.000  
 22  1 14 11  0 22.0010000  0 11G05G07G13G14G15G17G19G20G23G24G30
  22847667.969    22847664.448   120065282.399 0  93557007.711 0        46.000  
        44.000                                                  
  24325471.316    24325467.564   127831180.044 0  99608678.451 0        39.000  
        36.000                                                  
  20109299.489                   105675692.534 0                        49.000  
                                                                
  20594923.996    20594919.814   108227148.635 0  84332823.553 0        48.000  
        50.000                                                  
  21249371.851    21249368.027   111666241.214 0  87012642.874 0        48.000  
        46.000                                                  
  23246954.825    23246951.591   122163280.586 0  95192592.928 0        41.000  
        39.000                                                  
  24881917.856                   130756000.100 0                        28.000  
                                                                
  24220302.914                   127278486.189 0                        40.000  
                                                                
  24673208.025    24673202.986   129658010.025 0 101032216.562 0        42.000  
        40.000                                                  
  24235837.670    24235838.510   127360197.68310  99241720.573 0        37.000  
        39.000                                                  
  22286102.883    22286101.329   117114262.532 0  91257857.544 0        44.000  
        45.000                                                  
 22  1 14 11  0 21.0000000  0  0
 22  1 14 11  0 22.0010000  0  5E03E05E09E24E25
  25858085.658                   135885192.587 0                        45.000  
                  25858085.944   104119835.708          48.000  
  23389412.894                   122912214.206 0                        48.000  
                  23389413.323    94179494.183          54.000  
  23746482.129                   124788599.288 0                        45.000  
                  23746482.236    95617238.247          50.000  
  23640367.865                   124231017.287 0                        49.000  
                  23640366.078    95190013.525          53.000  
  25689687.503                   135000255.971 0                        46.000  
                  25689688.736   103441775.626          50.000  
 22  1 14 11  0 23.0010000  0 11G05G07G13G14G15G17G19G20G23G24G30
  22848212.527    22848208.900   120068143.918 0  93559237.465 0        46.000  
        44.000                                                  
  24325993.324    24325989.536   127833922.917 0  99610815.766 0        39.000  
        36.000                                                  
  20109206.713                   105675204.720 0                        49.000  
                                                                
  20595083.262    20595078.902   108227984.944 0  84333475.225 0        48.000  
        50.000                                                  
  21248978.626    21248974.730   111664174.315 0  87011032.296 0        48.000  
        46.000                                                  
  23246445.647    23246442.395   122160604.630 0  95190507.783 0        40.000  
        39.000                                                  
  24881239.958                   130752460.204 0                        28.000  
                                                                
  24220964.246                   127281961.392 0                        40.000  
                                                                
  24672758.512    24672753.437   129655647.826 0 101030375.917 0        42.000  
        40.000                                                  
  24235225.084    24235225.978   127356978.80510  99239212.374 0        37.000  
        39.000                                                  
  22286544.856    22286543.194   117116585.136 0  91259667.380 0        44.000  
        45.000                                                  
 22  1 14 11  0 22.0000000  0  0
 22  1 14 11  0 23.0010000  0  5E03E05E09E24E25
  25857646.884                   135882886.654 0                        45.000  
                  25857647.152   104118068.828          48.000  
  23389444.004                   122912377.678 0                        48.000  
                  23389444.505    94179619.439          54.000  
  23746958.267                   124791100.953 0                        45.000  
                  23746958.303    95619155.100          49.000  
  23640380.105                   124231080.554 0                        49.000  
                  23640378.193    95190062.007          53.000  
  25689225.107                   134997825.418 0                        46.000  
                  25689226.232   103439913.262          50.000  
 22  1 14 11  0 24.0010000  0 11G05G07G13G14G15G17G19G20G23G24G30
  22848757.032    22848753.494   120071005.639 0  93561467.383 0        46.000  
        44.000                                                  
  24326515.314    24326511.436   127836665.685 0  99612952.973 0        39.000  
        36.000                                                  
  20109113.865                   105674717.285 0                        49.000  
                                                                
  20595242.440    20595238.187   108228821.670 0  84334127.219 0        48.000  
        50.000                                                  
  21248585.114    21248581.505   111662107.732 0  87009421.975 0        48.000  
        46.000                                                  
  23245936.505    23245933.146   122157928.803 0  95188422.719 0        40.000  
        39.000                                                  
  24880566.028                   130748920.065 0                        28.000  
                                                                
  24221625.471                   127285436.459 0                        40.000  
                                                                
  24672309.016    24672303.906   129653285.968 0 101028535.497 0        42.000  
        40.000                                                  
  24234612.642    24234613.410   127353759.87310  99236704.113 0        37.000  
        38.000                                                  
  22286986.900    22286985.184   117118907.814 0  91261477.247 0        44.000  
        45.000                                                  
 22  1 14 11  0 23.0000000  0  0
 22  1 14 11  0 24.0010000  0  5E03E05E09E24E25
  25857208.164                   135880580.744 0                        45.000  
                  25857208.378   104116301.953          48.000  
  23389475.025                   122912541.394 0                        48.000  
                  23389475.668    94179744.881          54.000  
  23747434.333                   124793602.693 0                        45.000  
                  23747434.387    95621072.014          49.000  
  23640392.096                   124231144.044 0                        49.000  
                  23640390.255    95190110.650          53.000  
  25688762.495                   134995394.943 0                        46.000  
                  25688763.728   103438050.955          50.000  
 22  1 14 11  0 25.0010000  0 11G05G07G13G14G15G17G19G20G23G24G30
  22849301.662    22849298.106   120073867.542 0  93563697.423 0        46.000  
        44.000                                                  
  24327037.232    24327033.355   127839408.417 0  99615090.179 0        39.000  
        36.000                                                  
  20109021.196                   105674230.225 0                        49.000  
                                                                
  20595401.760    20595397.400   108229658.833 0  84334779.551 0        48.000  
        50.000                                                  
  21248191.942    21248188.332   111660041.508 0  87007811.925 0        48.000  
        46.000                                                  
  23245427.202    23245423.914   122155253.120 0  95186337.760 0        40.000  
        39.000                                                  
  24879894.600                   130745379.741 0                        28.000  
                                                                
  24222286.697                   127288911.369 0                        40.000  
                                                                
  24671859.807    24671854.518   129650924.432 0 101026695.342 0        42.000  
        40.000                                                  
  24234000.217    24234000.806   127350540.87410  99234195.816 0        37.000  
        38.000                                                  
  22287428.854    22287427.228   117121230.532 0  91263287.164 0        44.000  
        45.000                                                  
 22  1 14 11  0 24.0000000  0  0
 22  1 14 11  0 25.0010000  0  5E03E05E09E24E25
  25856769.426                   135878274.895 0                        45.000  
                  25856769.587   104114535.138          48.000  
  23389506.367                   122912705.362 0                        48.000  
                  23389506.850    94179870.522          54.000  
  23747910.382                   124796104.530 0                        45.000  
                  23747910.453    95622989.004          50.000  
  23640404.229                   124231207.762 0                        49.000  
                  23640402.352    95190159.474          53.000  
  25688300.009                   134992964.542 0                        46.000  
                  25688301.278   103436188.709          50.000  
 22  1 14 11  0 26.0010000  0 11G05G07G13G14G15G17G19G20G23G24G30
  22849846.310    22849842.825   120076730.434 0  93565928.255 0        46.000  
        44.000                                                  
  24327559.294    24327555.452   127842151.856 0  99617227.905 0        39.000  
        36.000                                                  
  20108928.635                   105673744.336 0                        49.000  
                                                                
  20595561.330    20595556.738   108230497.207 0  84335432.828 0        48.000  
        50.000                                                  
  21247799.074    21247795.464   111657976.422 0  87006202.767 0        48.000  
        46.000                                                  
  23244918.096    23244914.879   122152578.356 0  95184253.535 0        41.000  
        39.000                                                  
  24879222.188                   130741840.048 0                        28.000  
                                                                
  24222948.047                   127292386.953 0                        40.000  
                                                                
  24671410.705    24671405.344   129648564.041 0 101024856.078 0        42.000  
        40.000                                                  
  24233387.774    24233388.435   127347322.58610  99231688.043 0        37.000  
        38.000                                                  
  22287870.916    22287869.469   117123554.096 0  91265097.724 0        44.000  
        45.000                                                  
 22  1 14 11  0 25.0000000  0  0
 22  1 14 11  0 26.0010000  0  5E03E05E09E24E25
  25856330.759                   135875969.880 0                        45.000  
                  25856330.974   104112768.951          48.000  
  23389537.656                   122912870.375 0                        48.000  
                  23389538.228    94179996.958          54.000  
  23748386.699                   124798607.233 0                        45.000  
                  23748386.806    95624906.661          50.000  
  23640416.487                   124231272.485 0                        49.000  
                  23640414.771    95190209.073          53.000  
  25687837.720                   134990535.027 0                        46.000  
                  25687838.935   103434327.132          50.000  
 22  1 14 11  0 27.0010000  0 11G05G07G13G14G15G17G19G20G23G24G30
  22850391.154    22850387.723   120079593.499 0  93568159.210 0        46.000  
        44.000                                                  
  24328081.373    24328077.567   127844895.207 0  99619365.584 0        39.000  
        36.000                                                  
  20108836.234                   105673258.820 0                        49.000  
                                                                
  20595721.026    20595716.344   108231336.011 0  84336086.443 0        48.000  
        50.000                                                  
  21247406.152    21247402.542   111655911.665 0  87004593.880 0        48.000  
        46.000                                                  
  23244409.061    23244405.880   122149903.729 0  95182169.417 0        41.000  
        39.000                                                  
  24878550.438                   130738300.208 0                        28.000  
                                                                
  24223609.469                   127295862.396 0                        40.000  
                                                                
  24670961.620    24670956.242   129646203.944 0 101023017.036 0        42.000  
        40.000                                                  
  24232775.456    24232775.938   127344104.20910  99229180.244 0        37.000  
        38.000                                                  
  22288313.156    22288311.620   117125877.683 0  91266908.316 0        44.000  
        45.000                                                  
 22  1 14 11  0 26.0000000  0  0
 22  1 14 11  0 27.0010000  0  5E03E05E09E24E25
  25855892.289                   135873664.888 0                        45.000  
                  25855892.271   104111002.802          48.000  
  23389569.302                   122913035.632 0                        48.000  
                  23389569.695    94180123.585          54.000  
  23748862.926                   124801110.025 0                        45.000  
                  23748862.980    95626824.396          50.000  
  23640428.941                   124231337.427 0                        49.000  
                  23640426.976    95190258.829          53.000  
  25687375.609                   134988105.568 0                        46.000  
                  25687376.663   103432465.605          50.000  
 22  1 14 11  0 28.0010000  0 11G05G07G13G14G15G17G19G20G23G24G30
  22850936.267    22850932.854   120082457.837 0  93570391.167 0        46.000  
        44.000                                                  
  24328603.684    24328599.735   127847639.574 0  99621504.058 0        39.000  
        36.000                                                  
  20108744.137                   105672774.762 0                        49.000  
                                                                
  20595880.918    20595876.182   108232176.316 0  84336741.227 0        48.000  
        50.000                                                  
  21247013.480    21247009.924   111653848.340 0  87002986.091 0        48.000  
        46.000                                                  
  23243900.419    23243897.131   122147230.321 0  95180086.223 0        41.000  
        39.000                                                  
  24877877.348                   130734761.129 0                        28.000  
                                                                
  24224271.052                   127299338.793 0                        40.000  
                                                                
  24670512.804    24670507.461   129643845.261 0 101021179.113 0        42.000  
        40.000                                                  
  24232163.102    24232163.620   127340886.90610  99226673.241 0        37.000  
        38.000                                                  
  22288755.522    22288754.003   117128202.421 0  91268719.800 0        44.000  
        45.000                                                  
 22  1 14 11  0 27.0000000  0  0
 22  1 14 11  0 28.0010000  0  5E03E05E09E24E25
  25855453.891                   135871361.050 0                        45.000  
                  25855453.908   104109237.524          48.000  
  23389600.930                   122913202.223 0                        48.000  
                  23389601.377    94180251.235          54.000  
  23749339.368                   124803614.004 0                        45.000  
                  23749339.564    95628743.020          49.000  
  23640441.450                   124231403.684 0                        49.000  
                  23640439.627    95190309.600          53.000  
  25686913.570                   134985677.274 0                        46.000  
                  25686914.517   103430604.978          50.000  
 22  1 14 11  0 29.0010000  0 11G05G07G13G14G15G17G19G20G23G24G30
  22851481.272    22851477.841   120085321.642 0  93572622.684 0        46.000  
        44.000                                                  
  24329125.835    24329121.850   127850383.107 0  99623641.860 0        39.000  
        36.000                                                  
  20108652.022                   105672290.323 0                        49.000  
                                                                
  20596040.738    20596036.074   108233016.296 0  84337395.759 0        48.000  
        50.000                                                  
  21246620.915    21246617.234   111651784.589 0  87001377.974 0        48.000  
        46.000                                                  
  23243391.509    23243388.364   122144556.281 0  95178002.581 0        41.000  
        39.000                                                  
  24877202.435                   130731221.133 0                        27.000  
                                                                
  24224932.402                   127302814.295 0                        40.000  
                                                                
  24670063.845    24670058.484   129641486.158 0 101019340.853 0        42.000  
        40.000                                                  
  24231550.641    24231551.249   127337668.72610  99224165.584 0        37.000  
        38.000                                                  
  22289197.709    22289196.190   117130526.442 0  91270530.726 0        44.000  
        45.000                                                  
 22  1 14 11  0 28.0000000  0  0
 22  1 14 11  0 29.0010000  0  5E03E05E09E24E25
  25855015.367                   135869056.475 0                        45.000  
                  25855015.295   104107471.689          48.000  
  23389632.487                   122913368.301 0                        48.000  
                  23389632.987    94180378.492          54.000  
  23749815.774                   124806117.303 0                        45.000  
                  23749815.952    95630661.126          50.000  
  23640454.047                   124231469.401 0                        49.000  
                  23640452.189    95190359.957          53.000  
  25686451.334                   134983248.316 0                        46.000  
                  25686452.245   103428743.824          50.000  
 22  1 14 11  0 30.0010000  0 11G05G07G13G14G15G17G19G20G23G24G30
  22852026.170    22852022.721   120088185.206 0  93574854.033 0        46.000  
        44.000                                                  
  24329647.861    24329643.805   127853126.162 0  99625779.315 0        39.000  
        36.000                                                  
  20108559.854                   105671805.860 0                        49.000  
                                                                
  20596200.434    20596195.913   108233856.291 0  84338050.298 0        48.000  
        50.000                                                  
  21246228.118    21246224.545   111649720.780 0  86999769.825 0        48.000  
        46.000                                                  
  23242882.600    23242879.383   122141881.986 0  95175918.699 0        41.000  
        39.000                                                  
  24876529.773                   130727680.607 0                        28.000  
                                                                
  24225593.717                   127306289.248 0                        40.000  
                                                                
  24669614.904    24669609.561   129639126.970 0 101017502.516 0        42.000  
        40.000                                                  
  24230938.199    24230938.753   127334450.07910  99221657.566 0        37.000  
        38.000                                                  
  22289639.896    22289638.341   117132850.106 0  91272341.366 0        44.000  
        45.000                                                  
 22  1 14 11  0 29.0000000  0  0
 22  1 14 11  0 30.0010000  0  5E03E05E09E24E25
  25854576.790                   135866751.571 0                        45.000  
                  25854576.611   104105705.583          48.000  
  23389664.043                   122913534.236 0                        48.000  
                  23389664.490    94180505.637          54.000  
  23750292.090                   124808620.290 0                        45.000  
                  23750292.180    95632579.004          50.000  
  23640466.377                   124231534.936 0                        49.000  
                  23640464.662    95190410.167          53.000  
  25685988.812                   134980819.018 0                        46.000  
                  25685989.884   103426882.421          50.000  
 22  1 14 11  0 31.0010000  0 11G05G07G13G14G15G17G19G20G23G24G30
  22852571.068    22852567.762   120091049.160 0  93577085.685 0        46.000  
        44.000                                                  
  24330169.779    24330165.777   127855869.352 0  99627916.868 0        39.000  
        36.000                                                  
  20108467.793                   105671321.967 0                        49.000  
                                                                
  20596360.433    20596355.859   108234696.917 0  84338705.331 0        48.000  
        50.000                                                  
  21245835.339    21245831.819   111647657.514 0  86998162.078 0        48.000  
        46.000                                                  
  23242373.690    23242370.527   122139208.023 0  95173835.077 0        41.000  
        39.000                                                  
  24875855.789                   130724140.066 0                        27.000  
                                                                
  24226255.103                   127309764.272 0                        40.000  
                                                                
  24669166.016    24669160.709   129636768.307 0 101015664.613 0        42.000  
        40.000                                                  
  24230325.684    24230326.256   127331231.56410  99219149.626 0        37.000  
        38.000                                                  
  22290082.065    22290080.510   117135174.027 0  91274152.214 0        44.000  
        45.000                                                  
 22  1 14 11  0 30.0000000  0  0
 22  1 14 11  0 31.0010000  0  5E03E05E09E24E25
  25854138.284                   135864446.879 0                        45.000  
                  25854138.105   104103939.659          48.000  
  23389695.725                   122913700.613 0                        48.000  
                  23389696.243    94180633.116          54.000  
  23750768.461                   124811123.551 0                        45.000  
                  23750768.443    95634497.089          49.000  
  23640479.189                   124231600.893 0                        49.000  
                  23640477.116    95190460.708          53.000  
  25685526.719                   134978390.002 0                        46.000  
                  25685527.684   103425021.236          50.000  
 22  1 14 11  0 32.0010000  0 11G05G07G13G14G15G17G19G20G23G24G30
  22853116.162    22853112.856   120093913.678 0  93579317.782 0        46.000  
        44.000                                                  
  24330691.769    24330687.820   127858612.815 0  99630054.599 0        39.000  
        36.000                                                  
  20108375.928                   105670838.825 0                        49.000  
                                                                
  20596520.593    20596515.893   108235538.332 0  84339360.977 0        48.000  
        50.000                                                  
  21245442.900    21245439.398   111645594.949 0  86996554.884 0        48.000  
        46.000                                                  
  23241864.959    23241861.760   122136534.556 0  95171751.872 0        41.000  
        39.000                                                  
  24875182.860                   130720599.715 0                        27.000  
                                                                
  24226916.400                   127313239.522 0                        40.000  
                                                                
  24668717.253    24668712.036   129634410.340 0 101013827.245 0        42.000  
        40.000                                                  
  24229713.331    24229713.777   127328013.34310  99216641.928 0        37.000  
        38.000                                                  
  22290524.466    22290522.911   117137498.342 0  91275963.369 0        44.000  
        45.000                                                  
 22  1 14 11  0 31.0000000  0  0
 22  1 14 11  0 32.0010000  0  5E03E05E09E24E25
  25853699.724                   135862142.618 0                        45.000  
                  25853699.528   104102174.061          48.000  
  23389727.496                   122913867.612 0                        48.000  
                  23389727.997    94180761.081          53.000  
  23751244.706                   124813627.269 0                        45.000  
                  23751245.010    95636415.522          50.000  
  23640491.751                   124231667.438 0                        49.000  
                  23640489.803    95190511.701          53.000  
  25685064.644                   134975961.438 0                        46.000  
                  25685065.609   103423160.392          50.000  
 22  1 14 11  0 33.0010000  0 11G05G07G13G14G15G17G19G20G23G24G30
  22853661.471    22853658.148   120096779.005 0  93581550.497 0        46.000  
        44.000                                                  
  24331213.956    24331210.024   127861356.841 0  99632192.831 0        39.000  
        36.000                                                  
  20108284.117                   105670356.683 0                        49.000  
                                                                
  20596680.825    20596676.232   108236380.803 0  84340017.457 0        48.000  
        50.000                                                  
  21245050.603    21245047.030   111643533.355 0  86994948.454 0        48.000  
        46.000                                                  
  23241356.281    23241353.172   122133861.848 0  95169669.238 0        41.000  
        39.000                                                  
  24874510.466                   130717059.782 0                        27.000  
                                                                
  24227577.750                   127316715.267 0                        40.000  
                                                                
  24668268.741    24668263.523   129632053.353 0 101011990.622 0        42.000  
        40.000                                                  
  24229101.138    24229101.460   127324795.69110  99214134.659 0        38.000  
        38.000                                                  
  22290966.957    22290965.348   117139823.338 0  91277775.054 0        44.000  
        45.000                                                  
 22  1 14 11  0 32.0000000  0  0
 22  1 14 11  0 33.0010000  0  5E03E05E09E24E25
  25853261.344                   135859839.029 0                        45.000  
                  25853261.183   104100408.971          48.000  
  23389759.482                   122914035.492 0                        48.000  
                  23389759.946    94180889.712          53.000  
  23751721.273                   124816131.713 0                        45.000  
                  23751721.559    95638334.513          49.000  
  23640504.474                   124231734.836 0                        49.000  
                  23640502.687    95190563.335          53.000  
  25684602.676                   134973533.587 0                        46.000  
                  25684603.623   103421300.086          50.000  
 22  1 14 11  0 34.0010000  0 11G05G07G13G14G15G17G19G20G23G24G30
  22854207.012    22854203.474   120099644.872 0  93583783.641 0        46.000  
        44.000                                                  
  24331736.267    24331732.229   127864101.128 0  99634331.205 0        39.000  
        36.000                                                  
  20108192.538                   105669875.260 0                        49.000  
                                                                
  20596841.396    20596836.553   108237224.043 0  84340674.518 0        48.000  
        50.000                                                  
  21244658.343    21244654.805   111641472.439 0  86993342.548 0        48.000  
        46.000                                                  
  23240847.961    23240844.673   122131189.648 0  95167586.989 0        41.000  
        39.000                                                  
  24873836.501                   130713519.930 0                        27.000  
                                                                
  24228239.172                   127320191.218 0                        40.000  
                                                                
  24667820.371    24667815.207   129629697.008 0 101010154.510 0        43.000  
        41.000                                                  
  24228488.963    24228489.285   127321578.29410  99211627.604 0        37.000  
        38.000                                                  
  22291409.447    22291407.875   117142148.733 0  91279587.054 0        44.000  
        45.000                                                  
 22  1 14 11  0 33.0000000  0  0
 22  1 14 11  0 34.0010000  0  5E03E05E09E24E25
  25852823.106                   135857535.825 0                        45.000  
                  25852822.873   104098644.176          48.000  
  23389791.610                   122914203.956 0                        48.000  
                  23389791.950    94181018.797          53.000  
  23752197.893                   124818636.587 0                        45.000  
                  23752198.197    95640253.828          49.000  
  23640517.429                   124231802.792 0                        49.000  
                  23640515.606    95190615.412          53.000  
  25684140.744                   134971106.138 0                        46.000  
                  25684141.745   103419440.102          50.000  
 22  1 14 11  0 35.0010000  0 11G05G07G13G14G15G17G19G20G23G24G30
  22854752.339    22854748.712   120102510.338 0  93586016.460 0        46.000  
        44.000                                                  
  24332258.311    24332254.362   127866844.729 0  99636469.103 0        39.000  
        36.000                                                  
  20108100.960                   105669393.615 0                        49.000  
                                                                
  20597001.967    20596996.856   108238067.107 0  84341331.456 0        48.000  
        50.000                                                  
  21244266.010    21244262.669   111639411.285 0  86991736.452 0        48.000  
        46.000                                                  
  23240339.444    23240336.049   122128516.929 0  95165504.369 0        41.000  
        39.000                                                  
  24873161.945                   130709979.383 0                        26.000  
                                                                
  24228900.505                   127323666.424 0                        40.000  
                                                                
  24667371.948    24667366.766   129627340.411 0 101008318.207 0        42.000  
        41.000                                                  
  24227876.538    24227876.967   127318360.23110  99209120.016 0        38.000  
        38.000                                                  
  22291851.902    22291850.222   117144473.579 0  91281398.609 0        44.000  
        45.000                                                  
 22  1 14 11  0 34.0000000  0  0
 22  1 14 11  0 35.0010000  0  5E03E05E09E24E25
  25852384.779                   135855232.071 0                        45.000  
                  25852384.421   104096878.967          48.000  
  23389823.507                   122914372.076 0                        48.000  
                  23389824.007    94181147.616          53.000  
  23752674.424                   124821140.945 0                        45.000  
                  23752674.853    95642172.754          49.000  
  23640530.330                   124231870.367 0                        49.000  
                  23640528.436    95190667.186          53.000  
  25683678.794                   134968678.175 0                        46.000  
                  25683679.545   103417579.719          50.000  
 22  1 14 11  0 36.0010000  0 11G05G07G13G14G15G17G19G20G23G24G30
  22855297.773    22855294.128   120105376.396 0  93588249.759 0        46.000  
        44.000                                                  
  24332780.443    24332776.584   127869588.693 0  99638607.257 0        39.000  
        36.000                                                  
  20108009.470                   105668912.761 0                        49.000  
                                                                
  20597162.627    20597157.427   108238911.002 0  84341989.041 0        48.000  
        50.000                                                  
  21243873.982    21243870.605   111637350.874 0  86990130.932 0        48.000  
        46.000                                                  
  23239830.928    23239827.568   122125844.783 0  95163422.167 0        41.000  
        39.000                                                  
  24872487.479                   130706438.989 0                        26.000  
                                                                
  24229561.837                   127327141.897 0                        40.000  
                                                                
  24666923.668    24666918.575   129624984.533 0 101006482.474 0        42.000  
        41.000                                                  
  24227264.345    24227264.756   127315142.51210  99206612.722 0        38.000  
        38.000                                                  
  22292294.375    22292292.641   117146798.874 0  91283210.534 0        44.000  
        45.000                                                  
 22  1 14 11  0 35.0000000  0  0
 22  1 14 11  0 36.0010000  0  5E03E05E09E24E25
  25851946.541                   135852928.761 0                        45.000  
                  25851946.201   104095114.088          48.000  
  23389855.796                   122914540.845 0                        48.000  
                  23389856.046    94181276.937          53.000  
  23753150.991                   124823645.790 0                        45.000  
                  23753151.420    95644092.056          49.000  
  23640543.339                   124231938.584 0                        49.000  
                  23640541.409    95190719.463          53.000  
  25683216.898                   134966250.703 0                        46.000  
                  25683217.684   103415719.715          50.000  
 22  1 14 11  0 37.0010000  0 11G05G07G13G14G15G17G19G20G23G24G30
  22855843.207    22855839.598   120108242.654 0  93590483.204 0        46.000  
        44.000                                                  
  24333302.576    24333298.681   127872332.593 0  99640745.331 0        39.000  
        36.000                                                  
  20107918.052                   105668432.295 0                        49.000  
                                                                
  20597323.270    20597317.998   108239755.345 0  84342646.968 0        48.000  
        50.000                                                  
  21243481.918    21243478.612   111635290.815 0  86988525.705 0        48.000  
        46.000                                                  
  23239322.411    23239319.123   122123172.779 0  95161340.108 0        41.000  
        39.000                                                  
  24871815.210                   130702898.398 0                        26.000  
                                                                
  24230223.188                   127330617.270 0                        40.000  
                                                                
  24666475.441    24666470.367   129622629.019 0 101004646.991 0        42.000  
        41.000                                                  
  24226652.063    24226652.474   127311924.72210  99204105.344 0        37.000  
        38.000                                                  
  22292736.848    22292735.079   117149124.237 0  91285022.500 0        44.000  
        45.000                                                  
 22  1 14 11  0 36.0000000  0  0
 22  1 14 11  0 37.0010000  0  5E03E05E09E24E25
  25851508.214                   135850625.518 0                        45.000  
                  25851507.838   104093349.273          48.000  
  23389887.781                   122914709.896 0                        48.000  
                  23389888.264    94181406.467          54.000  
  23753627.719                   124826150.762 0                        45.000  
                  23753628.183    95646011.445          49.000  
  23640556.205                   124232007.042 0                        49.000  
                  23640554.418    95190771.920          53.000  
  25682754.930                   134963823.333 0                        46.000  
                  25682755.841   103413859.782          50.000  
 22  1 14 11  0 38.0010000  0 11G05G07G13G14G15G17G19G20G23G24G30
  22856388.749    22856385.068   120111109.202 0  93592716.876 0        46.000  
        44.000                                                  
  24333824.709    24333820.778   127875076.520 0  99642883.472 0        39.000  
        36.000                                                  
  20107826.777                   105667952.316 0                        49.000  
                                                                
  20597484.019    20597478.766   108240600.220 0  84343305.317 0        48.000  
        49.000                                                  
  21243089.996    21243086.691   111633231.228 0  86986920.823 0        48.000  
        46.000                                                  
  23238813.930    23238810.714   122120501.029 0  95159258.219 0        41.000  
        39.000                                                  
  24871142.942                   130699357.736 0                        26.000  
                                                                
  24230884.556                   127334092.607 0                        40.000  
                                                                
  24666027.340    24666022.265   129620273.937 0 101002811.854 0        42.000  
        41.000                                                  
  24226039.853    24226040.067   127308706.99610  99201598.023 0        38.000  
        38.000                                                  
  22293179.481    22293177.641   117151449.743 0  91286834.601 0        44.000  
        45.000                                                  
 22  1 14 11  0 37.0000000  0  0
 22  1 14 11  0 38.0010000  0  5E03E05E09E24E25
  25851069.904                   135848322.428 0                        45.000  
                  25851069.529   104091584.563          48.000  
  23389920.178                   122914879.299 0                        48.000  
                  23389920.518    94181536.263          53.000  
  23754104.429                   124828655.909 0                        45.000  
                  23754104.911    95647930.978          50.000  
  23640569.356                   124232075.828 0                        49.000  
                  23640567.552    95190824.622          53.000  
  25682292.891                   134961396.145 0                        46.000  
                  25682293.927   103411999.995          50.000  
 22  1 14 11  0 39.0010000  0 11G05G07G13G14G15G17G19G20G23G24G30
  22856934.344    22856930.627   120113976.158 0  93594950.867 0        46.000  
        44.000                                                  
  24334346.949    24334342.947   127877820.567 0  99645021.655 0        39.000  
        36.000                                                  
  20107735.520                   105667472.913 0                        49.000  
                                                                
  20597644.930    20597639.587   108241445.714 0  84343964.141 0        48.000  
        49.000                                                  
  21242698.200    21242694.912   111631172.164 0  86985316.360 0        48.000  
        46.000                                                  
  23238305.521    23238302.340   122117829.598 0  95157176.587 0        41.000  
        39.000                                                  
  24870468.404                   130695817.169 0                        26.000  
                                                                
  24231545.888                   127337567.986 0                        40.000  
                                                                
  24665579.310    24665574.235   129617919.359 0 101000977.148 0        43.000  
        41.000                                                  
  24225427.481    24225427.678   127305489.37410  99199090.806 0        38.000  
        38.000                                                  
  22293622.079    22293620.292   117153775.505 0  91288646.874 0        44.000  
        45.000                                                  
 22  1 14 11  0 38.0000000  0  0
 22  1 14 11  0 39.0010000  0  5E03E05E09E24E25
  25850631.702                   135846019.582 0                        45.000  
                  25850631.345   104089820.049          48.000  
  23389952.485                   122915049.145 0                        48.000  
                  23389952.771    94181666.409          54.000  
  23754581.228                   124831161.341 0                        45.000  
                  23754581.549    95649850.727          50.000  
  23640582.633                   124232145.008 0                        49.000  
                  23640580.739    95190877.634          53.000  
  25681831.209                   134958969.218 0                        46.000  
                  25681831.995   103410140.411          50.000  
 22  1 14 11  0 40.0010000  0 11G05G07G13G14G15G17G19G20G23G24G30
  22857480.135    22857476.400   120116843.950 0  93597185.499 0        46.000  
        44.000                                                  
  24334869.189    24334865.294   127880565.177 0  99647160.320 0        39.000  
        36.000                                                  
  20107644.549                   105666994.524 0                        49.000  
                                                                
  20597805.965    20597800.623   108242292.284 0  84344623.802 0        48.000  
        49.000                                                  
  21242306.493    21242303.223   111629114.091 0  86983712.672 0        48.000  
        46.000                                                  
  23237797.469    23237794.234   122115158.956 0  95155095.561 0        41.000  
        39.000                                                  
  24869791.097                   130692277.085 0                        26.000  
                                                                
  24232207.257                   127341043.899 0                        40.000  
                                                                
  24665131.459    24665126.348   129615565.776 0 100999143.176 0        43.000  
        41.000                                                  
  24224815.199    24224815.431   127302272.35510  99196584.020 0        38.000  
        38.000                                                  
  22294064.784    22294063.015   117156101.947 0  91290459.689 0        44.000  
        45.000                                                  
 22  1 14 11  0 39.0000000  0  0
 22  1 14 11  0 40.0010000  0  5E03E05E09E24E25
  25850193.483                   135843717.416 0                        45.000  
                  25850193.268   104088056.054          48.000  
  23389985.025                   122915219.891 0                        48.000  
                  23389985.203    94181797.234          53.000  
  23755058.116                   124833667.521 0                        45.000  
                  23755058.545    95651771.040          50.000  
  23640595.856                   124232215.085 0                        49.000  
                  23640594.105    95190931.325          53.000  
  25681369.509                   134956543.031 0                        46.000  
                  25681370.402   103408281.382          50.000  
 22  1 14 11  0 41.0010000  0 10G05G07G13G14G15G17G20G23G24G30
  22858025.873    22858022.120   120119711.508 0  93599419.962 0        46.000  
        44.000                                                  
  24335391.376    24335387.516   127883309.291 0  99649298.595 0        39.000  
        36.000                                                  
  20107553.435                   105666516.103 0                        49.000  
                                                                
  20597967.001    20597961.623   108243138.849 0  84345283.472 0        48.000  
        49.000                                                  
  21241914.786    21241911.445   111627055.946 0  86982108.912 0        48.000  
        46.000                                                  
  23237289.274    23237285.861   122112488.024 0  95153014.308 0        41.000  
        39.000                                                  
  24232868.571                   127344519.254 0                        40.000  
                                                                
  24664683.607    24664678.461   129613212.093 0 100997309.133 0        42.000  
        41.000                                                  
  24224202.935    24224203.185   127299054.81810  99194076.859 0        38.000  
        38.000                                                  
  22294507.471    22294505.631   117158428.026 0  91292272.210 0        44.000  
        45.000                                                  
 22  1 14 11  0 40.0000000  0  0
 22  1 14 11  0 41.0010000  0  5E03E05E09E24E25
  25849755.209                   135841414.875 0                        45.000  
                  25849755.102   104086291.775          48.000  
  23390017.386                   122915390.453 0                        48.000  
                  23390017.707    94181927.931          53.000  
  23755534.737                   124836173.364 0                        45.000  
                  23755535.362    95653691.093          49.000  
  23640609.311                   124232284.952 0                        49.000  
                  23640607.417    95190984.861          53.000  
  25680907.648                   134954116.500 0                        46.000  
                  25680908.595   103406422.097          50.000  
 22  1 14 11  0 42.0010000  0 10G05G07G13G14G15G17G20G23G24G30
  22858571.646    22858567.948   120122579.829 0  93601655.008 0        46.000  
        44.000                                                  
  24335913.562    24335909.828   127886053.886 0  99651437.245 0        39.000  
        36.000                                                  
  20107462.499                   105666038.628 0                        49.000  
                                                                
  20598128.269    20598122.837   108243986.424 0  84345943.924 0        48.000  
        49.000                                                  
  21241523.330    21241519.970   111624998.709 0  86980505.871 0        48.000  
        46.000                                                  
  23236781.061    23236777.630   122109817.794 0  95150933.607 0        41.000  
        39.000                                                  
  24233530.083                   127347995.029 0                        40.000  
                                                                
  24664235.935    24664230.770   129610859.311 0 100995475.787 0        42.000  
        41.000                                                  
  24223590.832    24223591.118   127295837.79410  99191570.076 0        38.000  
        38.000                                                  
  22294950.248    22294948.282   117160754.727 0  91294085.217 0        44.000  
        45.000                                                  
 22  1 14 11  0 41.0000000  0  0
 22  1 14 11  0 42.0010000  0  5E03E05E09E24E25
  25849317.257                   135839112.967 0                        45.000  
                  25849317.114   104084527.969          48.000  
  23390050.104                   122915561.854 0                        48.000  
                  23390050.336    94182059.262          53.000  
  23756011.840                   124838679.859 0                        45.000  
                  23756012.322    95655611.658          50.000  
  23640622.695                   124232355.604 0                        49.000  
                  23640620.819    95191039.000          53.000  
  25680446.109                   134951690.621 0                        46.000  
                  25680447.110   103404563.311          50.000  
 22  1 14 11  0 43.0010000  0 10G05G07G13G14G15G17G20G23G24G30
  22859117.563    22859113.864   120125448.546 0  93603890.388 0        46.000  
        44.000                                                  
  24336436.017    24336432.175   127888798.652 0  99653576.028 0        39.000  
        36.000                                                  
  20107371.832                   105665561.744 0                        49.000  
                                                                
  20598289.573    20598284.337   108244834.644 0  84346604.877 0        48.000  
        49.000                                                  
  21241131.998    21241128.460   111622942.034 0  86978903.274 0        48.000  
        46.000                                                  
  23236273.045    23236269.560   122107147.930 0  95148853.182 0        41.000  
        39.000                                                  
  24234191.397                   127351470.877 0                        40.000  
                                                                
  24663788.316    24663783.187   129608507.077 0 100993642.912 0        42.000  
        41.000                                                  
  24222978.818    24222978.889   127292620.90210  99189063.432 0        38.000  
        38.000                                                  
  22295392.971    22295391.184   117163081.694 0  91295898.455 0        44.000  
        45.000                                                  
 22  1 14 11  0 42.0000000  0  0
 22  1 14 11  0 43.0010000  0  5E03E05E09E24E25
  25848879.377                   135836811.315 0                        45.000  
                  25848879.109   104082764.364          48.000  
  23390082.733                   122915733.716 0                        48.000  
                  23390083.018    94182190.953          53.000  
  23756489.014                   124841186.670 0                        45.000  
                  23756489.336    95657532.457          50.000  
  23640636.240                   124232426.721 0                        49.000  
                  23640634.328    95191093.494          53.000  
  25679984.588                   134949265.035 0                        46.000  
                  25679985.446   103402704.754          50.000  
 22  1 14 11  0 44.0010000  0 10G05G07G13G14G15G17G20G23G24G30
  22859663.444    22859659.870   120128317.280 0  93606125.763 0        46.000  
        44.000                                                  
  24336958.293    24336954.433   127891543.160 0  99655714.560 0        39.000  
        36.000                                                  
  20107281.147                   105665085.064 0                        49.000  
                                                                
  20598450.930    20598445.712   108245683.113 0  84347266.015 0        48.000  
        49.000                                                  
  21240740.720    21240737.111   111620885.522 0  86977300.786 0        48.000  
        46.000                                                  
  23235765.028    23235761.437   122104478.028 0  95146772.750 0        41.000  
        39.000                                                  
  24234852.765                   127354946.415 0                        40.000  
                                                                
  24663340.714    24663335.657   129606154.991 0 100991810.108 0        42.000  
        41.000                                                  
  24222366.553    24222366.696   127289403.77510  99186556.575 0        38.000  
        38.000                                                  
  22295835.801    22295834.050   117165408.521 0  91297711.560 0        44.000  
        45.000                                                  
 22  1 14 11  0 43.0000000  0  0
 22  1 14 11  0 44.0010000  0  5E03E05E09E24E25
  25848441.300                   135834509.528 0                        45.000  
                  25848441.050   104081000.661          48.000  
  23390115.576                   122915905.654 0                        48.000  
                  23390115.772    94182322.698          53.000  
  23756965.903                   124843693.376 0                        45.000  
                  23756966.439    95659453.186          50.000  
  23640649.678                   124232497.860 0                        49.000  
                  23640647.909    95191148.006          53.000  
  25679522.870                   134946839.356 0                        46.000  
                  25679523.907   103400846.117          50.000  
 22  1 14 11  0 45.0010000  0 10G05G07G13G14G15G17G20G23G24G30
  22860209.414    22860205.786   120131186.387 0  93608361.419 0        46.000  
        44.000                                                  
  24337480.550    24337476.709   127894287.729 0  99657853.217 0        39.000  
        36.000                                                  
  20107190.479                   105664608.917 0                        49.000  
                                                                
  20598612.323    20598607.248   108246532.157 0  84347927.613 0        48.000  
        49.000                                                  
  21240349.514    21240345.904   111618829.528 0  86975698.714 0        48.000  
        46.000                                                  
  23235257.083    23235253.474   122101808.419 0  95144692.547 0        41.000  
        39.000                                                  
  24235514.187                   127358421.996 0                        40.000  
                                                                
  24662893.131    24662888.110   129603803.400 0 100989977.702 0        42.000  
        41.000                                                  
  24221754.289    24221754.432   127286186.74810  99184049.810 0        37.000  
        38.000                                                  
  22296278.720    22296276.844   117167735.568 0  91299524.838 0        44.000  
        45.000                                                  
 22  1 14 11  0 44.0000000  0  0
 22  1 14 11  0 45.0010000  0  5E03E05E09E24E25
  25848003.187                   135832207.955 0                        45.000  
                  25848003.080   104079237.118          48.000  
  23390148.365                   122916078.015 0                        48.000  
                  23390148.544    94182454.764          53.000  
  23757442.988                   124846200.348 0                        45.000  
                  23757443.541    95661374.115          50.000  
  23640663.276                   124232569.399 0                        49.000  
                  23640661.507    95191202.819          53.000  
  25679061.313                   134944413.920 0                        46.000  
                  25679062.332   103398987.675          50.000  
 22  1 14 11  0 46.0010000  0 10G05G07G13G14G15G17G20G23G24G30
  22860755.527    22860751.810   120134055.658 0  93610597.215 0        46.000  
        44.000                                                  
  24338002.826    24337998.984   127897032.198 0  99659991.751 0        39.000  
        36.000                                                  
  20107099.883                   105664133.117 0                        49.000  
                                                                
  20598773.984    20598768.927   108247381.595 0  84348589.521 0        48.000  
        49.000                                                  
  21239958.307    21239954.733   111616773.797 0  86974096.848 0        48.000  
        46.000                                                  
  23234749.103    23234745.493   122099138.904 0  95142612.399 0        41.000  
        39.000                                                  
  24236175.538                   127361897.378 0                        40.000  
                                                                
  24662445.691    24662440.616   129601452.106 0 100988145.532 0        42.000  
        41.000                                                  
  24221142.150    24221142.168   127282969.60610  99181542.935 0        38.000  
        38.000                                                  
  22296721.550    22296719.656   117170062.627 0  91301338.138 0        44.000  
        45.000                                                  
 22  1 14 11  0 45.0000000  0  0
 22  1 14 11  0 46.0010000  0  5E03E05E09E24E25
  25847565.414                   135829906.382 0                        45.000  
                  25847565.128   104077473.580          48.000  
  23390181.244                   122916250.569 0                        48.000  
                  23390181.352    94182586.986          53.000  
  23757920.108                   124848707.359 0                        45.000  
                  23757920.573    95663295.071          50.000  
  23640676.892                   124232641.111 0                        49.000  
                  23640675.141    95191257.765          53.000  
  25678599.846                   134941988.516 0                        46.000  
                  25678600.829   103397129.253          50.000  
 22  1 14 11  0 47.0010000  0 10G05G07G13G14G15G17G20G23G24G30
  22861301.765    22861297.888   120136925.613 0  93612833.551 0        46.000  
        44.000                                                  
  24338525.209    24338521.385   127899777.113 0  99662130.630 0        39.000  
        36.000                                                  
  20107009.466                   105663658.209 0                        49.000  
                                                                
  20598935.717    20598930.606   108248231.969 0  84349252.148 0        48.000  
        49.000                                                  
  21239567.279    21239563.759   111614718.935 0  86972495.664 0        48.000  
        46.000                                                  
  23234241.301    23234237.566   122096470.044 0  95140532.754 0        41.000  
        39.000                                                  
  24236837.013                   127365373.138 0                        40.000  
                                                                
  24661998.393    24661993.336   129599101.648 0 100986313.999 0        42.000  
        41.000                                                  
  24220530.100    24220529.957   127279752.89910  99179036.408 0        38.000  
        38.000                                                  
  22297164.416    22297162.486   117172390.237 0  91303151.856 0        44.000  
        45.000                                                  
 22  1 14 11  0 46.0000000  0  0
 22  1 14 11  0 47.0010000  0  5E03E05E09E24E25
  25847127.408                   135827605.381 0                        45.000  
                  25847127.158   104075710.477          48.000  
  23390214.123                   122916423.895 0                        48.000  
                  23390214.302    94182719.796          53.000  
  23758397.336                   124851214.983 0                        45.000  
                  23758397.783    95665216.495          50.000  
  23640690.776                   124232713.563 0                        49.000  
                  23640688.864    95191313.285          53.000  
  25678138.450                   134939563.717 0                        46.000  
                  25678139.451   103395271.290          50.000  
 22  1 14 11  0 48.0010000  0 10G05G07G13G14G15G17G20G23G24G30
  22861847.914    22861844.126   120139795.862 0  93615070.094 0        46.000  
        44.000                                                  
  24339047.521    24339043.733   127902522.043 0  99664269.539 0        39.000  
        36.000                                                  
  20106919.102                   105663183.782 0                        49.000  
                                                                
  20599097.628    20599092.482   108249082.868 0  84349915.189 0        47.000  
        49.000                                                  
  21239176.359    21239172.839   111612664.510 0  86970894.811 0        48.000  
        46.000                                                  
  23233733.642    23233729.693   122093801.424 0  95138453.305 0        41.000  
        39.000                                                  
  24237498.489                   127368848.881 0                        40.000  
                                                                
  24661551.150    24661546.164   129596751.624 0 100984482.819 0        43.000  
        41.000                                                  
  24219917.979    24219917.818   127276536.22710  99176529.924 0        38.000  
        38.000                                                  
  22297607.389    22297605.495   117174718.009 0  91304965.701 0        44.000  
        45.000                                                  
 22  1 14 11  0 47.0000000  0  0
 22  1 14 11  0 48.0010000  0  5E03E05E09E24E25
  25846689.492                   135825304.512 0                        45.000  
                  25846689.456   104073947.465          48.000  
  23390247.396                   122916597.585 0                        48.000  
                  23390247.396    94182852.872          53.000  
  23758874.529                   124853722.789 0                        45.000  
                  23758874.957    95667138.057          49.000  
  23640704.535                   124232786.328 0                        49.000  
                  23640702.695    95191369.040          53.000  
  25677676.893                   134937139.079 0                        46.000  
                  25677678.001   103393413.464          50.000  
 22  1 14 11  0 49.0010000  0 10G05G07G13G14G15G17G20G23G24G30
  22862394.152    22862390.435   120142666.489 0  93617306.947 0        46.000  
        44.000                                                  
  24339569.868    24339566.169   127905267.111 0  99666408.557 0        39.000  
        36.000                                                  
  20106828.953                   105662709.918 0                        49.000  
                                                                
  20599259.610    20599254.625   108249934.386 0  84350578.714 0        47.000  
        49.000                                                  
  21238785.617    21238781.936   111610610.628 0  86969294.386 0        48.000  
        46.000                                                  
  23233225.894    23233221.962   122091133.107 0  95136374.129 0        42.000  
        39.000                                                  
  24238160.036                   127372324.661 0                        40.000  
                                                                
  24661103.924    24661099.081   129594402.105 0 100982652.036 0        43.000  
        41.000                                                  
  24219305.822    24219305.608   127273319.67910  99174023.529 0        38.000  
        38.000                                                  
  22298050.398    22298048.450   117177046.012 0  91306779.732 0        44.000  
        45.000                                                  
 22  1 14 11  0 48.0000000  0  0
 22  1 14 11  0 49.0010000  0  5E03E05E09E24E25
  25846251.808                   135823003.887 0                        45.000  
                  25846251.540   104072184.653          48.000  
  23390280.471                   122916771.692 0                        48.000  
                  23390280.560    94182986.285          53.000  
  23759351.846                   124856230.874 0                        45.000  
                  23759352.257    95669059.827          49.000  
  23640718.366                   124232859.508 0                        49.000  
                  23640716.669    95191425.115          53.000  
  25677215.622                   134934714.731 0                        46.000  
                  25677216.676   103391555.849          50.000  
 22  1 14 11  0 50.0010000  0 10G05G07G13G14G15G17G20G23G24G30
  22862940.444    22862936.870   120145537.545 0  93619544.128 0        46.000  
        44.000                                                  
  24340092.251    24340088.570   127908012.329 0  99668547.683 0        39.000  
        36.000                                                  
  20106738.911                   105662236.686 0                        49.000  
                                                                
  20599421.736    20599416.769   108250786.574 0  84351242.761 0        47.000  
        49.000                                                  
  21238394.911    21238391.140   111608557.341 0  86967694.429 0        48.000  
        46.000                                                  
  23232718.235    23232714.250   122088465.221 0  95134295.213 0        42.000  
        39.000                                                  
  24238821.511                   127375800.539 0                        40.000  
                                                                
  24660656.984    24660652.123   129592053.182 0 100980821.697 0        43.000  
        41.000                                                  
  24218693.808    24218693.558   127270103.30010  99171517.263 0        38.000  
        38.000                                                  
  22298493.389    22298491.602   117179374.289 0  91308593.985 0        44.000  
        45.000                                                  
 22  1 14 11  0 49.0000000  0  0
 22  1 14 11  0 50.0010000  0  5E03E05E09E24E25
  25845813.999                   135820703.547 0                        45.000  
                  25845813.856   104070422.059          48.000  
  23390313.833                   122916946.306 0                        48.000  
                  23390313.672    94183120.078          53.000  
  23759829.342                   124858739.290 0                        45.000  
                  23759829.485    95670981.865          50.000  
  23640732.572                   124232933.168 0                        49.000  
                  23640730.642    95191481.556          53.000  
  25676754.476                   134932290.707 0                        46.000  
                  25676755.423   103389698.482          50.000  
 22  1 14 11  0 51.0010000  0 10G05G07G13G14G15G17G20G23G24G30
  22863486.736    22863483.251   120148408.668 0  93621781.369 0        47.000  
        44.000                                                  
  24340614.581    24340610.882   127910757.353 0  99670686.631 0        39.000  
        36.000                                                  
  20106648.905                   105661763.694 0                        49.000  
                                                                
  20599583.772    20599578.930   108251639.057 0  84351907.031 0        47.000  
        49.000                                                  
  21238004.204    21238000.506   111606504.260 0  86966094.626 0        48.000  
        46.000                                                  
  23232210.701    23232206.609   122085797.314 0  95132216.332 0        42.000  
        39.000                                                  
  24239482.790                   127379276.164 0                        40.000  
                                                                
  24660210.205    24660205.094   129589704.455 0 100978991.502 0        42.000  
        41.000                                                  
  24218081.776    24218081.490   127266886.72810  99169010.827 0        38.000  
        38.000                                                  
  22298936.523    22298934.682   117181702.507 0  91310408.170 0        44.000  
        45.000                                                  
 22  1 14 11  0 50.0000000  0  0
 22  1 14 11  0 51.0010000  0  5E03E05E09E24E25
  25845376.298                   135818403.138 0                        45.000  
                  25845376.101   104068659.399          48.000  
  23390347.051                   122917121.044 0                        48.000  
                  23390346.998    94183253.968          53.000  
  23760306.588                   124861247.657 0                        45.000  
                  23760306.838    95672903.862          50.000  
  23640746.563                   124233006.917 0                        49.000  
                  23640744.848    95191538.064          53.000  
  25676293.152                   134929866.621 0                        46.000  
                  25676294.081   103387841.065          50.000  
 22  1 14 11  0 52.0010000  0 10G05G07G13G14G15G17G20G23G24G30
  22864033.117    22864029.739   120151280.304 0  93624019.008 0        47.000  
        44.000                                                  
  24341136.964    24341133.300   127913502.629 0  99672825.800 0        39.000  
        36.000                                                  
  20106559.059                   105661291.418 0                        49.000  
                                                                
  20599746.077    20599741.306   108252492.295 0  84352571.897 0        47.000  
        49.000                                                  
  21237613.623    21237609.835   111604451.872 0  86964495.348 0        48.000  
        46.000                                                  
  23231703.096    23231699.057   122083129.848 0  95130137.805 0        42.000  
        39.000                                                  
  24240144.158                   127382751.966 0                        40.000  
                                                                
  24659763.443    24659758.351   129587356.383 0 100977161.849 0        42.000  
        41.000                                                  
  24217469.851    24217469.405   127263670.37910  99166504.629 0        38.000  
        38.000                                                  
  22299379.657    22299377.745   117184031.097 0  91312222.665 0        44.000  
        45.000                                                  
 22  1 14 11  0 51.0000000  0  0
 22  1 14 11  0 52.0010000  0  5E03E05E09E24E25
  25844938.560                   135816103.083 0                        45.000  
                  25844938.310   104066897.028          48.000  
  23390380.377                   122917296.354 0                        48.000  
                  23390380.252    94183388.301          53.000  
  23760783.995                   124863756.443 0                        45.000  
                  23760784.298    95674826.183          50.000  
  23640760.662                   124233081.208 0                        49.000  
                  23640758.893    95191594.991          53.000  
  25675831.863                   134927442.948 0                        46.000  
                  25675832.917   103385983.972          50.000  
 22  1 14 11  0 53.0010000  0 10G05G07G13G14G15G17G20G23G24G30
  22864579.694    22864576.246   120154152.334 0  93626256.960 0        46.000  
        44.000                                                  
  24341659.454    24341655.809   127916248.017 0  99674965.075 0        38.000  
        36.000                                                  
  20106469.250                   105660819.720 0                        49.000  
                                                                
  20599908.470    20599903.842   108253346.161 0  84353237.242 0        47.000  
        49.000                                                  
  21237223.257    21237219.361   111602400.017 0  86962896.512 0        48.000  
        46.000                                                  
  23231195.669    23231191.470   122080462.754 0  95128059.536 0        42.000  
        39.000                                                  
  24240805.580                   127386227.826 0                        40.000  
                                                                
  24659316.682    24659311.571   129585008.827 0 100975332.601 0        42.000  
        41.000                                                  
  24216857.873    24216857.409   127260454.20310  99163998.501 0        38.000  
        38.000                                                  
  22299822.791    22299820.986   117186359.934 0  91314037.327 0        44.000  
        45.000                                                  
 22  1 14 11  0 52.0000000  0  0
 22  1 14 11  0 53.0010000  0  5E03E05E09E24E25
  25844500.698                   135813803.288 0                        45.000  
                  25844500.680   104065134.848          48.000  
  23390413.828                   122917472.119 0                        48.000  
                  23390413.738    94183522.980          53.000  
  23761261.419                   124866265.517 0                        45.000  
                  23761261.794    95676748.718          50.000  
  23640774.939                   124233155.928 0                        49.000  
                  23640773.117    95191652.240          53.000  
  25675370.771                   134925019.548 0                        46.000  
                  25675371.700   103384127.095          50.000  
 22  1 14 11  0 54.0010000  0 10G05G07G13G14G15G17G20G23G24G30
  22865126.272    22865122.859   120157024.707 0  93628495.178 0        46.000  
        44.000                                                  
  24342181.926    24342178.263   127918993.498 0  99677104.407 0        39.000  
        36.000                                                  
  20106379.637                   105660348.547 0                        49.000  
                                                                
  20600071.025    20600066.361   108254200.593 0  84353903.035 0        47.000  
        49.000                                                  
  21236832.908    21236828.887   111600348.641 0  86961298.035 0        48.000  
        46.000                                                  
  23230688.367    23230683.989   122077795.930 0  95125981.490 0        42.000  
        39.000                                                  
  24241466.895                   127389703.712 0                        40.000  
                                                                
  24658870.081    24658864.935   129582661.779 0 100973503.719 0        42.000  
        41.000                                                  
  24216246.002    24216245.466   127257238.11510  99161492.461 0        38.000  
        38.000                                                  
  22300266.014    22300264.138   117188688.959 0  91315852.163 0        44.000  
        45.000                                                  
 22  1 14 11  0 53.0000000  0  0
 22  1 14 11  0 54.0010000  0  5E03E05E09E24E25
  25844063.067                   135811503.681 0                        45.000  
                  25844063.193   104063372.811          48.000  
  23390447.332                   122917648.294 0                        48.000  
                  23390447.332    94183657.963          53.000  
  23761738.933                   124868774.843 0                        45.000  
                  23761739.308    95678671.439          49.000  
  23640789.092                   124233231.015 0                        49.000  
                  23640787.412    95191709.771          53.000  
  25674909.696                   134922596.390 0                        46.000  
                  25674910.554   103382270.387          50.000  
 22  1 14 11  0 55.0010000  0 10G05G07G13G14G15G17G20G23G24G30
  22865672.868    22865669.508   120159897.198 0  93630733.470 0        47.000  
        44.000                                                  
  24342704.327    24342700.735   127921738.813 0  99679243.627 0        39.000  
        36.000                                                  
  20106289.934                   105659877.674 0                        49.000  
                                                                
  20600233.633    20600229.023   108255055.380 0  84354569.101 0        47.000  
        49.000                                                  
  21236442.702    21236438.556   111598297.544 0  86959699.773 0        48.000  
        46.000                                                  
  23230180.994    23230176.456   122075129.136 0  95123903.488 0        42.000  
        39.000                                                  
  24242128.406                   127393179.355 0                        40.000  
                                                                
  24658423.392    24658418.388   129580314.954 0 100971675.037 0        42.000  
        41.000                                                  
  24215634.095    24215633.488   127254021.88610  99158986.288 0        38.000  
        38.000                                                  
  22300709.273    22300707.397   117191017.972 0  91317666.967 0        45.000  
        45.000                                                  
 22  1 14 11  0 54.0000000  0  0
 22  1 14 11  0 55.0010000  0  5E03E05E09E24E25
  25843625.562                   135809204.042 0                        45.000  
                  25843625.419   104061610.750          48.000  
  23390481.051                   122917824.613 0                        48.000  
                  23390480.890    94183793.074          53.000  
  23762216.608                   124871284.157 0                        45.000  
                  23762216.751    95680594.163          49.000  
  23640803.476                   124233306.236 0                        49.000  
                  23640801.743    95191767.413          53.000  
  25674448.318                   134920173.222 0                        46.000  
                  25674449.533   103380413.681          50.000  
 22  1 14 11  0 56.0010000  0 10G05G07G13G14G15G17G20G23G24G30
  22866219.445    22866216.282   120162770.219 0  93632972.195 0        46.000  
        44.000                                                  
  24343226.746    24343223.172   127924484.421 0  99681383.057 0        39.000  
        36.000                                                  
  20106200.446                   105659407.531 0                        49.000  
                                                                
  20600396.438    20600391.810   108255910.939 0  84355235.773 0        47.000  
        49.000                                                  
  21236052.514    21236048.225   111596247.136 0  86958102.046 0        48.000  
        46.000                                                  
  23229673.728    23229669.136   122072462.887 0  95121825.872 0        42.000  
        39.000                                                  
  24242789.828                   127396655.241 0                        40.000  
                                                                
  24657976.898    24657971.949   129577968.827 0 100969846.887 0        42.000  
        41.000                                                  
  24215022.171    24215021.420   127250805.90710  99156480.328 0        38.000  
        38.000                                                  
  22301152.532    22301150.620   117193347.355 0  91319482.072 0        45.000  
        45.000                                                  
 22  1 14 11  0 55.0000000  0  0
 22  1 14 11  0 56.0010000  0  5E03E05E09E24E25
  25843188.057                   135806904.805 0                        45.000  
                  25843187.932   104059848.999          48.000  
  23390514.770                   122918001.555 0                        49.000  
                  23390514.520    94183928.650          53.000  
  23762694.122                   124873793.909 0                        45.000  
                  23762694.318    95682517.222          49.000  
  23640817.825                   124233382.036 0                        49.000  
                  23640816.092    95191825.503          53.000  
  25673987.404                   134917750.497 0                        46.000  
                  25673988.494   103378557.305          50.000  
 22  1 14 11  0 57.0010000  0 10G05G07G13G14G15G17G20G23G24G30
  22866766.202    22866763.164   120165643.552 0  93635211.149 0        47.000  
        44.000                                                  
  24343749.272    24343745.680   127927230.032 0  99683522.505 0        39.000  
        36.000                                                  
  20106111.101                   105658937.879 0                        49.000  
                                                                
  20600559.350    20600554.704   108256767.026 0  84355902.856 0        47.000  
        49.000                                                  
  21235662.469    21235658.163   111594197.175 0  86956504.685 0        49.000  
        46.000                                                  
  23229166.373    23229161.674   122069796.859 0  95119748.426 0        42.000  
        39.000                                                  
  24243451.232                   127400131.081 0                        39.000  
                                                                
  24657530.566    24657525.634   129575623.147 0 100968019.079 0        42.000  
        41.000                                                  
  24214410.228    24214409.495   127247589.92410  99153974.400 0        38.000  
        38.000                                                  
  22301595.952    22301594.022   117195676.905 0  91321297.309 0        45.000  
        45.000                                                  
 22  1 14 11  0 56.0000000  0  0
 22  1 14 11  0 57.0010000  0  5E03E05E09E24E25
  25842750.266                   135804605.714 0                        45.000  
                  25842750.552   104058087.365          48.000  
  23390548.489                   122918178.851 0                        49.000  
                  23390548.203    94184064.507          53.000  
  23763171.814                   124876303.874 0                        45.000  
                  23763172.029    95684440.435          49.000  
  23640832.335                   124233458.170 0                        49.000  
                  23640830.601    95191883.837          53.000  
  25673526.312                   134915327.949 0                        46.000  
                  25673527.527   103376701.078          50.000  
 22  1 14 11  0 58.0010000  0 10G05G07G13G14G15G17G20G23G24G30
  22867313.101    22867309.992   120168517.163 0  93637450.325 0        46.000  
        44.000                                                  
  24344271.798    24344268.170   127929975.672 0  99685661.976 0        39.000  
        36.000                                                  
  20106021.952                   105658468.695 0                        49.000  
                                                                
  20600722.244    20600717.687   108257623.645 0  84356570.351 0        47.000  
        49.000                                                  
  21235272.406    21235268.207   111592147.671 0  86954907.669 0        48.000  
        46.000                                                  
  23228659.125    23228654.354   122067131.047 0  95117671.184 0        42.000  
        39.000                                                  
  24244112.547                   127403606.865 0                        39.000  
                                                                
  24657084.251    24657079.284   129573277.865 0 100966191.578 0        42.000  
        41.000                                                  
  24213798.321    24213797.624   127244374.02710  99151468.497 0        38.000  
        38.000                                                  
  22302039.282    22302037.477   117198006.601 0  91323112.654 0        45.000  
        45.000                                                  
 22  1 14 11  0 57.0000000  0  0
 22  1 14 11  0 58.0010000  0  5E03E05E09E24E25
  25842312.850                   135802306.779 0                        45.000  
                  25842313.029   104056325.834          48.000  
  23390582.190                   122918356.497 0                        49.000  
                  23390582.082    94184200.616          53.000  
  23763649.453                   124878814.005 0                        45.000  
                  23763649.721    95686363.791          49.000  
  23640847.005                   124233534.622 0                        49.000  
                  23640845.111    95191942.421          53.000  
  25673065.452                   134912905.585 0                        46.000  
                  25673066.506   103374844.983          50.000  
 22  1 14 11  0 59.0010000  0 10G05G07G13G14G15G17G20G23G24G30
  22867859.965    22867856.820   120171391.109 0  93639689.772 0        46.000  
        44.000                                                  
  24344794.306    24344790.625   127932721.420 0  99687801.498 0        38.000  
        36.000                                                  
  20105932.840                   105658000.046 0                        49.000  
                                                                
  20600885.191    20600880.688   108258480.829 0  84357238.294 0        47.000  
        49.000                                                  
  21234882.432    21234878.305   111590098.645 0  86953311.030 0        49.000  
        46.000                                                  
  23228151.913    23228147.124   122064465.544 0  95115594.157 0        42.000  
        39.000                                                  
  24244773.933                   127407082.663 0                        39.000  
                                                                
  24656637.937    24656633.041   129570933.088 0 100964364.481 0        42.000  
        41.000                                                  
  24213186.379    24213185.557   127241158.20010  99148962.669 0        38.000  
        38.000                                                  
  22302482.684    22302480.808   117200336.495 0  91324928.158 0        45.000  
        45.000                                                  
 22  1 14 11  0 58.0000000  0  0
 22  1 14 11  0 59.0010000  0  5E03E05E09E24E25
  25841875.488                   135800008.041 0                        45.000  
                  25841875.595   104054564.470          48.000  
  23390616.141                   122918534.547 0                        49.000  
                  23390615.980    94184337.047          53.000  
  23764127.360                   124881324.384 0                        45.000  
                  23764127.467    95688287.328          49.000  
  23640861.443                   124233611.448 0                        49.000  
                  23640859.782    95192001.284          53.000  
  25672604.378                   134910483.444 0                        46.000  
                  25672605.682   103372989.062          50.000  
 22  1 14 11  1  0.0010000  0 10G05G07G13G14G15G17G20G23G24G30
  22868406.900    22868403.880   120174265.504 0  93641929.560 0        46.000  
        44.000                                                  
  24345316.796    24345313.061   127935467.316 0  99689941.127 0        38.000  
        35.000                                                  
  20105843.727                   105657532.020 0                        49.000  
                                                                
  20601048.407    20601044.029   108259338.692 0  84357906.758 0        47.000  
        49.000                                                  
  21234492.656    21234488.421   111588050.218 0  86951714.853 0        49.000  
        46.000                                                  
  23227644.772    23227640.019   122061800.408 0  95113517.439 0        42.000  
        39.000                                                  
  24245435.248                   127410558.573 0                        39.000  
                                                                
  24656191.801    24656186.958   129568588.863 0 100962537.840 0        42.000  
        41.000                                                  
  24212574.365    24212573.632   127237942.55810  99146456.972 0        38.000  
        39.000                                                  
  22302926.122    22302924.281   117202666.682 0  91326743.890 0        45.000  
        45.000                                                  
 22  1 14 11  0 59.0000000  0  0
 22  1 14 11  1  0.0010000  0  5E03E05E09E24E25
  25841438.108                   135797709.578 0                        45.000  
                  25841438.215   104052803.311          48.000  
  23390650.253                   122918713.088 0                        49.000  
                  23390649.860    94184473.855          53.000  
  23764604.999                   124883835.101 0                        45.000  
                  23764605.231    95690211.122          49.000  
  23640876.239                   124233688.739 0                        49.000  
                  23640874.488    95192060.506          53.000  
  25672143.571                   134908061.635 0                        46.000  
                  25672144.769   103371133.399          50.000  
 22  1 14 11  1  1.0010000  0 10G05G07G13G14G15G17G20G23G24G30
  22868953.853    22868950.815   120177140.154 0  93644169.543 0        46.000  
        44.000                                                  
  24345839.358    24345835.570   127938213.220 0  99692080.813 0        39.000  
        35.000                                                  
  20105754.739                   105657064.445 0                        49.000  
                                                                
  20601211.676    20601207.459   108260197.056 0  84358575.616 0        47.000  
        49.000                                                  
  21234102.986    21234098.751   111586002.229 0  86950119.010 0        49.000  
        46.000                                                  
  23227137.721    23227132.968   122059135.518 0  95111440.901 0        42.000  
        39.000                                                  
  24246096.705                   127414034.430 0                        39.000  
                                                                
  24655745.826    24655740.930   129566245.060 0 100960711.518 0        42.000  
        41.000                                                  
  24211962.583    24211961.671   127234726.91410  99143951.281 0        38.000  
        39.000                                                  
  22303369.542    22303367.737   117204996.995 0  91328559.725 0        45.000  
        45.000                                                  
 22  1 14 11  1  0.0000000  0  0
 22  1 14 11  1  1.0010000  0  5E03E05E09E24E25
  25841000.513                   135795411.263 0                        45.000  
                  25841000.960   104051042.268          48.000  
  23390684.168                   122918891.966 0                        49.000  
                  23390683.954    94184610.911          53.000  
  23765082.692                   124886345.977 0                        45.000  
                  23765083.049    95692135.038          49.000  
  23640890.999                   124233766.334 0                        49.000  
                  23640889.265    95192119.967          53.000  
  25671682.658                   134905639.993 0                        46.000  
                  25671683.962   103369277.855          50.000  
 22  1 14 11  1  2.0010000  0 10G05G07G13G14G15G17G20G23G24G30
  22869500.841    22869497.803   120180015.001 0  93646409.674 0        46.000  
        44.000                                                  
  24346361.866    24346358.096   127940959.060 0  99694220.410 0        39.000  
        35.000                                                  
  20105665.841                   105656597.272 0                        49.000  
                                                                
  20601375.053    20601370.907   108261055.855 0  84359244.807 0        47.000  
        49.000                                                  
  21233713.370    21233709.045   111583954.574 0  86948523.428 0        49.000  
        46.000                                                  
  23226630.759    23226625.970   122056470.763 0  95109364.467 0        42.000  
        39.000                                                  
  24246758.073                   127417510.129 0                        39.000  
                                                                
  24655299.815    24655295.044   129563901.592 0 100958885.441 0        42.000  
        41.000                                                  
  24211350.658    24211349.765   127231511.21310  99141445.547 0        38.000  
        39.000                                                  
  22303812.944    22303811.157   117207327.369 0  91330375.599 0        45.000  
        45.000                                                  
 22  1 14 11  1  1.0000000  0  0
 22  1 14 11  1  2.0010000  0  5E03E05E09E24E25
  25840563.169                   135793112.994 0                        45.000  
                  25840563.562   104049281.259          48.000  
  23390718.387                   122919071.111 0                        49.000  
                  23390718.066    94184748.178          53.000  
  23765560.670                   124888856.964 0                        45.000  
                  23765560.777    95694059.038          49.000  
  23640905.794                   124233844.165 0                        49.000  
                  23640904.061    95192179.601          53.000  
  25671222.030                   134903218.422 0                        46.000  
                  25671223.031   103367422.379          50.000  
 22  1 14 11  1  3.0010000  0 10G05G07G13G14G15G17G20G23G24G30
  22870047.991    22870045.042   120182890.441 0  93648650.272 0        46.000  
        44.000                                                  
  24346884.463    24346880.711   127943705.252 0  99696360.291 0        38.000  
        35.000                                                  
  20105577.032                   105656130.876 0                        49.000  
                                                                
  20601538.751    20601534.605   108261915.487 0  84359914.648 0        47.000  
        49.000                                                  
  21233323.896    21233319.554   111581907.675 0  86946928.449 0        49.000  
        46.000                                                  
  23226123.833    23226118.990   122053806.533 0  95107288.436 0        42.000  
        39.000                                                  
  24247419.567                   127420986.112 0                        39.000  
                                                                
  24654853.983    24654849.158   129561558.884 0 100957059.939 0        42.000  
        41.000                                                  
  24210738.698    24210738.001   127228295.83810  99138940.074 0        38.000  
        39.000                                                  
  22304256.578    22304254.719   117209658.199 0  91332191.821 0        45.000  
        45.000                                                  
 22  1 14 11  1  2.0000000  0  0
 22  1 14 11  1  3.0010000  0  5E03E05E09E24E25
  25840125.968                   135790815.192 0                        45.000  
                  25840126.289   104047520.601          48.000  
  23390752.535                   122919250.896 0                        49.000  
                  23390752.249    94184885.937          53.000  
  23766038.774                   124891368.429 0                        45.000  
                  23766038.756    95695983.406          49.000  
  23640920.715                   124233922.611 0                        49.000  
                  23640918.982    95192239.710          53.000  
  25670761.349                   134900797.352 0                        46.000  
                  25670762.367   103365567.267          50.000  
 22  1 14 11  1  4.0010000  0 10G05G07G13G14G15G17G20G23G24G30
  22870595.212    22870592.138   120185766.124 0  93650891.073 0        46.000  
        44.000                                                  
  24347406.989    24347403.273   127946451.402 0  99698500.124 0        38.000  
        35.000                                                  
  20105488.401                   105655664.909 0                        49.000  
                                                                
  20601702.431    20601698.464   108262775.594 0  84360584.864 0        47.000  
        49.000                                                  
  21232934.459    21232929.974   111579861.179 0  86945333.788 0        49.000  
        46.000                                                  
  23225616.942    23225611.974   122051142.497 0  95105212.585 0        42.000  
        39.000                                                  
  24248081.042                   127424461.998 0                        39.000  
                                                                
  24654408.204    24654403.415   129559216.546 0 100955234.726 0        42.000  
        41.000                                                  
  24210126.809    24210126.165   127225080.45110  99136434.578 0        37.000  
        39.000                                                  
  22304700.105    22304698.336   117211989.122 0  91334008.132 0        45.000  
        45.000                                                  
 22  1 14 11  1  3.0000000  0  0
 22  1 14 11  1  4.0010000  0  5E03E05E09E24E25
  25839688.623                   135788517.466 0                        45.000  
                  25839689.070   104045760.017          48.000  
  23390786.772                   122919430.986 0                        49.000  
                  23390786.558    94185023.928          53.000  
  23766516.520                   124893880.035 0                        45.000  
                  23766516.663    95697907.888          49.000  
  23640935.653                   124234001.334 0                        49.000  
                  23640933.956    95192300.034          53.000  
  25670300.578                   134898376.406 0                        46.000  
                  25670301.615   103363712.267          50.000  
 22  1 14 11  1  5.0010000  0 10G05G07G13G14G15G17G20G23G24G30
  22871142.450    22871139.448   120188642.016 0  93653132.025 0        46.000  
        44.000                                                  
  24347929.551    24347925.745   127949197.500 0  99700639.981 0        38.000  
        35.000                                                  
  20105399.771                   105655199.347 0                        49.000  
                                                                
  20601866.076    20601862.252   108263636.145 0  84361255.427 0        47.000  
        49.000                                                  
  21232545.093    21232540.572   111577815.077 0  86943739.402 0        49.000  
        46.000                                                  
  23225109.980    23225105.066   122048478.646 0  95103136.843 0        42.000  
        39.000                                                  
  24248742.393                   127427937.773 0                        39.000  
                                                                
  24653962.444    24653957.798   129556874.551 0 100953409.825 0        42.000  
        41.000                                                  
  24209514.973    24209514.312   127221865.02910  99133929.057 0        37.000  
        39.000                                                  
  22305143.668    22305141.899   117214320.113 0  91335824.488 0        45.000  
        45.000                                                  
 22  1 14 11  1  4.0000000  0  0
 22  1 14 11  1  5.0010000  0  5E03E05E09E24E25
  25839251.619                   135786219.822 0                        45.000  
                  25839251.851   104043999.487          48.000  
  23390821.259                   122919611.361 0                        49.000  
                  23390820.848    94185162.140          53.000  
  23766994.552                   124896391.744 0                        45.000  
                  23766994.606    95699832.446          49.000  
  23640950.663                   124234080.306 0                        49.000  
                  23640949.055    95192360.543          53.000  
  25669839.826                   134895955.565 0                        46.000  
                  25669840.987   103361857.342          50.000  
 22  1 14 11  1  6.0010000  0 10G05G07G13G14G15G17G20G23G24G30
  22871689.654    22871686.812   120191518.335 0  93655373.295 0        46.000  
        44.000                                                  
  24348452.148    24348448.342   127951943.765 0  99702779.910 0        38.000  
        35.000                                                  
  20105311.337                   105654734.396 0                        49.000  
                                                                
  20602030.006    20602026.200   108264497.367 0  84361926.496 0        47.000  
        50.000                                                  
  21232155.798    21232151.295   111575769.537 0  86942145.475 0        49.000  
        46.000                                                  
  23224603.089    23224598.229   122045815.164 0  95101061.396 0        42.000  
        39.000                                                  
  24249403.725                   127431413.633 0                        39.000  
                                                                
  24653516.790    24653512.341   129554533.131 0 100951585.319 0        42.000  
        41.000                                                  
  24208903.120    24208902.441   127218649.76310  99131423.650 0        37.000  
        39.000                                                  
  22305587.302    22305585.515   117216651.385 0  91337641.062 0        45.000  
        45.000                                                  
 22  1 14 11  1  5.0000000  0  0
 22  1 14 11  1  6.0010000  0  5E03E05E09E24E25
  25838814.364                   135783922.460 0                        44.000  
                  25838814.632   104042239.157          48.000  
  23390855.586                   122919792.211 0                        49.000  
                  23390855.228    94185300.707          53.000  
  23767472.620                   124898903.787 0                        45.000  
                  23767472.602    95701757.254          49.000  
  23640965.709                   124234159.727 0                        49.000  
                  23640964.047    95192421.397          53.000  
  25669379.198                   134893535.036 0                        46.000  
                  25669380.341   103360002.648          50.000  
 22  1 14 11  1  7.0010000  0 11G05G07G13G14G15G17G19G20G23G24G30
  22872237.107    22872234.284   120194395.275 0  93657615.064 0        46.000  
        44.000                                                  
  24348974.799    24348971.029   127954690.380 0  99704920.163 0        38.000  
        35.000                                                  
  20105223.010                   105654270.257 0                        48.000  
                                                                
  20602193.990    20602190.345   108265359.435 0  84362598.248 0        47.000  
        50.000                                                  
  21231766.647    21231762.197   111573724.784 0  86940552.161 0        49.000  
        46.000                                                  
  23224096.270    23224091.499   122043152.246 0  95098986.399 0        42.000  
        39.000                                                  
  24851598.877                   130596779.90110                        27.000  
                                                                
  24250065.254                   127434889.793 0                        39.000  
                                                                
  24653071.333    24653067.045   129552192.489 0 100949761.451 0        42.000  
        41.000                                                  
  24208291.195    24208290.624   127215434.83410  99128918.504 0        37.000  
        39.000                                                  
  22306031.025    22306029.078   117218983.148 0  91339458.018 0        45.000  
        45.000                                                  
 22  1 14 11  1  6.0000000  0  0
 22  1 14 11  1  7.0010000  0  5E03E05E09E24E25
  25838377.252                   135781625.573 0                        44.000  
                  25838377.645   104040479.219          48.000  
  23390890.091                   122919973.753 0                        49.000  
                  23390889.751    94185439.815          53.000  
  23767950.616                   124901416.350 0                        45.000  
                  23767950.813    95703682.462          49.000  
  23640981.076                   124234239.822 0                        49.000  
                  23640979.272    95192482.767          53.000  
  25668918.677                   134891115.028 0                        46.000  
                  25668919.839   103358148.368          50.000  
 22  1 14 11  1  8.0010000  0 11G05G07G13G14G15G17G19G20G23G24G30
  22872784.632    22872781.826   120197272.522 0  93659857.084 0        46.000  
        44.000                                                  
  24349497.504    24349493.591   127957437.047 0  99707060.387 0        38.000  
        35.000                                                  
  20105134.827                   105653806.623 0                        48.000  
                                                                
  20602358.188    20602354.615   108266222.066 0  84363270.421 0        47.000  
        50.000                                                  
  21231377.692    21231373.224   111571680.486 0  86938959.204 0        49.000  
        46.000                                                  
  23223589.576    23223584.912   122040489.598 0  95096911.604 0        42.000  
        39.000                                                  
  24850923.428                   130593238.559 0                        27.000  
                                                                
  24250726.783                   127438365.949 0                        39.000  
                                                                
  24652625.984    24652621.749   129549852.301 0 100947937.912 0        42.000  
        41.000                                                  
  24207679.289    24207678.931   127212219.99910  99126413.463 0        37.000  
        39.000                                                  
  22306474.713    22306472.819   117221315.075 0  91341275.108 0        45.000  
        45.000                                                  
 22  1 14 11  1  7.0000000  0  0
 22  1 14 11  1  8.0010000  0  5E03E05E09E24E25
  25837940.175                   135779328.871 0                        44.000  
                  25837940.533   104038719.397          48.000  
  23390924.703                   122920155.666 0                        49.000  
                  23390924.381    94185579.207          53.000  
  23768428.827                   124903929.115 0                        45.000  
                  23768428.791    95705607.837          49.000  
  23640996.515                   124234320.247 0                        49.000  
                  23640994.639    95192544.393          53.000  
  25668458.246                   134888695.223 0                        46.000  
                  25668459.408   103356294.236          50.000  
 22  1 14 11  1  9.0010000  0 11G05G07G13G14G15G17G19G20G23G24G30
  22873332.192    22873329.333   120200149.963 0  93662099.248 0        46.000  
        44.000                                                  
  24350020.155    24350016.170   127960183.658 0  99709200.610 0        38.000  
        35.000                                                  
  20105046.679                   105653343.388 0                        49.000  
                                                                
  20602522.476    20602518.885   108267085.116 0  84363942.935 0        47.000  
        50.000                                                  
  21230988.790    21230984.305   111569636.557 0  86937366.530 0        49.000  
        46.000                                                  
  23223082.990    23223078.326   122037827.094 0  95094836.921 0        42.000  
        39.000                                                  
  24850248.122                   130589696.994 0                        27.000  
                                                                
  24251388.116                   127441841.973 0                        39.000  
                                                                
  24652180.688    24652176.596   129547512.428 0 100946114.671 0        42.000  
        41.000                                                  
  24207067.471    24207067.150   127209005.10010  99123908.335 0        37.000  
        39.000                                                  
  22306918.508    22306916.596   117223647.063 0  91343092.235 0        45.000  
        45.000                                                  
 22  1 14 11  1  8.0000000  0  0
 22  1 14 11  1  9.0010000  0  5E03E05E09E24E25
  25837503.081                   135777032.205 0                        44.000  
                  25837503.546   104036959.625          48.000  
  23390959.387                   122920337.839 0                        49.000  
                  23390959.047    94185718.797          53.000  
  23768906.913                   124906441.995 0                        45.000  
                  23768907.056    95707533.281          49.000  
  23641011.847                   124234400.909 0                        49.000  
                  23641009.881    95192606.199          53.000  
  25667997.690                   134886275.510 0                        46.000  
                  25667998.852   103354440.167          50.000  
 22  1 14 11  1 10.0010000  0 11G05G07G13G14G15G17G19G20G23G24G30
  22873879.770    22873876.840   120203027.453 0  93664341.446 0        46.000  
        44.000                                                  
  24350542.788    24350538.679   127962930.047 0  99711340.621 0        38.000  
        35.000                                                  
  20104958.442                   105652880.373 0                        49.000  
                                                                
  20602686.728    20602683.137   108267948.452 0  84364615.666 0        47.000  
        50.000                                                  
  21230599.835    21230595.439   111567592.814 0  86935774.011 0        49.000  
        46.000                                                  
  23222576.295    23222571.650   122035164.589 0  95092762.235 0        42.000  
        39.000                                                  
  24849571.189                   130586155.147 0                        27.000  
                                                                
  24252049.502                   127445317.713 0                        39.000  
                                                                
  24651735.481    24651731.478   129545172.771 0 100944291.548 0        42.000  
        41.000                                                  
  24206455.636    24206455.350   127205789.96810  99121403.056 0        37.000  
        39.000                                                  
  22307362.196    22307360.320   117225978.943 0  91344909.294 0        45.000  
        45.000                                                  
 22  1 14 11  1  9.0000000  0  0
 22  1 14 11  1 10.0010000  0  5E03E05E09E24E25
  25837065.933                   135774735.453 0                        44.000  
                  25837066.469   104035199.787          48.000  
  23390993.928                   122920520.130 0                        49.000  
                  23390993.624    94185858.474          53.000  
  23769384.981                   124908954.810 0                        45.000  
                  23769385.320    95709458.685          49.000  
  23641027.143                   124234481.641 0                        49.000  
                  23641025.284    95192668.066          53.000  
  25667537.259                   134883855.728 0                        46.000  
                  25667538.385   103352586.054          50.000  
 22  1 14 11  1 11.0010000  0 11G05G07G13G14G15G17G19G20G23G24G30
  22874427.384    22874424.382   120205905.220 0  93666583.846 0        46.000  
        44.000                                                  
  24351065.457    24351061.258   127965676.450 0  99713480.712 0        38.000  
        35.000                                                  
  20104870.419                   105652417.839 0                        49.000  
                                                                
  20602851.088    20602847.567   108268812.309 0  84365288.795 0        46.000  
        50.000                                                  
  21230211.023    21230206.663   111565549.525 0  86934181.832 0        49.000  
        46.000                                                  
  23222069.691    23222065.098   122032502.308 0  95090687.751 0        42.000  
        39.000                                                  
  24848896.652                   130582613.112 0                        27.000  
                                                                
  24252710.853                   127448793.391 0                        39.000  
                                                                
  24651290.346    24651286.397   129542833.523 0 100942468.757 0        42.000  
        42.000                                                  
  24205843.747    24205843.568   127202574.85810  99118897.804 0        37.000  
        39.000                                                  
  22307805.955    22307803.990   117228310.970 0  91346726.444 0        45.000  
        45.000                                                  
 22  1 14 11  1 10.0000000  0  0
 22  1 14 11  1 11.0010000  0  5E03E05E09E24E25
  25836628.911                   135772438.854 0                        44.000  
                  25836629.500   104033440.044          48.000  
  23391028.701                   122920702.758 0                        49.000  
                  23391028.504    94185998.408          53.000  
  23769863.281                   124911467.804 0                        45.000  
                  23769863.477    95711384.223          49.000  
  23641042.528                   124234562.700 0                        49.000  
                  23641040.848    95192730.167          53.000  
  25667076.738                   134881436.117 0                        46.000  
                  25667077.954   103350732.075          50.000  
 22  1 14 11  1 12.0010000  0 11G05G07G13G14G15G17G19G20G23G24G30
  22874975.088    22874972.300   120208783.867 0  93668826.949 0        46.000  
        44.000                                                  
  24351588.216    24351583.909   127968423.466 0  99715621.212 0        38.000  
        35.000                                                  
  20104782.682                   105651956.362 0                        49.000  
                                                                
  20603015.697    20603012.195   108269677.264 0  84365962.788 0        46.000  
        50.000                                                  
  21229822.390    21229818.083   111563507.255 0  86932590.454 0        49.000  
        46.000                                                  
  23221563.301    23221558.619   122029840.854 0  95088613.882 0        42.000  
        39.000                                                  
  24848224.258                   130579071.652 0                        28.000  
                                                                
  24253372.400                   127452269.618 0                        39.000  
                                                                
  24650845.407    24650841.512   129540495.296 0 100940646.787 0        42.000  
        41.000                                                  
  24205232.072    24205231.876   127199360.36610  99116392.999 0        37.000  
        39.000                                                  
  22308249.822    22308247.821   117230643.722 0  91348544.174 0        45.000  
        45.000                                                  
 22  1 14 11  1 11.0000000  0  0
 22  1 14 11  1 12.0010000  0  5E03E05E09E24E25
  25836191.781                   135770142.965 0                        44.000  
                  25836192.549   104031680.863          48.000  
  23391063.510                   122920886.323 0                        49.000  
                  23391063.474    94186139.059          53.000  
  23770341.456                   124913981.555 0                        45.000  
                  23770341.831    95713310.351          49.000  
  23641058.003                   124234644.653 0                        49.000  
                  23641056.359    95192792.964          53.000  
  25666616.504                   134879017.269 0                        46.000  
                  25666617.665   103348878.681          50.000  
 22  1 14 11  1 13.0010000  0 11G05G07G13G14G15G17G19G20G23G24G30
  22875522.952    22875520.182   120211662.887 0  93671070.337 0        46.000  
        44.000                                                  
  24352110.974    24352106.614   127971170.574 0  99717761.813 0        38.000  
        35.000                                                  
  20104694.945                   105651495.460 0                        49.000  
                                                                
  20603180.503    20603177.019   108270542.847 0  84366637.271 0        46.000  
        50.000                                                  
  21229433.971    21229429.629   111561465.518 0  86930999.489 0        49.000  
        46.000                                                  
  23221056.928    23221052.247   122027179.732 0  95086540.276 0        42.000  
        39.000                                                  
  24847552.955                   130575530.178 0                        28.000  
                                                                
  24254034.000                   127455745.912 0                        39.000  
                                                                
  24650400.522    24650396.573   129538157.603 0 100938825.213 0        42.000  
        41.000                                                  
  24204620.398    24204620.237   127196146.02110  99113888.308 0        37.000  
        39.000                                                  
  22308693.706    22308691.902   117232976.734 0  91350362.104 0        45.000  
        45.000                                                  
 22  1 14 11  1 12.0000000  0  0
 22  1 14 11  1 13.0010000  0  5E03E05E09E24E25
  25835755.098                   135767847.328 0                        44.000  
                  25835755.616   104029921.871          48.000  
  23391098.765                   122921070.333 0                        49.000  
                  23391098.461    94186280.052          53.000  
  23770820.006                   124916495.612 0                        45.000  
                  23770820.256    95715236.697          49.000  
  23641073.799                   124234727.023 0                        49.000  
                  23641072.012    95192856.084          53.000  
  25666156.448                   134876598.702 0                        46.000  
                  25666157.395   103347025.489          50.000  
 22  1 14 11  1 14.0010000  0 11G05G07G13G14G15G17G19G20G23G24G30
  22876070.816    22876068.011   120214541.997 0  93673313.809 0        46.000  
        44.000                                                  
  24352633.732    24352629.426   127973917.549 0  99719902.329 0        38.000  
        35.000                                                  
  20104607.333                   105651034.851 0                        49.000  
                                                                
  20603345.220    20603341.896   108271408.768 0  84367312.014 0        46.000  
        50.000                                                  
  21229045.391    21229041.174   111559424.049 0  86929408.745 0        49.000  
        46.000                                                  
  23220550.645    23220545.785   122024518.681 0  95084466.715 0        42.000  
        39.000                                                  
  24846881.562                   130571988.440 0                        28.000  
                                                                
  24254695.529                   127459221.975 0                        39.000  
                                                                
  24649955.673    24649951.902   129535820.141 0 100937003.805 0        42.000  
        41.000                                                  
  24204008.616    24204008.562   127192931.51810  99111383.513 0        37.000  
        39.000                                                  
  22309137.644    22309135.732   117235309.688 0  91352180.004 0        45.000  
        45.000                                                  
 22  1 14 11  1 13.0000000  0  0
 22  1 14 11  1 14.0010000  0  5E03E05E09E24E25
  25835318.200                   135765551.654 0                        44.000  
                  25835318.986   104028162.854          48.000  
  23391133.628                   122921254.511 0                        49.000  
                  23391133.467    94186421.177          53.000  
  23771298.396                   124919009.654 0                        45.000  
                  23771298.735    95717163.045          49.000  
  23641089.381                   124234809.537 0                        49.000  
                  23641087.737    95192919.302          53.000  
  25665696.017                   134874180.124 0                        46.000  
                  25665697.071   103345172.306          50.000  
 22  1 14 11  1 15.0010000  0 11G05G07G13G14G15G17G19G20G23G24G30
  22876618.681    22876615.982   120217421.316 0  93675557.418 0        46.000  
        44.000                                                  
  24353156.508    24353152.202   127976664.448 0  99722042.770 0        38.000  
        35.000                                                  
  20104519.811                   105650574.636 0                        49.000  
                                                                
  20603510.061    20603506.738   108272275.114 0  84367987.094 0        46.000  
        50.000                                                  
  21228656.919    21228652.648   111557382.938 0  86927818.266 0        49.000  
        46.000                                                  
  23220044.291    23220039.484   122021857.767 0  95082393.280 0        42.000  
        39.000                                                  
  24846208.668                   130568446.531 0                        28.000  
                                                                
  24255356.969                   127462697.899 0                        39.000  
                                                                
  24649510.895    24649507.089   129533483.018 0 100935182.677 0        42.000  
        41.000                                                  
  24203396.816    24203396.852   127189716.95910  99108878.653 0        38.000  
        39.000                                                  
  22309581.529    22309579.706   117237642.716 0  91353997.952 0        45.000  
        45.000                                                  
 22  1 14 11  1 14.0000000  0  0
 22  1 14 11  1 15.0010000  0  5E03E05E09E24E25
  25834881.499                   135763256.049 0                        44.000  
                  25834881.999   104026403.878          48.000  
  23391168.508                   122921438.938 0                        49.000  
                  23391168.615    94186562.498          53.000  
  23771776.785                   124921523.795 0                        45.000  
                  23771777.107    95719089.472          49.000  
  23641105.141                   124234892.274 0                        49.000  
                  23641103.533    95192982.706          53.000  
  25665235.675                   134871761.640 0                        46.000  
                  25665236.980   103343319.188          50.000  
 22  1 14 11  1 16.0010000  0 11G05G07G13G14G15G17G19G20G23G24G30
  22877166.706    22877163.936   120220300.885 0  93677801.249 0        46.000  
        44.000                                                  
  24353679.159    24353674.942   127979411.359 0  99724183.195 0        38.000  
        35.000                                                  
  20104432.253                   105650114.878 0                        49.000  
                                                                
  20603675.064    20603671.776   108273141.985 0  84368662.566 0        47.000  
        50.000                                                  
  21228268.589    21228264.408   111555342.243 0  86926228.110 0        49.000  
        46.000                                                  
  23219538.008    23219533.183   122019197.076 0  95080320.022 0        42.000  
        39.000                                                  
  24845535.989                   130564904.467 0                        29.000  
                                                                
  24256018.409                   127466173.780 0                        39.000  
                                                                
  24649066.153    24649062.257   129531146.328 0 100933361.875 0        42.000  
        41.000                                                  
  24202785.196    24202785.124   127186502.41110  99106373.804 0        38.000  
        39.000                                                  
  22310025.467    22310023.573   117239975.860 0  91355815.984 0        45.000  
        45.000                                                  
 22  1 14 11  1 15.0000000  0  0
 22  1 14 11  1 16.0010000  0  5E03E05E09E24E25
  25834444.673                   135760960.545 0                        44.000  
                  25834445.316   104024644.992          49.000  
  23391203.799                   122921623.703 0                        49.000  
                  23391203.638    94186704.066          53.000  
  23772255.210                   124924038.104 0                        45.000  
                  23772255.443    95721016.023          49.000  
  23641121.027                   124234975.315 0                        49.000  
                  23641119.204    95193046.338          53.000  
  25664775.458                   134869343.317 0                        46.000  
                  25664776.691   103341466.188          50.000  
 22  1 14 11  1 17.0010000  0 11G05G07G13G14G15G17G19G20G23G24G30
  22877714.713    22877712.158   120223180.964 0  93680045.452 0        46.000  
        44.000                                                  
  24354201.882    24354197.772   127982158.475 0  99726323.816 0        38.000  
        35.000                                                  
  20104344.909                   105649655.790 0                        49.000  
                                                                
  20603840.245    20603836.957   108274009.546 0  84369338.590 0        47.000  
        50.000                                                  
  21227880.367    21227876.185   111553302.188 0  86924638.459 0        49.000  
        46.000                                                  
  23219031.742    23219026.918   122016536.822 0  95078247.081 0        42.000  
        39.000                                                  
  24844862.184                   130561362.570 0                        29.000  
                                                                
  24256679.920                   127469649.795 0                        39.000  
                                                                
  24648621.571    24648617.712   129528810.258 0 100931541.544 0        42.000  
        41.000                                                  
  24202173.485    24202173.485   127183288.03110  99103869.120 0        38.000  
        39.000                                                  
  22310469.405    22310467.743   117242309.351 0  91357634.285 0        45.000  
        45.000                                                  
 22  1 14 11  1 16.0000000  0  0
 22  1 14 11  1 17.0010000  0  5E03E05E09E24E25
  25834007.722                   135758665.410 0                        44.000  
                  25834008.454   104022886.380          49.000  
  23391239.019                   122921809.013 0                        49.000  
                  23391238.966    94186846.067          53.000  
  23772733.689                   124926552.791 0                        45.000  
                  23772734.118    95722942.857          49.000  
  23641136.876                   124235058.874 0                        49.000  
                  23641135.232    95193110.361          53.000  
  25664315.152                   134866925.363 0                        46.000  
                  25664316.511   103339613.477          50.000  
 22  1 14 11  1 18.0010000  0 11G05G07G13G14G15G17G19G20G23G24G30
  22878262.845    22878260.272   120226061.421 0  93682289.958 0        46.000  
        44.000                                                  
  24354724.694    24354720.548   127984905.738 0  99728464.523 0        38.000  
        35.000                                                  
  20104257.637                   105649197.300 0                        49.000  
                                                                
  20604005.569    20604002.210   108274877.761 0  84370015.121 0        47.000  
        50.000                                                  
  21227492.376    21227488.088   111551262.691 0  86923049.240 0        48.000  
        46.000                                                  
  23218525.477    23218520.760   122013876.918 0  95076174.444 0        42.000  
        39.000                                                  
  24844188.646                   130557820.656 0                        29.000  
                                                                
  24257341.360                   127473125.887 0                        39.000  
                                                                
  24648177.079    24648173.309   129526474.713 0 100929721.660 0        42.000  
        41.000                                                  
  24201561.864    24201561.900   127180073.87410  99101364.557 0        38.000  
        39.000                                                  
  22310913.486    22310911.806   117244643.106 0  91359452.797 0        45.000  
        45.000                                                  
 22  1 14 11  1 17.0000000  0  0
 22  1 14 11  1 18.0010000  0  5E03E05E09E24E25
  25833571.038                   135756370.522 0                        44.000  
                  25833571.860   104021127.954          49.000  
  23391274.382                   122921994.796 0                        49.000  
                  23391274.346    94186988.408          53.000  
  23773212.168                   124929067.795 0                        45.000  
                  23773212.579    95724869.927          49.000  
  23641152.851                   124235142.864 0                        49.000  
                  23641151.190    95193174.717          53.000  
  25663855.293                   134864507.718 0                        46.000  
                  25663856.437   103337760.994          50.000  
 22  1 14 11  1 19.0010000  0 11G05G07G13G14G15G17G19G20G23G24G30
  22878811.174    22878808.494   120228942.515 0  93684534.969 0        46.000  
        44.000                                                  
  24355247.613    24355243.431   127987653.356 0  99730605.533 0        38.000  
        35.000                                                  
  20104170.454                   105648739.620 0                        49.000  
                                                                
  20604171.054    20604167.516   108275746.839 0  84370692.330 0        47.000  
        50.000                                                  
  21227104.386    21227100.205   111549223.983 0  86921460.641 0        48.000  
        46.000                                                  
  23218019.444    23218014.673   122011217.586 0  95074102.235 0        42.000  
        39.000                                                  
  24843515.395                   130554279.043 0                        29.000  
                                                                
  24258002.889                   127476602.276 0                        39.000  
                                                                
  24647732.802    24647729.049   129524139.963 0 100927902.365 0        42.000  
        41.000                                                  
  24200950.261    24200950.369   127176860.05410  99098860.293 0        37.000  
        39.000                                                  
  22311357.710    22311356.084   117246977.352 0  91361271.683 0        45.000  
        45.000                                                  
 22  1 14 11  1 18.0000000  0  0
 22  1 14 11  1 19.0010000  0  5E03E05E09E24E25
  25833134.516                   135754076.120 0                        44.000  
                  25833135.302   104019369.911          49.000  
  23391309.852                   122922181.269 0                        49.000  
                  23391309.780    94187131.292          53.000  
  23773690.790                   124931583.301 0                        45.000  
                  23773691.308    95726797.408          49.000  
  23641168.880                   124235227.517 0                        49.000  
                  23641167.272    95193239.588          53.000  
  25663395.309                   134862090.587 0                        46.000  
                  25663396.470   103335908.906          50.000  
 22  1 14 11  1 20.0010000  0 11G05G07G13G14G15G17G19G20G23G24G30
  22879359.449    22879356.733   120231823.777 0  93686780.103 0        46.000  
        44.000                                                  
  24355770.353    24355766.279   127990400.900 0  99732746.488 0        38.000  
        35.000                                                  
  20104083.574                   105648282.324 0                        49.000  
                                                                
  20604336.504    20604333.109   108276616.340 0  84371369.865 0        47.000  
        50.000                                                  
  21226716.414    21226712.286   111547185.621 0  86919872.312 0        48.000  
        46.000                                                  
  23217513.322    23217508.551   122008558.409 0  95072030.161 0        41.000  
        39.000                                                  
  24842839.785                   130550737.214 0                        29.000  
                                                                
  24258664.364                   127480078.546 0                        39.000  
                                                                
  24647288.560    24647284.736   129521805.536 0 100926083.333 0        42.000  
        41.000                                                  
  24200338.623    24200338.837   127173646.15010  99096355.979 0        37.000  
        39.000                                                  
  22311801.916    22311800.236   117249311.635 0  91363090.607 0        45.000  
        45.000                                                  
 22  1 14 11  1 19.0000000  0  0
 22  1 14 11  1 20.0010000  0  5E03E05E09E24E25
  25832697.994                   135751781.766 0                        44.000  
                  25832698.690   104017611.911          49.000  
  23391345.429                   122922367.985 0                        49.000  
                  23391345.286    94187274.365          53.000  
  23774169.465                   124934098.910 0                        45.000  
                  23774170.019    95728724.946          49.000  
  23641184.926                   124235312.387 0                        49.000  
                  23641183.318    95193304.620          53.000  
  25662935.181                   134859673.526 0                        46.000  
                  25662936.539   103334056.890          50.000  
 22  1 14 11  1 21.0010000  0 11G05G07G13G14G15G17G19G20G23G24G30
  22879907.850    22879905.116   120234705.147 0  93689025.329 0        46.000  
        44.000                                                  
  24356293.237    24356289.127   127993148.295 0  99734887.279 0        38.000  
        35.000                                                  
  20103996.570                   105647825.304 0                        49.000  
                                                                
  20604502.042    20604498.683   108277486.166 0  84372047.652 0        47.000  
        50.000                                                  
  21226328.621    21226324.350   111545147.511 0  86918284.179 0        48.000  
        46.000                                                  
  23217007.289    23217002.554   122005899.280 0  95069958.107 0        41.000  
        39.000                                                  
  24842164.390                   130547195.074 0                        29.000  
                                                                
  24259325.840                   127483554.559 0                        39.000  
                                                                
  24646844.336    24646840.476   129519471.349 0 100924264.491 0        41.000  
        41.000                                                  
  24199726.877    24199727.252   127170432.10410  99093851.521 0        38.000  
        39.000                                                  
  22312246.068    22312244.317   117251645.874 0  91364909.502 0        45.000  
        45.000                                                  
 22  1 14 11  1 20.0000000  0  0
 22  1 14 11  1 21.0010000  0  5E03E05E09E24E25
  25832261.346                   135749487.377 0                        44.000  
                  25832262.132   104015853.863          49.000  
  23391380.899                   122922554.859 0                        49.000  
                  23391380.881    94187417.554          53.000  
  23774648.033                   124936614.507 0                        45.000  
                  23774648.605    95730652.483          49.000  
  23641201.294                   124235397.395 0                        49.000  
                  23641199.561    95193369.752          53.000  
  25662475.304                   134857256.462 0                        46.000  
                  25662476.519   103332204.849          50.000  
 22  1 14 11  1 22.0010000  0 11G05G07G13G14G15G17G19G20G23G24G30
  22880456.250    22880453.480   120237586.931 0  93691270.879 0        46.000  
        44.000                                                  
  24356816.102    24356811.974   127995895.852 0  99737028.248 0        38.000  
        35.000                                                  
  20103909.727                   105647368.939 0                        49.000  
                                                                
  20604667.760    20604664.454   108278356.679 0  84372725.976 0        47.000  
        50.000                                                  
  21225940.791    21225936.681   111543110.006 0  86916696.504 0        48.000  
        46.000                                                  
  23216501.328    23216496.736   122003240.534 0  95067886.367 0        41.000  
        39.000                                                  
  24841489.405                   130543653.036 0                        29.000  
                                                                
  24259987.315                   127487030.695 0                        39.000  
                                                                
  24646400.237    24646396.342   129517137.750 0 100922446.122 0        41.000  
        41.000                                                  
  24199115.220    24199115.595   127167218.23410  99091347.228 0        37.000  
        39.000                                                  
  22312690.274    22312688.577   117253980.410 0  91366728.627 0        45.000  
        45.000                                                  
 22  1 14 11  1 21.0000000  0  0
 22  1 14 11  1 22.0010000  0  5E03E05E09E24E25
  25831824.752                   135747193.275 0                        44.000  
                  25831825.521   104014096.058          49.000  
  23391416.601                   122922742.247 0                        49.000  
                  23391416.566    94187561.142          53.000  
  23775126.870                   124939130.456 0                        45.000  
                  23775127.388    95732580.282          49.000  
  23641217.376                   124235482.861 0                        49.000  
                  23641215.786    95193435.239          53.000  
  25662015.445                   134854839.729 0                        46.000  
                  25662016.642   103330353.078          50.000  
 22  1 14 11  1 23.0010000  0 11G05G07G13G14G15G17G19G20G23G24G30
  22881004.811    22881001.934   120240469.099 0  93693516.722 0        46.000  
        44.000                                                  
  24357338.932    24357334.929   127998643.520 0  99739169.269 0        38.000  
        35.000                                                  
  20103822.990                   105646913.119 0                        49.000  
                                                                
  20604833.548    20604830.261   108279227.791 0  84373404.759 0        47.000  
        50.000                                                  
  21225553.176    21225549.031   111541073.030 0  86915109.245 0        48.000  
        46.000                                                  
  23215995.456    23215990.864   122000582.115 0  95065814.869 0        41.000  
        39.000                                                  
  24840815.779                   130540110.981 0                        29.000  
                                                                
  24260648.880                   127490506.857 0                        39.000  
                                                                
  24645956.210    24645952.332   129514804.661 0 100920628.122 0        41.000  
        41.000                                                  
  24198503.527    24198504.028   127164004.53210  99088843.010 0        37.000  
        39.000                                                  
  22313134.659    22313132.908   117256315.174 0  91368547.915 0        45.000  
        45.000                                                  
 22  1 14 11  1 22.0000000  0  0
 22  1 14 11  1 23.0010000  0  5E03E05E09E24E25
  25831388.069                   135744899.414 0                        44.000  
                  25831389.016   104012338.422          49.000  
  23391452.286                   122922930.061 0                        49.000  
                  23391452.286    94187705.049          53.000  
  23775605.670                   124941646.655 0                        45.000  
                  23775606.242    95734508.289          49.000  
  23641233.709                   124235568.752 0                        49.000  
                  23641232.154    95193501.056          53.000  
  25661555.443                   134852423.249 0                        46.000  
                  25661556.729   103328501.499          50.000  
