     2.11           OBSERVATION DATA    M (Mixed)           RINEX VERSION / TYPE
RTCM3TORINEX on                         2022-01-06 03:59    PGM / RUN BY / DATE
RTCM3TORINEX                                                MARKER NAME
                                                            OBSERVER / AGENCY
                                                            REC # / TYPE / VERS
                                                            ANT # / TYPE
         .0000         .0000         .0000                  APPROX POSITION XYZ
         .0000         .0000         .0000                  ANTENNA: DELTA H/E/N
     1     1                                                WAVELENGTH FACT L1/2
     9    C1    C2    L1    L2    S1    S2    C7    L7    S7# / TYPES OF OBSERV
  2022     1     6     3    59   20.0010000     GPS         TIME OF FIRST OBS
                                                            END OF HEADER
 22  1  6  3 59 20.0010000  0  7E03E05E08E09E13E15E18
  23999896.538                   126119645.977 0                        48.000  
                  23999895.806    96637134.009          53.000  
  23922052.963                   125711236.703 0                        47.000  
                  23922052.409    96323964.320          52.000  
  26090104.950                   137104476.424 0                        36.000  
                  26090103.146   105054079.410          41.000  
  26096458.460                   137137594.177 0                        35.000  
                  26096458.139   105079395.395          42.000  
  27654013.026                   145322456.047 0                        40.000  
                  27654011.275   111350972.489          42.000  
  23703080.917                   124560330.239 0                        48.000  
                  23703080.524    95442333.431          53.000  
  20805130.679                   109331698.168 0                        46.000  
                  20805130.375    83773630.336          51.000  
 22  1  6  3 59 21.0010000  0  9G01G03G04G09G17G19G21G31G32
  20503040.658    20503037.566   107743930.114 0  83957128.337 0        49.000  
        48.000                                                  
  20351034.044    20351031.488   106946084.045 0  83334615.543 0        50.000  
        49.000                                                  
  21478627.413    21478622.374   112871516.857 0  87951833.336 0        47.000  
        47.000                                                  
  24364295.682    24364292.698   128034906.63210  99767460.621 0        38.000  
        39.000                                                  
  22553920.422    22553914.079   118521264.343 0  92353951.622 0        46.000  
        44.000                                                  
  22882195.192                   120246974.111 0                        44.000  
                                                                
  22287090.844                   117119729.380 0                        46.000  
                                                                
  22576372.385    22576365.791   118639674.941 0  92446502.277 0        44.000  
        40.000                                                  
  25366448.993    25366445.848   133301492.453 0 103871154.238 0        39.000  
        36.000                                                  
 22  1  6  3 59 20.0000000  0  0
 22  1  6  3 59 21.0010000  0  7E03E05E08E09E13E15E18
  23999636.187                   126118277.920 0                        48.000  
                  23999635.401    96636085.757          53.000  
  23922301.039                   125712538.386 0                        47.000  
                  23922300.163    96324961.711          52.000  
  26089579.780                   137101716.223 0                        36.000  
                  26089577.975   105051964.437          41.000  
  26096977.841                   137140323.546 0                        35.000  
                  26096977.430   105081486.748          42.000  
  27653465.913                   145319579.037 0                        41.000  
                  27653463.840   111348768.032          43.000  
  23702873.171                   124559238.155 0                        48.000  
                  23702872.617    95441496.641          53.000  
  20805899.494                   109335737.092 0                        46.000  
                  20805899.011    83776725.097          51.000  
 22  1  6  3 59 22.0010000  0  9G01G03G04G09G17G19G21G31G32
  20503384.118    20503380.955   107745735.366 0  83958535.029 0        49.000  
        48.000                                                  
  20350937.283    20350934.817   106945575.640 0  83334219.392 0        50.000  
        49.000                                                  
  21478160.746    21478155.564   112869064.447 0  87949922.372 0        47.000  
        47.000                                                  
  24363617.910    24363614.836   128031344.46710  99764684.887 0        38.000  
        40.000                                                  
  22553958.287    22553952.033   118521463.427 0  92354106.767 0        46.000  
        44.000                                                  
  22881961.876                   120245747.867 0                        44.000  
                                                                
  22287553.205                   117122159.088 0                        46.000  
                                                                
  22576416.772    22576410.196   118639908.259 0  92446684.077 0        44.000  
        40.000                                                  
  25367104.947    25367101.820   133304939.295 0 103873840.120 0        39.000  
        36.000                                                  
 22  1  6  3 59 21.0000000  0  0
 22  1  6  3 59 22.0010000  0  7E03E05E08E09E13E15E18
  23999375.764                   126116910.352 0                        48.000  
                  23999375.156    96635037.881          53.000  
  23922548.668                   125713840.521 0                        47.000  
                  23922547.935    96325959.453          52.000  
  26089054.538                   137098956.304 0                        36.000  
                  26089052.751   105049849.698          41.000  
  26097497.437                   137143053.132 0                        35.000  
                  26097496.954   105083578.253          42.000  
  27652918.334                   145316702.303 0                        40.000  
                  27652916.744   111346563.770          43.000  
  23702665.301                   124558146.637 0                        48.000  
                  23702664.962    95440660.284          53.000  
  20806668.201                   109339777.300 0                        46.000  
                  20806667.737    83779820.840          51.000  
 22  1  6  3 59 23.0010000  0  9G01G03G04G09G17G19G21G31G32
  20503727.847    20503724.559   107747541.243 0  83959942.206 0        49.000  
        48.000                                                  
  20350840.629    20350838.038   106945067.693 0  83333823.585 0        49.000  
        49.000                                                  
  21477694.096    21477688.932   112866612.551 0  87948011.801 0        47.000  
        47.000                                                  
  24362939.906    24362937.064   128027782.49810  99761909.348 0        38.000  
        40.000                                                  
  22553996.205    22553990.004   118521663.216 0  92354262.435 0        46.000  
        44.000                                                  
  22881728.614                   120244522.403 0                        44.000  
                                                                
  22288015.655                   117124589.220 0                        46.000  
                                                                
  22576461.319    22576454.779   118640142.370 0  92446866.509 0        44.000  
        40.000                                                  
  25367760.883    25367757.845   133308386.262 0 103876526.080 0        39.000  
        36.000                                                  
 22  1  6  3 59 22.0000000  0  0
 22  1  6  3 59 23.0010000  0  7E03E05E08E09E13E15E18
  23999115.966                   126115543.199 0                        48.000  
                  23999114.965    96633990.315          53.000  
  23922796.529                   125715143.011 0                        47.000  
                  23922795.689    96326957.463          52.000  
  26088529.403                   137096196.575 0                        36.000  
                  26088527.634   105047735.094          41.000  
  26098016.871                   137145782.806 0                        35.000  
                  26098016.425   105085669.810          42.000  
  27652370.863                   145313825.719 0                        40.000  
                  27652369.255   111344359.636          43.000  
  23702457.699                   124557055.594 0                        48.000  
                  23702457.359    95439824.290          53.000  
  20807437.391                   109343818.681 0                        46.000  
                  20807436.802    83782917.485          51.000  
 22  1  6  3 59 24.0010000  0  9G01G03G04G09G17G19G21G31G32
  20504071.718    20504068.287   107749347.898 0  83961349.991 0        49.000  
        48.000                                                  
  20350744.226    20350741.403   106944560.298 0  83333428.211 0        49.000  
        49.000                                                  
  21477227.554    21477222.408   112864161.324 0  87946101.738 0        47.000  
        47.000                                                  
  24362262.080    24362259.239   128024220.89110  99759134.070 0        38.000  
        39.000                                                  
  22554034.391    22554028.173   118521863.848 0  92354418.774 0        46.000  
        44.000                                                  
  22881495.709                   120243297.840 0                        44.000  
                                                                
  22288478.213                   117127019.908 0                        46.000  
                                                                
  22576506.081    22576499.523   118640377.395 0  92447049.651 0        44.000  
        40.000                                                  
  25368416.819    25368413.817   133311833.511 0 103879212.217 0        39.000  
        36.000                                                  
 22  1  6  3 59 23.0000000  0  0
 22  1  6  3 59 24.0010000  0  7E03E05E08E09E13E15E18
  23998855.721                   126114176.564 0                        48.000  
                  23998855.025    96632943.158          53.000  
  23923044.569                   125716446.000 0                        47.000  
                  23923043.622    96327955.848          52.000  
  26088004.393                   137093437.149 0                        36.000  
                  26088002.642   105045620.745          41.000  
  26098536.449                   137148512.738 0                        35.000  
                  26098535.877   105087761.549          42.000  
  27651823.589                   145310949.449 0                        40.000  
                  27651821.909   111342155.748          43.000  
  23702250.257                   124555965.165 0                        48.000  
                  23702249.793    95438988.759          53.000  
  20808206.635                   109347861.382 0                        46.000  
                  20808206.152    83786015.137          51.000  
 22  1  6  3 59 25.0010000  0  9G01G03G04G09G17G19G21G31G32
  20504415.500    20504411.962   107751154.606 0  83962757.816 0        49.000  
        48.000                                                  
  20350647.662    20350644.856   106944052.799 0  83333032.761 0        49.000  
        49.000                                                  
  21476761.048    21476755.830   112861710.039 0  87944191.662 0        47.000  
        47.000                                                  
  24361584.111    24361581.449   128020658.97810  99756358.569 0        38.000  
        39.000                                                  
  22554072.684    22554066.359   118522064.602 0  92354575.208 0        46.000  
        43.000                                                  
  22881262.786                   120242073.488 0                        44.000  
                                                                
  22288940.627                   117129450.442 0                        46.000  
                                                                
  22576550.861    22576544.374   118640612.635 0  92447232.946 0        44.000  
        40.000                                                  
  25369072.720    25369069.753   133315280.311 0 103881898.030 0        39.000  
        36.000                                                  
 22  1  6  3 59 24.0000000  0  0
 22  1  6  3 59 25.0010000  0  7E03E05E08E09E13E15E18
  23998595.727                   126112809.786 0                        49.000  
                  23998594.887    96631895.889          53.000  
  23923292.323                   125717748.769 0                        47.000  
                  23923291.608    96328954.080          52.000  
  26087479.473                   137090677.403 0                        36.000  
                  26087477.400   105043506.096          41.000  
  26099056.044                   137151242.168 0                        35.000  
                  26099055.222   105089852.946          42.000  
  27651275.903                   145308072.774 0                        40.000  
                  27651274.509   111339951.553          43.000  
  23702042.655                   124554874.641 0                        48.000  
                  23702042.351    95438153.170          53.000  
  20808976.236                   109351904.706 0                        46.000  
                  20808975.539    83789113.268          51.000  
 22  1  6  3 59 26.0010000  0  9G01G03G04G09G17G19G21G31G32
  20504759.479    20504756.066   107752962.194 0  83964166.323 0        49.000  
        48.000                                                  
  20350551.169    20350548.346   106943545.985 0  83332637.845 0        49.000  
        49.000                                                  
  21476294.738    21476289.430   112859259.528 0  87942282.170 0        46.000  
        47.000                                                  
  24360906.393    24360903.766   128017097.50610  99753583.416 0        38.000  
        40.000                                                  
  22554111.121    22554104.759   118522266.313 0  92354732.379 0        46.000  
        43.000                                                  
  22881030.042                   120240850.155 0                        44.000  
                                                                
  22289403.274                   117131881.661 0                        46.000  
                                                                
  22576595.873    22576589.315   118640848.929 0  92447417.066 0        44.000  
        41.000                                                  
  25369728.656    25369725.654   133318727.426 0 103884584.112 0        39.000  
        36.000                                                  
 22  1  6  3 59 25.0000000  0  0
 22  1  6  3 59 26.0010000  0  7E03E05E08E09E13E15E18
  23998335.644                   126111443.657 0                        49.000  
                  23998334.839    96630849.114          53.000  
  23923540.345                   125719052.157 0                        47.000  
                  23923539.666    96329952.785          52.000  
  26086954.427                   137087918.053 0                        36.000  
                  26086952.372   105041391.798          41.000  
  26099575.568                   137153971.959 0                        35.000  
                  26099574.728   105091944.604          42.000  
  27650728.378                   145305196.531 0                        40.000  
                  27650727.235   111337747.667          43.000  
  23701835.303                   124553784.852 0                        48.000  
                  23701834.892    95437318.130          53.000  
  20809745.872                   109355949.456 0                        46.000  
                  20809745.247    83792212.492          51.000  
 22  1  6  3 59 27.0010000  0  9G01G03G04G09G17G19G21G31G32
  20505103.547    20505100.152   107754770.319 0  83965575.250 0        49.000  
        48.000                                                  
  20350454.801    20350451.996   106943039.534 0  83332243.203 0        49.000  
        49.000                                                  
  21475828.517    21475823.388   112856809.460 0  87940373.022 0        47.000  
        47.000                                                  
  24360228.692    24360225.994   128013536.23810  99750808.389 0        38.000  
        40.000                                                  
  22554149.557    22554143.285   118522468.631 0  92354890.043 0        46.000  
        44.000                                                  
  22880797.441                   120239627.508 0                        44.000  
                                                                
  22289865.921                   117134313.195 0                        46.000  
                                                                
  22576640.974    22576634.381   118641085.912 0  92447601.733 0        44.000  
        41.000                                                  
  25370384.663    25370381.625   133322174.607 0 103887270.218 0        39.000  
        37.000                                                  
 22  1  6  3 59 26.0000000  0  0
 22  1  6  3 59 27.0010000  0  7E03E05E08E09E13E15E18
  23998075.667                   126110077.841 0                        49.000  
                  23998075.006    96629802.582          53.000  
  23923788.242                   125720355.815 0                        48.000  
                  23923787.706    96330951.689          52.000  
  26086429.292                   137085158.797 0                        36.000  
                  26086427.523   105039277.590          41.000  
  26100094.931                   137156701.785 0                        35.000  
                  26100094.306   105094036.278          42.000  
  27650181.175                   145302320.369 0                        40.000  
                  27650179.960   111335543.853          43.000  
  23701627.969                   124552695.447 0                        48.000  
                  23701627.647    95436483.393          53.000  
  20810515.670                   109359995.306 0                        46.000  
                  20810515.116    83795312.564          51.000  
 22  1  6  3 59 28.0010000  0  9G01G03G04G09G17G19G21G31G32
  20505447.651    20505444.238   107756578.755 0  83966984.420 0        49.000  
        48.000                                                  
  20350358.398    20350355.575   106942533.189 0  83331848.653 0        49.000  
        49.000                                                  
  21475362.368    21475357.239   112854359.583 0  87938464.027 0        46.000  
        47.000                                                  
  24359550.938    24359548.258   128009974.89510  99748033.289 0        38.000  
        40.000                                                  
  22554188.190    22554181.900   118522671.323 0  92355047.973 0        46.000  
        44.000                                                  
  22880564.893                   120238405.304 0                        43.000  
                                                                
  22290328.693                   117136744.844 0                        46.000  
                                                                
  22576686.129    22576679.625   118641323.359 0  92447786.754 0        44.000  
        40.000                                                  
  25371040.599    25371037.508   133325621.542 0 103889956.119 0        39.000  
        36.000                                                  
 22  1  6  3 59 27.0000000  0  0
 22  1  6  3 59 28.0010000  0  7E03E05E08E09E13E15E18
  23997816.012                   126108712.120 0                        49.000  
                  23997815.083    96628756.116          53.000  
  23924036.407                   125721659.503 0                        47.000  
                  23924035.799    96331950.619          51.000  
  26085904.372                   137082399.453 0                        36.000  
                  26085902.514   105037163.267          41.000  
  26100614.241                   137159431.348 0                        35.000  
                  26100613.580   105096127.761          42.000  
  27649633.811                   145299444.032 0                        40.000  
                  27649632.578   111333339.904          43.000  
  23701420.706                   124551606.188 0                        48.000  
                  23701420.259    95435648.764          53.000  
  20811286.057                   109364042.016 0                        46.000  
                  20811285.146    83798413.281          51.000  
 22  1  6  3 59 29.0010000  0  9G01G03G04G09G17G19G21G31G32
  20505791.826    20505788.431   107758387.654 0  83968393.950 0        49.000  
        48.000                                                  
  20350261.941    20350259.332   106942027.135 0  83331454.314 0        49.000  
        49.000                                                  
  21474896.236    21474891.019   112851910.055 0  87936555.299 0        46.000  
        47.000                                                  
  24358873.202    24358870.539   128006413.58710  99745258.269 0        39.000  
        40.000                                                  
  22554226.787    22554220.550   118522874.560 0  92355206.335 0        46.000  
        44.000                                                  
  22880332.543                   120237183.729 0                        43.000  
                                                                
  22290791.447                   117139176.738 0                        46.000  
                                                                
  22576731.392    22576725.030   118641561.428 0  92447972.255 0        44.000  
        41.000                                                  
  25371696.518    25371693.444   133329068.434 0 103892642.019 0        39.000  
        36.000                                                  
 22  1  6  3 59 28.0000000  0  0
 22  1  6  3 59 29.0010000  0  7E03E05E08E09E13E15E18
  23997555.982                   126107346.618 0                        49.000  
                  23997555.375    96627709.822          53.000  
  23924284.429                   125722963.395 0                        47.000  
                  23924283.929    96332949.708          51.000  
  26085379.130                   137079640.139 0                        36.000  
                  26085377.397   105035048.973          41.000  
  26101133.658                   137162160.892 0                        35.000  
                  26101133.050   105098219.224          42.000  
  27649086.501                   145296567.720 0                        40.000  
                  27649085.250   111331135.977          43.000  
  23701213.318                   124550517.241 0                        48.000  
                  23701213.157    95434814.378          53.000  
  20812056.248                   109368089.744 0                        46.000  
                  20812055.479    83801514.789          51.000  
 22  1  6  3 59 30.0010000  0  9G01G03G04G09G17G19G21G31G32
  20506136.180    20506132.731   107760197.379 0  83969804.127 0        49.000  
        48.000                                                  
  20350165.859    20350163.072   106941521.714 0  83331060.489 0        49.000  
        49.000                                                  
  21474430.087    21474425.030   112849461.255 0  87934647.146 0        46.000  
        47.000                                                  
  24358195.591    24358192.892   128002852.73310  99742483.598 0        39.000  
        40.000                                                  
  22554265.598    22554259.451   118523078.686 0  92355365.399 0        46.000  
        44.000                                                  
  22880100.299                   120235963.113 0                        43.000  
                                                                
  22291254.344                   117141609.255 0                        46.000  
                                                                
  22576776.976    22576770.489   118641800.483 0  92448158.534 0        44.000  
        41.000                                                  
  25372352.579    25372349.380   133332515.624 0 103895328.144 0        39.000  
        36.000                                                  
 22  1  6  3 59 29.0000000  0  0
 22  1  6  3 59 30.0010000  0  7E03E05E08E09E13E15E18
  23997296.542                   126105981.739 0                        49.000  
                  23997295.523    96626664.008          53.000  
  23924532.719                   125724267.843 0                        47.000  
                  23924532.147    96333949.213          51.000  
  26084854.245                   137076881.170 0                        36.000  
                  26084852.476   105032934.995          41.000  
  26101653.182                   137164890.692 0                        35.000  
                  26101652.431   105100310.907          42.000  
  27648539.030                   145293691.756 0                        40.000  
                  27648537.922   111328932.327          43.000  
  23701006.305                   124549428.974 0                        48.000  
                  23701005.984    95433980.516          53.000  
  20812827.046                   109372138.855 0                        46.000  
                  20812825.938    83804617.352          51.000  
 22  1  6  3 59 31.0010000  0  9G01G03G04G09G17G19G21G31G32
  20506480.677    20506477.264   107762007.634 0  83971214.718 0        49.000  
        48.000                                                  
  20350069.795    20350066.990   106941016.646 0  83330666.922 0        49.000  
        49.000                                                  
  21473964.224    21473959.185   112847012.883 0  87932739.328 0        46.000  
        47.000                                                  
  24357517.962    24357515.353   127999292.04710  99739709.022 0        39.000  
        40.000                                                  
  22554304.624    22554298.388   118523283.422 0  92355524.933 0        46.000  
        44.000                                                  
  22879868.127                   120234743.180 0                        43.000  
                                                                
  22291717.223                   117144042.089 0                        46.000  
                                                                
  22576822.631    22576816.305   118642040.233 0  92448345.359 0        44.000  
        41.000                                                  
  25373008.551    25373005.388   133335962.841 0 103898014.296 0        39.000  
        36.000                                                  
 22  1  6  3 59 30.0000000  0  0
 22  1  6  3 59 31.0010000  0  7E03E05E08E09E13E15E18
  23997036.726                   126104617.161 0                        49.000  
                  23997035.779    96625618.427          53.000  
  23924781.206                   125725572.554 0                        47.000  
                  23924780.509    96334948.931          51.000  
  26084329.200                   137074122.337 0                        36.000  
                  26084327.484   105030821.056          41.000  
  26102172.652                   137167620.510 0                        35.000  
                  26102171.866   105102402.592          42.000  
  27647991.916                   145290815.908 0                        40.000  
                  27647990.773   111326728.740          43.000  
  23700799.203                   124548341.089 0                        48.000  
                  23700799.007    95433146.940          53.000  
  20813597.683                   109376189.042 0                        46.000  
                  20813596.468    83807720.742          51.000  
 22  1  6  3 59 32.0010000  0  9G01G03G04G09G17G19G21G31G32
  20506825.317    20506821.815   107763818.573 0  83972625.842 0        49.000  
        48.000                                                  
  20349973.928    20349971.087   106940512.073 0  83330273.749 0        49.000  
        49.000                                                  
  21473498.414    21473493.375   112844565.084 0  87930831.952 0        46.000  
        47.000                                                  
  24356840.422    24356837.831   127995731.64010  99736934.669 0        39.000  
        39.000                                                  
  22554343.632    22554337.503   118523488.898 0  92355685.040 0        46.000  
        44.000                                                  
  22879636.151                   120233524.073 0                        43.000  
                                                                
  22292180.174                   117146475.416 0                        46.000  
                                                                
  22576868.358    22576861.996   118642280.811 0  92448532.825 0        44.000  
        41.000                                                  
  25373664.558    25373661.395   133339410.228 0 103900700.576 0        39.000  
        36.000                                                  
 22  1  6  3 59 31.0000000  0  0
 22  1  6  3 59 32.0010000  0  7E03E05E08E09E13E15E18
  23996777.322                   126103253.054 0                        49.000  
                  23996776.250    96624573.195          53.000  
  23925029.460                   125726877.668 0                        47.000  
                  23925028.781    96335948.958          51.000  
  26083804.065                   137071363.726 0                        36.000  
                  26083802.635   105028707.316          41.000  
  26102692.373                   137170350.489 0                        35.000  
                  26102691.426   105104494.394          42.000  
  27647444.767                   145287940.260 0                        40.000  
                  27647443.462   111324525.330          43.000  
  23700592.226                   124547253.732 0                        48.000  
                  23700592.101    95432313.770          53.000  
  20814368.982                   109380240.471 0                        46.000  
                  20814367.499    83810825.083          51.000  
 22  1  6  3 59 33.0010000  0  9G01G03G04G09G17G19G21G31G32
  20507170.028    20507166.490   107765629.844 0  83974037.219 0        49.000  
        48.000                                                  
  20349877.846    20349875.094   106940007.642 0  83329880.690 0        50.000  
        49.000                                                  
  21473032.658    21473027.655   112842117.501 0  87928924.743 0        46.000  
        47.000                                                  
  24356162.936    24356160.345   127992171.14710  99734160.257 0        39.000  
        39.000                                                  
  22554382.748    22554376.654   118523694.776 0  92355845.467 0        46.000  
        44.000                                                  
  22879404.211                   120232305.434 0                        43.000  
                                                                
  22292643.303                   117148908.851 0                        46.000  
                                                                
  22576914.335    22576907.938   118642521.876 0  92448720.663 0        44.000  
        41.000                                                  
  25374320.530    25374317.331   133342857.401 0 103903386.696 0        38.000  
        36.000                                                  
 22  1  6  3 59 32.0000000  0  0
 22  1  6  3 59 33.0010000  0  7E03E05E08E09E13E15E18
  23996517.828                   126101889.037 0                        49.000  
                  23996516.702    96623528.039          53.000  
  23925277.857                   125728182.852 0                        47.000  
                  23925277.250    96336949.025          52.000  
  26083278.716                   137068605.019 0                        36.000  
                  26083277.626   105026593.501          41.000  
  26103211.825                   137173080.248 0                        35.000  
                  26103210.860   105106586.034          42.000  
  27646897.778                   145285064.486 0                        41.000  
                  27646896.223   111322321.813          43.000  
  23700385.285                   124546166.551 0                        48.000  
                  23700385.178    95431480.740          53.000  
  20815140.066                   109384292.777 0                        46.000  
                  20815138.601    83813930.090          51.000  
 22  1  6  3 59 34.0010000  0  9G01G03G04G09G17G19G21G31G32
  20507514.668    20507511.201   107767441.311 0  83975448.750 0        49.000  
        48.000                                                  
  20349781.872    20349779.156   106939503.204 0  83329487.619 0        50.000  
        49.000                                                  
  21472566.830    21472561.970   112839669.998 0  87927017.604 0        46.000  
        47.000                                                  
  24355485.360    24355482.769   127988610.49710  99731385.685 0        39.000  
        39.000                                                  
  22554421.917    22554415.841   118523900.930 0  92356006.099 0        46.000  
        44.000                                                  
  22879172.503                   120231087.131 0                        43.000  
                                                                
  22293106.343                   117151342.266 0                        46.000  
                                                                
  22576960.240    22576953.879   118642763.307 0  92448908.792 0        44.000  
        41.000                                                  
  25374976.502    25374973.160   133346304.283 0 103906072.558 0        38.000  
        36.000                                                  
 22  1  6  3 59 33.0000000  0  0
 22  1  6  3 59 34.0010000  0  7E03E05E08E09E13E15E18
  23996258.084                   126100524.991 0                        49.000  
                  23996257.226    96622482.864          53.000  
  23925526.290                   125729487.957 0                        47.000  
                  23925525.450    96337949.040          52.000  
  26082753.670                   137065846.071 0                        35.000  
                  26082752.544   105024479.491          41.000  
  26103731.313                   137175809.705 0                        36.000  
                  26103730.206   105108677.427          42.000  
  27646350.575                   145282188.445 0                        40.000  
                  27646348.895   111320118.084          44.000  
  23700178.362                   124545079.412 0                        48.000  
                  23700178.326    95430647.728          53.000  
  20815911.204                   109388345.825 0                        46.000  
                  20815909.881    83817035.682          51.000  
 22  1  6  3 59 35.0010000  0  9G01G03G04G09G17G19G21G31G32
  20507859.558    20507856.145   107769253.726 0  83976861.026 0        49.000  
        48.000                                                  
  20349685.951    20349683.217   106938999.559 0  83329095.166 0        50.000  
        49.000                                                  
  21472101.307    21472096.339   112837223.364 0  87925111.136 0        46.000  
        47.000                                                  
  24354807.910    24354805.301   127985050.38910  99728611.593 0        39.000  
        40.000                                                  
  22554461.425    22554455.224   118524108.093 0  92356167.537 0        46.000  
        44.000                                                  
  22878940.903                   120229869.930 0                        43.000  
                                                                
  22293569.526                   117153776.438 0                        46.000  
                                                                
  22577006.414    22577000.088   118643005.842 0  92449097.776 0        44.000  
        41.000                                                  
  25375632.509    25375629.186   133349751.594 0 103908758.781 0        38.000  
        36.000                                                  
 22  1  6  3 59 34.0000000  0  0
 22  1  6  3 59 35.0010000  0  7E03E05E08E09E13E15E18
  23995998.733                   126099161.678 0                        49.000  
                  23995997.768    96621438.250          53.000  
  23925774.705                   125730793.742 0                        47.000  
                  23925774.009    96338949.579          52.000  
  26082228.571                   137063087.625 0                        35.000  
                  26082227.588   105022365.883          41.000  
  26104250.730                   137178539.604 0                        35.000  
                  26104249.694   105110769.150          42.000  
  27645803.336                   145279312.897 0                        40.000  
                  27645801.799   111317914.739          44.000  
  23699971.689                   124543993.070 0                        48.000  
                  23699971.599    95429815.345          53.000  
  20816682.770                   109392400.391 0                        46.000  
                  20816681.305    83820142.427          51.000  
 22  1  6  3 59 36.0010000  0  9G01G03G04G09G17G19G21G31G32
  20508204.537    20508201.053   107771066.449 0  83978273.535 0        49.000  
        48.000                                                  
  20349590.066    20349587.332   106938496.025 0  83328702.802 0        50.000  
        49.000                                                  
  21471635.765    21471630.797   112834776.914 0  87923204.809 0        46.000  
        47.000                                                  
  24354130.388    24354127.815   127981490.16610  99725837.417 0        39.000  
        39.000                                                  
  22554500.987    22554494.840   118524315.641 0  92356329.264 0        46.000  
        44.000                                                  
  22878709.356                   120228653.205 0                        43.000  
                                                                
  22294032.709                   117156210.713 0                        46.000  
                                                                
  22577052.695    22577046.280   118643248.853 0  92449287.141 0        44.000  
        41.000                                                  
  25376288.499    25376285.229   133353198.679 0 103911444.794 0        38.000  
        36.000                                                  
 22  1  6  3 59 35.0000000  0  0
 22  1  6  3 59 36.0010000  0  7E03E05E08E09E13E15E18
  23995739.203                   126097798.454 0                        49.000  
                  23995738.256    96620393.699          53.000  
  23926023.317                   125732099.572 0                        47.000  
                  23926022.406    96339950.152          51.000  
  26081703.490                   137060329.056 0                        35.000  
                  26081702.507   105020252.185          41.000  
  26104770.361                   137181269.240 0                        35.000  
                  26104769.146   105112860.707          42.000  
  27645256.026                   145276437.208 0                        40.000  
                  27645254.632   111315711.289          44.000  
  23699765.087                   124542906.899 0                        48.000  
                  23699764.891    95428983.082          53.000  
  20817454.533                   109396455.810 0                        46.000  
                  20817453.050    83823249.826          51.000  
 22  1  6  3 59 37.0010000  0  9G01G03G04G09G17G19G21G31G32
  20508549.713    20508546.068   107772880.082 0  83979686.761 0        49.000  
        48.000                                                  
  20349494.449    20349491.679   106937993.219 0  83328311.003 0        50.000  
        49.000                                                  
  21471170.420    21471165.434   112832331.280 0  87921299.118 0        46.000  
        47.000                                                  
  24353453.045    24353450.489   127977930.50710  99723063.663 0        39.000  
        39.000                                                  
  22554540.638    22554534.491   118524524.169 0  92356491.753 0        46.000  
        44.000                                                  
  22878478.024                   120227437.510 0                        44.000  
                                                                
  22294496.053                   117158645.683 0                        46.000  
                                                                
  22577099.118    22577092.685   118643492.908 0  92449477.305 0        44.000  
        41.000                                                  
  25376944.471    25376941.272   133356646.166 0 103914131.184 0        38.000  
        36.000                                                  
 22  1  6  3 59 36.0000000  0  0
 22  1  6  3 59 37.0010000  0  7E03E05E08E09E13E15E18
  23995480.102                   126096435.916 0                        49.000  
                  23995478.994    96619349.683          53.000  
  23926271.929                   125733406.050 0                        47.000  
                  23926271.035    96340951.218          51.000  
  26081178.516                   137057570.962 0                        35.000  
                  26081177.747   105018138.845          41.000  
  26105289.671                   137183999.281 0                        35.000  
                  26105288.795   105114952.552          42.000  
  27644709.073                   145273561.974 0                        41.000  
                  27644707.429   111313508.181          44.000  
  23699558.343                   124541821.475 0                        48.000  
                  23699558.396    95428151.394          53.000  
  20818226.439                   109400512.694 0                        46.000  
                  20818225.099    83826358.348          51.000  
 22  1  6  3 59 38.0010000  0  9G01G03G04G09G17G19G21G31G32
  20508894.961    20508891.333   107774694.214 0  83981100.372 0        49.000  
        48.000                                                  
  20349398.867    20349396.080   106937490.713 0  83327919.446 0        50.000  
        49.000                                                  
  21470705.057    21470700.072   112829886.022 0  87919393.720 0        46.000  
        47.000                                                  
  24352775.612    24352773.128   127974370.95910  99720289.972 0        38.000  
        39.000                                                  
  22554580.415    22554574.196   118524733.274 0  92356654.698 0        46.000  
        44.000                                                  
  22878246.799                   120226222.466 0                        43.000  
                                                                
  22294959.397                   117161080.940 0                        46.000  
                                                                
  22577145.631    22577139.306   118643737.629 0  92449668.011 0        44.000  
        41.000                                                  
  25377600.461    25377597.333   133360093.644 0 103916817.503 0        38.000  
        36.000                                                  
 22  1  6  3 59 37.0000000  0  0
 22  1  6  3 59 38.0010000  0  7E03E05E08E09E13E15E18
  23995220.715                   126095073.648 0                        49.000  
                  23995219.822    96618305.863          53.000  
  23926520.523                   125734712.742 0                        47.000  
                  23926519.790    96341952.454          51.000  
  26080653.399                   137054812.933 0                        35.000  
                  26080652.970   105016025.559          41.000  
  26105809.070                   137186729.298 0                        35.000  
                  26105808.123   105117044.370          42.000  
  27644161.905                   145270686.772 0                        40.000  
                  27644160.315   111311305.113          44.000  
  23699351.920                   124540736.407 0                        48.000  
                  23699351.830    95427319.978          53.000  
  20818998.613                   109404570.625 0                        46.000  
                  20818997.291    83829467.674          51.000  
 22  1  6  3 59 39.0010000  0  9G01G03G04G09G17G19G21G31G32
  20509240.190    20509236.616   107776508.666 0  83982514.235 0        49.000  
        48.000                                                  
  20349303.214    20349300.534   106936988.361 0  83327527.999 0        50.000  
        49.000                                                  
  21470239.837    21470234.798   112827441.007 0  87917488.518 0        46.000  
        47.000                                                  
  24352098.233    24352095.696   127970811.34410  99717516.243 0        38.000  
        40.000                                                  
  22554620.281    22554613.991   118524942.768 0  92356817.939 0        46.000  
        44.000                                                  
  22878015.752                   120225007.887 0                        43.000  
                                                                
  22295422.865                   117163516.327 0                        46.000  
                                                                
  22577192.412    22577185.980   118643982.838 0  92449859.082 0        44.000  
        41.000                                                  
  25378256.540    25378253.287   133363540.902 0 103919503.710 0        38.000  
        36.000                                                  
 22  1  6  3 59 38.0000000  0  0
 22  1  6  3 59 39.0010000  0  7E03E05E08E09E13E15E18
  23994961.579                   126093711.489 0                        49.000  
                  23994960.525    96617262.133          53.000  
  23926769.170                   125736019.499 0                        47.000  
                  23926768.455    96342953.740          51.000  
  26080128.353                   137052054.839 0                        35.000  
                  26080128.139   105013912.190          41.000  
  26106328.469                   137189459.074 0                        35.000  
                  26106327.539   105119136.046          42.000  
  27643614.667                   145267811.444 0                        40.000  
                  27643613.291   111309101.933          44.000  
  23699145.568                   124539651.509 0                        48.000  
                  23699145.425    95426488.699          53.000  
  20819770.752                   109408629.431 0                        46.000  
                  20819769.554    83832577.672          51.000  
 22  1  6  3 59 40.0010000  0  9G01G03G04G09G17G19G21G31G32
  20509585.384    20509582.007   107778323.481 0  83983928.368 0        49.000  
        48.000                                                  
  20349207.561    20349204.917   106936486.160 0  83327136.669 0        50.000  
        49.000                                                  
  21469774.581    21469769.596   112824996.210 0  87915583.474 0        46.000  
        47.000                                                  
  24351420.836    24351418.371   127967251.67710  99714742.469 0        38.000  
        40.000                                                  
  22554660.254    22554653.839   118525152.704 0  92356981.508 0        46.000  
        44.000                                                  
  22877784.652                   120223793.811 0                        43.000  
                                                                
  22295886.299                   117165951.852 0                        46.000  
                                                                
  22577239.211    22577232.814   118644228.554 0  92450050.551 0        44.000  
        41.000                                                  
  25378912.511    25378909.259   133366988.007 0 103922189.732 0        38.000  
        36.000                                                  
 22  1  6  3 59 39.0000000  0  0
 22  1  6  3 59 40.0010000  0  7E03E05E08E09E13E15E18
  23994702.210                   126092349.456 0                        49.000  
                  23994701.352    96616218.493          53.000  
  23927017.710                   125737326.347 0                        47.000  
                  23927017.103    96343955.075          52.000  
  26079603.290                   137049296.589 0                        35.000  
                  26079603.308   105011798.746          41.000  
  26106848.046                   137192188.716 0                        35.000  
                  26106847.010   105121227.567          42.000  
  27643067.428                   145264935.978 0                        40.000  
                  27643066.195   111306898.667          44.000  
  23698938.931                   124538566.802 0                        48.000  
                  23698938.967    95425657.553          53.000  
  20820543.301                   109412689.135 0                        46.000  
                  20820542.032    83835688.350          51.000  
 22  1  6  3 59 41.0010000  0  9G01G03G04G09G17G19G21G31G32
  20509930.739    20509927.379   107780138.931 0  83985343.006 0        49.000  
        48.000                                                  
  20349112.034    20349109.443   106935984.434 0  83326745.718 0        50.000  
        49.000                                                  
  21469309.594    21469304.483   112822551.961 0  87913678.872 0        46.000  
        47.000                                                  
  24350743.404    24350741.063   127963692.27010  99711968.913 0        38.000  
        40.000                                                  
  22554700.405    22554693.937   118525363.333 0  92357145.641 0        46.000  
        44.000                                                  
  22877553.838                   120222580.517 0                        43.000  
                                                                
  22296349.910                   117168387.817 0                        46.000  
                                                                
  22577286.171    22577279.756   118644475.068 0  92450242.652 0        44.000  
        41.000                                                  
  25379568.483    25379565.213   133370435.230 0 103924875.870 0        38.000  
        36.000                                                  
 22  1  6  3 59 40.0000000  0  0
 22  1  6  3 59 41.0010000  0  7E03E05E08E09E13E15E18
  23994443.270                   126090987.843 0                        49.000  
                  23994442.251    96615175.181          53.000  
  23927266.733                   125738633.550 0                        47.000  
                  23927265.786    96344956.707          51.000  
  26079078.459                   137046538.583 0                        34.000  
                  26079078.441   105009685.444          41.000  
  26107367.356                   137194918.472 0                        35.000  
                  26107366.498   105123319.192          42.000  
  27642520.135                   145262060.729 0                        40.000  
                  27642519.170   111304695.546          44.000  
  23698732.776                   124537482.600 0                        48.000  
                  23698732.704    95424826.799          53.000  
  20821316.226                   109416750.044 0                        46.000  
                  20821314.921    83838799.956          51.000  
 22  1  6  3 59 42.0010000  0  9G01G03G04G09G17G19G21G31G32
  20510276.361    20510273.055   107781955.213 0  83986758.291 0        49.000  
        48.000                                                  
  20349016.702    20349014.111   106935483.339 0  83326355.256 0        50.000  
        49.000                                                  
  21468844.552    21468839.513   112820108.443 0  87911774.831 0        46.000  
        47.000                                                  
  24350066.150    24350063.773   127960133.31810  99709195.703 0        39.000  
        40.000                                                  
  22554740.664    22554734.213   118525574.871 0  92357310.478 0        46.000  
        44.000                                                  
  22877323.274                   120221368.205 0                        43.000  
                                                                
  22296813.504                   117170824.404 0                        46.000  
                                                                
  22577333.328    22577326.877   118644722.592 0  92450435.505 0        44.000  
        41.000                                                  
  25380224.509    25380221.274   133373882.799 0 103927562.295 0        38.000  
        36.000                                                  
 22  1  6  3 59 41.0000000  0  0
 22  1  6  3 59 42.0010000  0  7E03E05E08E09E13E15E18
  23994184.330                   126089626.840 0                        49.000  
                  23994183.222    96614132.339          53.000  
  23927515.488                   125739941.328 0                        47.000  
                  23927514.791    96345958.766          51.000  
  26078553.485                   137043780.965 0                        34.000  
                  26078553.610   105007572.475          41.000  
  26107886.612                   137197648.495 0                        35.000  
                  26107886.058   105125411.041          42.000  
  27641973.093                   145259185.847 0                        40.000  
                  27641972.003   111302492.723          44.000  
  23698526.496                   124536399.067 0                        48.000  
                  23698526.532    95423996.561          53.000  
  20822089.114                   109420812.331 0                        46.000  
                  20822087.828    83841912.615          51.000  
 22  1  6  3 59 43.0010000  0  9G01G03G04G09G17G19G21G31G32
  20510622.073    20510618.767   107783771.854 0  83988173.860 0        49.000  
        48.000                                                  
  20348921.318    20348918.726   106934982.431 0  83325964.934 0        50.000  
        49.000                                                  
  21468379.636    21468374.561   112817665.171 0  87909870.983 0        46.000  
        47.000                                                  
  24349388.878    24349386.555   127956574.30410  99706422.471 0        39.000  
        40.000                                                  
  22554780.905    22554774.508   118525786.838 0  92357475.647 0        46.000  
        44.000                                                  
  22877092.692                   120220156.392 0                        43.000  
                                                                
  22297277.241                   117173261.126 0                        46.000  
                                                                
  22577380.520    22577374.158   118644970.605 0  92450628.762 0        44.000  
        41.000                                                  
  25380880.498    25380877.300   133377330.151 0 103930248.559 0        38.000  
        36.000                                                  
 22  1  6  3 59 42.0000000  0  0
 22  1  6  3 59 43.0010000  0  7E03E05E08E09E13E15E18
  23993925.444                   126088265.969 0                        49.000  
                  23993924.318    96613089.591          53.000  
  23927764.296                   125741249.188 0                        47.000  
                  23927763.599    96346960.897          52.000  
  26078028.564                   137041023.258 0                        34.000  
                  26078028.868   105005459.452          41.000  
  26108406.154                   137200378.365 0                        35.000  
                  26108405.564   105127502.762          42.000  
  27641425.819                   145256310.874 0                        40.000  
                  27641425.104   111300289.824          45.000  
  23698320.341                   124535315.745 0                        48.000  
                  23698320.466    95423166.490          53.000  
  20822862.379                   109424875.526 0                        46.000  
                  20822861.074    83845025.977          51.000  
 22  1  6  3 59 44.0010000  0  9G01G03G04G09G17G19G21G31G32
  20510967.892    20510964.622   107785588.988 0  83989589.806 0        49.000  
        48.000                                                  
  20348826.058    20348823.574   106934481.823 0  83325574.852 0        50.000  
        49.000                                                  
  21467914.845    21467909.788   112815222.287 0  87907967.426 0        46.000  
        47.000                                                  
  24348711.553    24348709.427   127953015.40510  99703649.301 0        39.000  
        40.000                                                  
  22554821.379    22554815.035   118525999.360 0  92357641.249 0        46.000  
        44.000                                                  
  22876862.218                   120218945.205 0                        43.000  
                                                                
  22297740.960                   117175698.135 0                        46.000  
                                                                
  22577427.890    22577421.440   118645219.276 0  92450822.550 0        44.000  
        41.000                                                  
  25381536.577    25381533.218   133380777.520 0 103932934.789 0        38.000  
        36.000                                                  
 22  1  6  3 59 43.0000000  0  0
 22  1  6  3 59 44.0010000  0  7E03E05E08E09E13E15E18
  23993666.450                   126086905.362 0                        49.000  
                  23993665.360    96612047.048          53.000  
  23928013.247                   125742557.250 0                        47.000  
                  23928012.640    96347963.183          52.000  
  26077503.966                   137038265.610 0                        34.000  
                  26077504.144   105003346.442          41.000  
  26108925.499                   137203108.215 0                        36.000  
                  26108924.891   105129594.456          42.000  
  27640878.830                   145253435.927 0                        40.000  
                  27640877.847   111298086.927          45.000  
  23698114.651                   124534232.766 0                        48.000  
                  23698114.293    95422336.666          53.000  
  20823635.696                   109428939.761 0                        46.000  
                  20823634.374    83848140.126          51.000  
 22  1  6  3 59 45.0010000  0  9G01G03G04G09G17G19G21G31G32
  20511313.658    20511310.459   107787406.893 0  83991006.356 0        49.000  
        48.000                                                  
  20348730.959    20348728.386   106933981.799 0  83325185.216 0        50.000  
        49.000                                                  
  21467450.018    21467445.104   112812780.054 0  87906064.394 0        46.000  
        47.000                                                  
  24348034.406    24348032.298   127949456.91110  99700876.441 0        39.000  
        40.000                                                  
  22554861.977    22554855.526   118526212.735 0  92357807.515 0        46.000  
        44.000                                                  
  22876631.868                   120217734.956 0                        43.000  
                                                                
  22298204.876                   117178135.723 0                        46.000  
                                                                
  22577475.333    22577468.936   118645468.886 0  92451017.026 0        44.000  
        41.000                                                  
  25382192.674    25382189.369   133384225.133 0 103935621.245 0        38.000  
        36.000                                                  
 22  1  6  3 59 44.0000000  0  0
 22  1  6  3 59 45.0010000  0  7E03E05E08E09E13E15E18
  23993407.742                   126085545.313 0                        49.000  
                  23993406.563    96611004.930          53.000  
  23928262.359                   125743865.853 0                        47.000  
                  23928261.502    96348965.865          52.000  
  26076979.081                   137035508.294 0                        34.000  
                  26076979.546   105001233.700          41.000  
  26109445.273                   137205838.250 0                        36.000  
                  26109444.523   105131686.330          42.000  
  27640331.770                   145250561.306 0                        40.000  
                  27640330.912   111295884.302          45.000  
  23697908.514                   124533150.400 0                        48.000  
                  23697908.335    95421507.317          53.000  
  20824409.371                   109433005.313 0                        46.000  
                  20824407.924    83851255.292          50.000  
 22  1  6  3 59 46.0010000  0  9G01G03G04G09G17G19G21G31G32
  20511659.656    20511656.457   107789225.101 0  83992423.136 0        49.000  
        48.000                                                  
  20348635.931    20348633.215   106933481.889 0  83324795.681 0        50.000  
        49.000                                                  
  21466985.227    21466980.348   112810338.032 0  87904161.513 0        46.000  
        47.000                                                  
  24347357.224    24347355.151   127945898.31510  99698103.525 0        39.000  
        40.000                                                  
  22554902.540    22554896.232   118526426.481 0  92357974.084 0        46.000  
        43.000                                                  
  22876401.590                   120216525.159 0                        43.000  
                                                                
  22298668.720                   117180573.395 0                        46.000  
                                                                
  22577523.025    22577516.539   118645718.942 0  92451211.896 0        44.000  
        41.000                                                  
  25382848.718    25382845.412   133387672.526 0 103938307.546 0        38.000  
        36.000                                                  
 22  1  6  3 59 45.0000000  0  0
 22  1  6  3 59 46.0010000  0  7E03E05E08E09E13E15E18
  23993148.892                   126084185.337 0                        49.000  
                  23993147.855    96609962.871          53.000  
  23928511.293                   125745174.464 0                        47.000  
                  23928510.667    96349968.577          52.000  
  26076454.464                   137032750.878 0                        34.000  
                  26076454.822   104999120.856          41.000  
  26109964.636                   137208568.144 0                        35.000  
                  26109963.921   105133778.038          42.000  
  27639784.906                   145247686.521 0                        40.000  
                  27639783.977   111293681.538          45.000  
  23697702.377                   124532068.191 0                        48.000  
                  23697702.466    95420678.098          53.000  
  20825183.136                   109437071.713 0                        46.000  
                  20825181.796    83854371.107          50.000  
 22  1  6  3 59 47.0010000  0  9G01G03G04G09G17G19G21G31G32
  20512005.725    20512002.491   107791043.840 0  83993840.335 0        49.000  
        48.000                                                  
  20348540.940    20348538.063   106932982.332 0  83324406.413 0        50.000  
        49.000                                                  
  21466520.614    21466515.629   112807896.439 0  87902258.971 0        46.000  
        47.000                                                  
  24346680.024    24346678.040   127942339.88510  99695330.707 0        39.000  
        40.000                                                  
  22554943.335    22554937.027   118526640.830 0  92358141.096 0        46.000  
        43.000                                                  
  22876171.562                   120215316.037 0                        44.000  
                                                                
  22299132.564                   117183011.406 0                        46.000  
                                                                
  22577570.753    22577564.177   118645969.706 0  92451407.293 0        44.000  
        41.000                                                  
  25383504.707    25383501.384   133391119.928 0 103940993.833 0        38.000  
        36.000                                                  
 22  1  6  3 59 46.0000000  0  0
 22  1  6  3 59 47.0010000  0  7E03E05E08E09E13E15E18
  23992890.220                   126082825.683 0                        49.000  
                  23992889.094    96608921.059          53.000  
  23928760.333                   125746483.355 0                        47.000  
                  23928759.672    96350971.488          52.000  
  26075929.705                   137029993.538 0                        34.000  
                  26075930.080   104997008.099          41.000  
  26110483.892                   137211298.002 0                        35.000  
                  26110483.428   105135869.755          42.000  
  27639237.918                   145244811.812 0                        40.000  
                  27639236.899   111291478.843          45.000  
  23697496.454                   124530986.377 0                        48.000  
                  23697496.543    95419849.169          53.000  
  20825957.204                   109441139.211 0                        46.000  
                  20825955.828    83857487.761          50.000  
 22  1  6  3 59 48.0010000  0  9G01G03G04G09G17G19G21G31G32
  20512351.902    20512348.614   107792863.110 0  83995257.951 0        49.000  
        48.000                                                  
  20348445.894    20348443.089   106932483.114 0  83324017.415 0        50.000  
        49.000                                                  
  21466056.055    21466051.088   112805455.260 0  87900356.760 0        47.000  
        47.000                                                  
  24346002.895    24346001.037   127938781.57910  99692558.007 0        39.000  
        40.000                                                  
  22554984.165    22554977.983   118526855.758 0  92358308.576 0        46.000  
        43.000                                                  
  22875941.588                   120214107.593 0                        44.000  
                                                                
  22299596.569                   117185449.733 0                        46.000  
                                                                
  22577618.589    22577611.995   118646221.138 0  92451603.217 0        44.000  
        41.000                                                  
  25384160.804    25384157.391   133394567.338 0 103943680.109 0        38.000  
        36.000                                                  
 22  1  6  3 59 47.0000000  0  0
 22  1  6  3 59 48.0010000  0  7E03E05E08E09E13E15E18
  23992631.440                   126081466.329 0                        49.000  
                  23992630.386    96607879.474          53.000  
  23929009.535                   125747792.494 0                        47.000  
                  23929008.748    96351974.599          52.000  
  26075404.963                   137027236.292 0                        34.000  
                  26075405.320   104994895.410          41.000  
  26111003.720                   137214027.867 0                        36.000  
                  26111002.934   105137961.462          42.000  
  27638690.947                   145241937.191 0                        40.000  
                  27638689.875   111289276.200          45.000  
  23697290.638                   124529904.924 0                        48.000  
                  23697290.835    95419020.527          53.000  
  20826731.469                   109445207.777 0                        46.000  
                  20826729.932    83860605.229          50.000  
 22  1  6  3 59 49.0010000  0  9G01G03G04G09G17G19G21G31G32
  20512698.257    20512694.862   107794683.087 0  83996676.110 0        49.000  
        48.000                                                  
  20348351.010    20348348.133   106931984.425 0  83323628.824 0        50.000  
        49.000                                                  
  21465591.568    21465586.708   112803014.688 0  87898455.020 0        47.000  
        47.000                                                  
  24345325.820    24345324.033   127935223.58110  99689785.548 0        40.000  
        40.000                                                  
  22555025.228    22555019.081   118527071.466 0  92358476.665 0        46.000  
        43.000                                                  
  22875711.738                   120212899.994 0                        44.000  
                                                                
  22300060.806                   117187888.547 0                        46.000  
                                                                
  22577666.585    22577659.991   118646473.457 0  92451799.820 0        44.000  
        41.000                                                  
  25384816.919    25384813.452   133398014.940 0 103946366.583 0        39.000  
        36.000                                                  
 22  1  6  3 59 48.0000000  0  0
 22  1  6  3 59 49.0010000  0  7E03E05E08E09E13E15E18
  23992372.768                   126080107.457 0                        49.000  
                  23992371.750    96606838.264          53.000  
  23929258.772                   125749102.071 0                        47.000  
                  23929257.986    96352978.039          52.000  
  26074880.275                   137024479.310 0                        34.000  
                  26074880.739   104992782.934          41.000  
  26111523.101                   137216757.925 0                        35.000  
                  26111522.547   105140053.320          42.000  
  27638144.065                   145239062.802 0                        40.000  
                  27638142.940   111287073.758          45.000  
  23697085.163                   124528824.037 0                        48.000  
                  23697085.091    95418192.316          53.000  
  20827505.823                   109449277.598 0                        46.000  
                  20827504.518    83863723.668          50.000  
 22  1  6  3 59 50.0010000  0  9G01G03G04G09G17G19G21G31G32
  20513044.773    20513041.450   107796503.713 0  83998094.775 0        48.000  
        48.000                                                  
  20348256.250    20348253.320   106931486.206 0  83323240.594 0        50.000  
        49.000                                                  
  21465127.331    21465122.363   112800574.659 0  87896553.685 0        47.000  
        47.000                                                  
  24344648.781    24344647.119   127931665.87910  99687013.306 0        40.000  
        40.000                                                  
  22555066.452    22555060.287   118527287.900 0  92358645.310 0        46.000  
        43.000                                                  
  22875482.050                   120211693.197 0                        44.000  
                                                                
  22300525.043                   117190327.801 0                        46.000  
                                                                
  22577714.867    22577708.148   118646726.570 0  92451997.058 0        44.000  
        41.000                                                  
  25385473.016    25385469.532   133401462.670 0 103949053.131 0        38.000  
        36.000                                                  
 22  1  6  3 59 49.0000000  0  0
 22  1  6  3 59 50.0010000  0  7E03E05E08E09E13E15E18
  23992114.186                   126078748.998 0                        49.000  
                  23992113.364    96605797.365          53.000  
  23929508.116                   125750412.023 0                        47.000  
                  23929507.258    96353981.767          51.000  
  26074355.676                   137021722.554 0                        34.000  
                  26074356.159   104990670.619          41.000  
  26112042.625                   137219488.080 0                        35.000  
                  26112041.999   105142145.262          42.000  
  27637597.059                   145236188.612 0                        40.000  
                  27637595.951   111284871.448          45.000  
  23696879.579                   124527743.635 0                        48.000  
                  23696879.437    95417364.480          53.000  
  20828280.516                   109453348.623 0                        46.000  
                  20828279.212    83866843.018          50.000  
 22  1  6  3 59 51.0010000  0  9G01G03G04G09G17G19G21G31G32
  20513391.325    20513387.930   107798324.796 0  83999513.806 0        48.000  
        48.000                                                  
  20348161.419    20348158.650   106930988.254 0  83322852.584 0        50.000  
        49.000                                                  
  21464663.058    21464658.090   112798134.982 0  87894652.643 0        47.000  
        47.000                                                  
  24343971.813    24343970.186   127928108.22710  99684241.098 0        40.000  
        40.000                                                  
  22555107.730    22555101.636   118527504.879 0  92358814.378 0        46.000  
        43.000                                                  
  22875252.487                   120210487.006 0                        44.000  
                                                                
  22300989.316                   117192767.323 0                        46.000  
                                                                
  22577762.970    22577756.484   118646980.312 0  92452194.783 0        44.000  
        41.000                                                  
  25386129.149    25386125.611   133404910.353 0 103951739.642 0        38.000  
        36.000                                                  
 22  1  6  3 59 50.0000000  0  0
 22  1  6  3 59 51.0010000  0  7E03E05E08E09E13E15E18
  23991855.621                   126077390.809 0                        49.000  
                  23991854.906    96604756.672          53.000  
  23929757.460                   125751722.187 0                        47.000  
                  23929756.603    96354985.661          51.000  
  26073830.952                   137018965.843 0                        34.000  
                  26073831.613   104988558.320          41.000  
  26112562.256                   137222218.171 0                        35.000  
                  26112561.541   105144237.163          42.000  
  27637050.106                   145233314.435 0                        40.000  
                  27637048.998   111282669.158          45.000  
  23696673.853                   124526663.564 0                        48.000  
                  23696673.979    95416536.886          53.000  
  20829055.567                   109457420.652 0                        46.000  
                  20829054.031    83869963.151          50.000  
 22  1  6  3 59 52.0010000  0  9G01G03G04G09G17G19G21G31G32
  20513737.948    20513734.482   107800146.179 0  84000933.070 0        48.000  
        48.000                                                  
  20348066.642    20348063.908   106930490.424 0  83322464.662 0        50.000  
        49.000                                                  
  21464198.874    21464193.925   112795695.510 0  87892751.756 0        47.000  
        47.000                                                  
  24343294.809    24343293.129   127924550.50710  99681468.845 0        40.000  
        40.000                                                  
  22555149.186    22555142.896   118527722.224 0  92358983.745 0        46.000  
        43.000                                                  
  22875023.030                   120209281.271 0                        44.000  
                                                                
  22301453.571                   117195206.923 0                        46.000  
                                                                
  22577811.270    22577804.927   118647234.518 0  92452392.852 0        44.000  
        41.000                                                  
  25386785.299    25386781.511   133408357.834 0 103954425.922 0        38.000  
        36.000                                                  
 22  1  6  3 59 51.0000000  0  0
 22  1  6  3 59 52.0010000  0  7E03E05E08E09E13E15E18
  23991597.360                   126076032.676 0                        49.000  
                  23991596.484    96603716.029          53.000  
  23930006.644                   125753032.369 0                        48.000  
                  23930005.929    96355989.564          52.000  
  26073306.425                   137016208.987 0                        34.000  
                  26073306.979   104986445.919          41.000  
  26113081.619                   137224948.050 0                        35.000  
                  26113080.994   105146328.880          42.000  
  27636503.171                   145230440.087 0                        40.000  
                  27636501.991   111280466.738          45.000  
  23696468.485                   124525583.646 0                        48.000  
                  23696468.449    95415709.412          53.000  
  20829830.601                   109461493.534 0                        46.000  
                  20829829.153    83873083.929          50.000  
 22  1  6  3 59 53.0010000  0  9G01G03G04G06G09G17G19G21G31
  20514084.750    20514081.248   107801968.201 0  84002352.818 0        48.000  
        48.000                                                  
  20347971.936    20347969.184   106929993.038 0  83322077.091 0        50.000  
        49.000                                                  
  21463734.798    21463729.848   112793256.555 0  87890851.274 0        47.000  
        47.000                                                  
  25149866.607    25149863.998   132162968.933 0 102984131.284 0        40.000  
        35.000                                                  
  24342617.930    24342616.286   127920993.03510  99678696.767 0        40.000  
        40.000                                                  
  22555190.749    22555184.370   118527940.263 0  92359153.643 0        46.000  
        43.000                                                  
  22874793.664                   120208076.313 0                        44.000  
                                                                
  22301918.059                   117197646.958 0                        46.000  
                                                                
  22577859.713    22577853.441   118647489.495 0  92452591.547 0        44.000  
        41.000                                                  
 22  1  6  3 59 52.0000000  0  0
 22  1  6  3 59 53.0010000  0  7E03E05E08E09E13E15E18
  23991338.956                   126074674.959 0                        49.000  
                  23991338.063    96602675.701          53.000  
  23930256.149                   125754342.908 0                        48.000  
                  23930255.148    96356993.747          52.000  
  26072781.701                   137013452.305 0                        34.000  
                  26072782.291   104984333.663          41.000  
  26113601.143                   137227678.032 0                        35.000  
                  26113600.446   105148420.677          42.000  
  27635956.200                   145227565.915 0                        40.000  
                  27635955.199   111278264.450          45.000  
  23696263.080                   124524504.192 0                        48.000  
                  23696262.991    95414882.304          53.000  
  20830605.902                   109465567.593 0                        46.000  
                  20830604.383    83876205.610          50.000  
 22  1  6  3 59 54.0010000  0  9G01G03G04G06G09G17G19G21G31
  20514431.535    20514428.050   107803790.667 0  84003772.917 0        48.000  
        48.000                                                  
  20347877.373    20347874.532   106929495.913 0  83321689.719 0        50.000  
        49.000                                                  
  21463270.775    21463265.790   112790817.952 0  87888951.059 0        47.000  
        47.000                                                  
  25149189.585    25149187.012   132159411.455 0 102981359.234 0        40.000  
        35.000                                                  
  24341940.998    24341939.408   127917435.58510  99675924.765 0        40.000  
        40.000                                                  
  22555232.438    22555226.076   118528158.832 0  92359323.952 0        46.000  
        43.000                                                  
  22874564.458                   120206871.939 0                        44.000  
                                                                
  22302382.510                   117200087.219 0                        46.000  
                                                                
  22577908.210    22577902.027   118647745.085 0  92452790.710 0        44.000  
        41.000                                                  
 22  1  6  3 59 53.0000000  0  0
 22  1  6  3 59 54.0010000  0  7E03E05E08E09E13E15E18
  23991080.516                   126073317.460 0                        49.000  
                  23991079.748    96601635.539          53.000  
  23930505.547                   125755653.638 0                        47.000  
                  23930504.743    96357998.071          51.000  
  26072257.192                   137010695.628 0                        35.000  
                  26072257.674   104982221.440          41.000  
  26114120.506                   137230407.902 0                        35.000  
                  26114119.988   105150512.410          42.000  
  27635408.765                   145224691.752 0                        39.000  
                  27635408.157   111276062.169          45.000  
  23696057.837                   124523425.043 0                        48.000  
                  23696057.730    95414055.421          53.000  
  20831381.328                   109469642.641 0                        46.000  
                  20831379.881    83879328.050          50.000  
 22  1  6  3 59 55.0010000  0  9G01G03G04G06G09G17G19G21G31
  20514778.497    20514774.924   107805613.640 0  84005193.418 0        48.000  
        48.000                                                  
  20347782.811    20347780.059   106928999.117 0  83321302.603 0        50.000  
        49.000                                                  
  21462806.842    21462801.892   112788379.745 0  87887051.160 0        47.000  
        47.000                                                  
  25148512.581    25148510.098   132155853.961 0 102978587.155 0        40.000  
        35.000                                                  
  24341263.994    24341262.529   127913878.25610  99673152.821 0        40.000  
        41.000                                                  
  22555274.108    22555267.782   118528377.980 0  92359494.714 0        46.000  
        43.000                                                  
  22874335.395                   120205668.240 0                        44.000  
                                                                
  22302846.962                   117202527.794 0                        46.000  
                                                                
  22577956.956    22577950.792   118648001.359 0  92452990.393 0        44.000  
        41.000                                                  
 22  1  6  3 59 54.0000000  0  0
 22  1  6  3 59 55.0010000  0  7E03E05E08E09E13E15E18
  23990822.112                   126071960.254 0                        49.000  
                  23990821.362    96600595.602          53.000  
  23930755.088                   125756964.600 0                        47.000  
                  23930754.195    96359002.570          51.000  
  26071732.789                   137007939.069 0                        35.000  
                  26071733.183   104980109.249          41.000  
  26114640.084                   137233137.781 0                        36.000  
                  26114639.494   105152604.137          42.000  
  27634861.579                   145221817.641 0                        39.000  
                  27634861.347   111273859.920          45.000  
  23695852.468                   124522346.254 0                        48.000  
                  23695852.397    95413228.815          53.000  
  20832156.969                   109473718.757 0                        46.000  
                  20832155.629    83882451.301          50.000  
 22  1  6  3 59 56.0010000  0  9G01G03G04G06G09G17G19G21G31
  20515125.532    20515121.940   107807437.585 0  84006614.678 0        48.000  
        48.000                                                  
  20347688.498    20347685.782   106928503.096 0  83320916.095 0        50.000  
        49.000                                                  
  21462343.087    21462338.155   112785942.398 0  87885151.928 0        47.000  
        47.000                                                  
  25147835.739    25147833.130   132152296.984 0 102975815.477 0        40.000  
        35.000                                                  
  24340587.205    24340585.633   127910321.52010  99670381.352 0        40.000  
        41.000                                                  
  22555316.011    22555309.632   118528598.166 0  92359666.292 0        46.000  
        43.000                                                  
  22874106.475                   120204465.638 0                        44.000  
                                                                
  22303311.485                   117204969.129 0                        46.000  
                                                                
  22578006.007    22577999.753   118648258.749 0  92453190.961 0        44.000  
        41.000                                                  
 22  1  6  3 59 55.0000000  0  0
 22  1  6  3 59 56.0010000  0  7E03E05E08E09E13E15E18
  23990563.977                   126070603.797 0                        49.000  
                  23990563.298    96599556.241          53.000  
  23931004.611                   125758276.257 0                        47.000  
                  23931003.771    96360007.615          51.000  
  26071208.673                   137005183.005 0                        35.000  
                  26071208.798   104977997.478          41.000  
  26115159.608                   137235868.101 0                        36.000  
                  26115159.000   105154696.205          42.000  
  27634314.841                   145218944.024 0                        39.000  
                  27634314.591   111271658.073          45.000  
  23695647.153                   124521268.276 0                        48.000  
                  23695647.260    95412402.834          53.000  
  20832932.967                   109477796.370 0                        46.000  
                  20832931.591    83885575.712          50.000  
 22  1  6  3 59 57.0010000  0  9G01G03G04G06G09G17G19G21G31
  20515472.655    20515469.153   107809261.858 0  84008036.189 0        48.000  
        48.000                                                  
  20347594.060    20347591.290   106928007.227 0  83320529.705 0        50.000  
        49.000                                                  
  21461879.225    21461874.418   112783505.283 0  87883252.882 0        47.000  
        47.000                                                  
  25147158.860    25147156.215   132148739.822 0 102973043.636 0        40.000  
        34.000                                                  
  24339910.344    24339908.861   127906764.74210  99667609.846 0        40.000  
        41.000                                                  
  22555357.932    22555351.660   118528818.766 0  92359838.184 0        46.000  
        43.000                                                  
  22873877.769                   120203263.521 0                        43.000  
                                                                
  22303776.116                   117207410.590 0                        46.000  
                                                                
  22578055.147    22578048.857   118648516.628 0  92453391.915 0        45.000  
        41.000                                                  
 22  1  6  3 59 56.0000000  0  0
 22  1  6  3 59 57.0010000  0  7E03E05E08E09E13E15E18
  23990305.698                   126069247.436 0                        49.000  
                  23990305.305    96598516.958          53.000  
  23931254.188                   125759587.991 0                        47.000  
                  23931253.401    96361012.705          52.000  
  26070684.253                   137002426.901 0                        35.000  
                  26070684.253   104975885.638          41.000  
  26115679.203                   137238598.215 0                        36.000  
                  26115678.560   105156788.124          42.000  
  27633767.638                   145216070.295 0                        39.000  
                  27633767.727   111269456.132          45.000  
  23695442.142                   124520190.497 0                        48.000  
                  23695442.106    95411577.001          53.000  
  20833709.126                   109481874.883 0                        46.000  
                  20833707.643    83888700.802          50.000  
 22  1  6  3 59 58.0010000  0  9G01G03G04G06G09G17G19G21G31
  20515819.940    20515816.384   107811086.645 0  84009458.101 0        48.000  
        48.000                                                  
  20347499.908    20347496.978   106927511.692 0  83320143.570 0        50.000  
        49.000                                                  
  21461415.631    21461410.806   112781068.567 0  87881354.145 0        47.000  
        47.000                                                  
  25146481.946    25146479.301   132145182.643 0 102970271.853 0        40.000  
        34.000                                                  
  24339233.484    24339232.197   127903208.10910  99664838.422 0        40.000  
        41.000                                                  
  22555400.031    22555393.831   118529039.941 0  92360010.531 0        46.000  
        43.000                                                  
  22873649.135                   120202062.082 0                        44.000  
                                                                
  22304240.907                   117209852.351 0                        46.000  
                                                                
  22578104.304    22578098.050   118648775.188 0  92453593.388 0        44.000  
        41.000                                                  
 22  1  6  3 59 57.0000000  0  0
 22  1  6  3 59 58.0010000  0  7E03E05E08E09E13E15E18
  23990047.848                   126067891.383 0                        49.000  
                  23990047.133    96597477.896          53.000  
  23931503.889                   125760899.951 0                        48.000  
                  23931503.103    96362017.975          52.000  
  26070160.029                   136999670.779 0                        35.000  
                  26070159.940   104973773.829          41.000  
  26116198.674                   137241328.332 0                        36.000  
                  26116198.048   105158880.011          42.000  
  27633220.613                   145213196.619 0                        39.000  
                  27633220.953   111267254.231          45.000  
  23695237.166                   124519113.067 0                        48.000  
                  23695237.148    95410751.438          53.000  
  20834485.481                   109485954.439 0                        46.000  
                  20834483.926    83891826.693          50.000  
 22  1  6  3 59 59.0010000  0  9G01G03G04G06G09G17G19G21G31
  20516167.242    20516163.758   107812911.828 0  84010880.328 0        48.000  
        48.000                                                  
  20347405.685    20347402.754   106927016.360 0  83319757.595 0        50.000  
        49.000                                                  
  21460951.948    21460947.105   112778632.153 0  87879455.640 0        47.000  
        47.000                                                  
  25145805.174    25145802.369   132141625.375 0 102967499.931 0        40.000  
        33.000                                                  
  24338556.712    24338555.354   127899651.45110  99662066.999 0        39.000  
        41.000                                                  
  22555442.202    22555436.019   118529261.583 0  92360183.239 0        46.000  
        43.000                                                  
  22873420.554                   120200861.173 0                        44.000  
                                                                
  22304705.644                   117212294.305 0                        47.000  
                                                                
  22578153.641    22578147.351   118649034.300 0  92453795.277 0        44.000  
        41.000                                                  
 22  1  6  3 59 58.0000000  0  0
 22  1  6  3 59 59.0010000  0  7E03E05E08E09E13E15E18
  23989789.783                   126066535.489 0                        49.000  
                  23989789.194    96596438.968          53.000  
  23931753.502                   125762212.042 0                        48.000  
                  23931752.751    96363023.344          52.000  
  26069635.877                   136996914.695 0                        36.000  
                  26069635.466   104971662.020          42.000  
  26116718.037                   137244058.334 0                        36.000  
                  26116717.536   105160971.804          42.000  
  27632673.678                   145210322.882 0                        39.000  
                  27632674.089   111265052.269          45.000  
  23695032.155                   124518035.884 0                        48.000  
                  23695032.119    95409926.064          53.000  
  20835261.908                   109490034.939 0                        46.000  
                  20835260.443    83894953.312          50.000  
 22  1  6  4  0  0.0010000  0  9G01G03G04G06G09G17G19G21G31
  20516514.527    20516511.185   107814737.410 0  84012302.857 0        49.000  
        48.000                                                  
  20347311.426    20347308.567   106926521.248 0  83319371.798 0        50.000  
        49.000                                                  
  21460488.425    21460483.672   112776196.024 0  87877557.360 0        47.000  
        47.000                                                  
  25145128.278    25145125.294   132138068.058 0 102964727.964 0        39.000  
        33.000                                                  
  24337879.941    24337878.547   127896094.81210  99659295.610 0        40.000  
        41.000                                                  
  22555484.534    22555478.208   118529483.712 0  92360356.326 0        46.000  
        43.000                                                  
  22873192.063                   120199660.819 0                        44.000  
                                                                
  22305170.435                   117214736.444 0                        47.000  
                                                                
  22578203.031    22578196.866   118649293.966 0  92453997.619 0        45.000  
        41.000                                                  
 22  1  6  3 59 59.0000000  0  0
 22  1  6  4  0  0.0010000  0  7E03E05E08E09E13E15E18
  23989531.862                   126065179.780 0                        49.000  
                  23989531.147    96595400.174          53.000  
  23932003.400                   125763524.269 0                        48.000  
                  23932002.382    96364028.812          52.000  
  26069111.582                   136994158.579 0                        36.000  
                  26069111.046   104969550.161          42.000  
  26117237.454                   137246788.166 0                        35.000  
                  26117236.953   105163063.505          42.000  
  27632126.940                   145207449.088 0                        39.000  
                  27632127.172   111262850.279          45.000  
  23694827.126                   124516958.944 0                        48.000  
                  23694827.233    95409100.876          53.000  
  20836038.549                   109494116.378 0                        46.000  
                  20836037.209    83898080.649          50.000  
 22  1  6  4  0  1.0010000  0  9G01G03G04G06G09G17G19G21G31
  20516862.168    20516858.809   107816563.799 0  84013726.013 0        49.000  
        48.000                                                  
  20347217.256    20347214.486   106926026.756 0  83318986.477 0        50.000  
        49.000                                                  
  21460024.903    21460020.364   112773760.614 0  87875659.631 0        47.000  
        47.000                                                  
  25144451.364    25144448.344   132134510.981 0 102961956.188 0        39.000  
        33.000                                                  
  24337203.259    24337201.812   127892538.60410  99656524.529 0        40.000  
        41.000                                                  
  22555526.990    22555520.593   118529706.707 0  92360530.095 0        46.000  
        43.000                                                  
  22872963.768                   120198461.405 0                        44.000  
                                                                
  22305635.352                   117217179.178 0                        47.000  
                                                                
  22578252.653    22578246.470   118649554.613 0  92454200.716 0        45.000  
        41.000                                                  
 22  1  6  4  0  0.0000000  0  0
 22  1  6  4  0  1.0010000  0  7E03E05E08E09E13E15E18
  23989273.851                   126063824.657 0                        49.000  
                  23989273.333    96594361.838          53.000  
  23932253.263                   125764837.032 0                        48.000  
                  23932252.316    96365034.693          52.000  
  26068587.502                   136991402.818 0                        36.000  
                  26068586.733   104967438.611          42.000  
  26117757.031                   137249518.298 0                        36.000  
                  26117756.459   105165155.429          42.000  
  27631580.309                   145204575.653 0                        39.000  
                  27631580.380   111260648.558          45.000  
  23694622.454                   124515882.680 0                        48.000  
                  23694622.400    95408276.204          53.000  
  20836815.548                   109498199.188 0                        46.000  
                  20836814.101    83901209.035          51.000  
 22  1  6  4  0  2.0010000  0  9G01G03G04G06G09G17G19G21G31
  20517209.739    20517206.451   107818390.689 0  84015149.564 0        49.000  
        48.000                                                  
  20347123.265    20347120.459   106925532.583 0  83318601.400 0        50.000  
        49.000                                                  
  21459561.630    21459557.002   112771325.579 0  87873762.199 0        47.000  
        47.000                                                  
  25143774.503    25143771.483   132130953.934 0 102959184.467 0        39.000  
        33.000                                                  
  24336526.648    24336525.004   127888982.51610  99653753.540 0        40.000  
        41.000                                                  
  22555569.590    22555563.157   118529930.262 0  92360704.298 0        46.000  
        43.000                                                  
  22872735.563                   120197262.636 0                        43.000  
                                                                
  22306100.375                   117219622.209 0                        47.000  
                                                                
  22578302.347    22578296.164   118649815.899 0  92454404.320 0        44.000  
        41.000                                                  
 22  1  6  4  0  1.0000000  0  0
 22  1  6  4  0  2.0010000  0  7E03E05E08E09E13E15E18
  23989015.965                   126062469.796 0                        49.000  
                  23989015.465    96593323.700          53.000  
  23932503.268                   125766150.010 0                        48.000  
                  23932502.089    96366040.744          52.000  
  26068063.439                   136988647.101 0                        36.000  
                  26068062.349   104965327.069          42.000  
  26118276.609                   137252248.371 0                        35.000  
                  26118275.983   105167247.310          42.000  
  27631033.963                   145201702.264 0                        39.000  
                  27631033.624   111258446.861          45.000  
  23694417.693                   124514806.747 0                        48.000  
                  23694417.657    95407451.790          53.000  
  20837592.779                   109502283.027 0                        46.000  
                  20837591.260    83904338.204          51.000  
 22  1  6  4  0  3.0010000  0  9G01G03G04G06G09G17G19G21G31
  20517557.434    20517554.218   107820218.402 0  84016573.756 0        49.000  
        48.000                                                  
  20347029.453    20347026.486   106925039.050 0  83318216.833 0        49.000  
        49.000                                                  
  21459098.465    21459093.659   112768891.281 0  87871865.353 0        47.000  
        47.000                                                  
  25143097.642    25143094.640   132127397.233 0 102956412.989 0        38.000  
        34.000                                                  
  24335850.217    24335848.376   127885426.83310  99650982.901 0        40.000  
        41.000                                                  
  22555612.315    22555605.882   118530154.744 0  92360879.215 0        46.000  
        43.000                                                  
  22872507.590                   120196064.864 0                        44.000  
                                                                
  22306565.488                   117222065.874 0                        47.000  
                                                                
  22578352.219    22578346.037   118650078.180 0  92454608.697 0        44.000  
        41.000                                                  
 22  1  6  4  0  2.0000000  0  0
 22  1  6  4  0  3.0010000  0  7E03E05E08E09E13E15E18
  23988758.115                   126061115.572 0                        49.000  
                  23988757.722    96592286.043          53.000  
  23932752.988                   125767463.569 0                        48.000  
                  23932752.041    96367047.234          52.000  
  26067539.394                   136985891.798 0                        37.000  
                  26067537.983   104963215.870          42.000  
  26118796.240                   137254978.814 0                        35.000  
                  26118795.472   105169339.445          42.000  
  27630487.475                   145198829.246 0                        39.000  
                  27630486.760   111256245.462          45.000  
  23694213.092                   124513731.506 0                        48.000  
                  23694213.039    95406627.904          53.000  
  20838370.135                   109506368.249 0                        46.000  
                  20838368.652    83907468.441          51.000  
 22  1  6  4  0  4.0010000  0  9G01G03G04G06G09G17G19G21G31
  20517905.326    20517902.128   107822046.378 0  84017998.155 0        49.000  
        48.000                                                  
  20346935.426    20346932.531   106924545.525 0  83317832.274 0        49.000  
        49.000                                                  
  21458635.229    21458630.422   112766457.068 0  87869968.557 0        47.000  
        47.000                                                  
  25142420.728    25142417.815   132123840.206 0 102953641.282 0        38.000  
        34.000                                                  
  24335173.535    24335171.748   127881870.98610  99648212.102 0        41.000  
        41.000                                                  
  22555655.111    22555648.696   118530379.482 0  92361054.338 0        46.000  
        44.000                                                  
  22872279.778                   120194867.416 0                        44.000  
                                                                
  22307030.547                   117224509.512 0                        47.000  
                                                                
  22578402.199    22578395.963   118650340.822 0  92454813.351 0        45.000  
        41.000                                                  
 22  1  6  4  0  3.0000000  0  0
 22  1  6  4  0  4.0010000  0  7E03E05E08E09E13E15E18
  23988500.355                   126059761.300 0                        49.000  
                  23988500.122    96591248.359          53.000  
  23933003.047                   125768777.049 0                        48.000  
                  23933002.082    96368053.667          52.000  
  26067015.171                   136983136.269 0                        37.000  
                  26067013.759   104961104.501          42.000  
  26119315.782                   137257708.889 0                        35.000  
                  26119315.103   105171431.321          42.000  
  27629940.361                   145195955.969 0                        39.000  
                  27629939.986   111254043.860          45.000  
  23694008.456                   124512656.309 0                        48.000  
                  23694008.456    95405804.050          53.000  
  20839147.688                   109510454.210 0                        46.000  
                  20839146.240    83910599.243          51.000  
 22  1  6  4  0  5.0010000  0  9G01G03G04G06G09G17G19G21G31
  20518253.182    20518249.984   107823874.543 0  84019422.706 0        49.000  
        48.000                                                  
  20346841.560    20346838.683   106924052.086 0  83317447.773 0        49.000  
        49.000                                                  
  21458171.974    21458167.221   112764023.022 0  87868071.895 0        47.000  
        47.000                                                  
  25141743.760    25141740.919   132120282.962 0 102950869.424 0        38.000  
        35.000                                                  
  24334496.978    24334495.083   127878315.03610  99645441.227 0        41.000  
        41.000                                                  
  22555697.943    22555691.457   118530604.563 0  92361229.712 0        46.000  
        43.000                                                  
  22872051.912                   120193670.392 0                        44.000  
                                                                
  22307495.606                   117226953.201 0                        47.000  
                                                                
  22578452.268    22578446.085   118650603.878 0  92455018.341 0        45.000  
        41.000                                                  
 22  1  6  4  0  4.0000000  0  0
 22  1  6  4  0  5.0010000  0  7E03E05E08E09E13E15E18
  23988242.755                   126058407.073 0                        49.000  
                  23988242.451    96590210.706          53.000  
  23933252.802                   125770090.517 0                        48.000  
                  23933251.980    96369060.097          52.000  
  26066491.072                   136980380.557 0                        37.000  
                  26066489.303   104958992.973          42.000  
  26119835.109                   137260438.666 0                        35.000  
                  26119834.591   105173522.981          42.000  
  27629393.498                   145193082.484 0                        39.000  
                  27629393.158   111251842.117          45.000  
  23693803.642                   124511581.221 0                        48.000  
                  23693803.802    95404980.283          53.000  
  20839925.258                   109514540.967 0                        46.000  
                  20839923.829    83913730.656          51.000  
 22  1  6  4  0  6.0010000  0  9G01G03G04G06G09G17G19G21G31
  20518601.253    20518598.019   107825703.341 0  84020847.736 0        49.000  
        48.000                                                  
  20346747.765    20346744.835   106923559.084 0  83317063.620 0        49.000  
        49.000                                                  
  21457708.809    21457704.092   112761589.484 0  87866175.641 0        47.000  
        47.000                                                  
  25141066.899    25141064.022   132116725.818 0 102948097.578 0        38.000  
        35.000                                                  
  24333820.456    24333818.491   127874759.26810  99642670.515 0        41.000  
        41.000                                                  
  22555740.918    22555734.307   118530830.325 0  92361405.637 0        46.000  
        44.000                                                  
  22871824.297                   120192474.121 0                        44.000  
                                                                
  22307960.701                   117229397.321 0                        47.000  
                                                                
  22578502.534    22578496.351   118650867.729 0  92455223.918 0        45.000  
        41.000                                                  
 22  1  6  4  0  5.0000000  0  0
 22  1  6  4  0  6.0010000  0  7E03E05E08E09E13E15E18
  23987985.137                   126057053.244 0                        49.000  
                  23987984.762    96589173.355          53.000  
  23933502.861                   125771404.343 0                        48.000  
                  23933502.111    96370066.790          52.000  
  26065966.813                   136977625.013 0                        37.000  
                  26065964.919   104956881.594          42.000  
  26120354.562                   137263168.551 0                        36.000  
                  26120353.990   105175614.723          42.000  
  27628846.562                   145190209.172 0                        38.000  
                  27628846.330   111249640.490          45.000  
  23693599.113                   124510506.609 0                        48.000  
                  23693599.417    95404156.883          53.000  
  20840703.079                   109518628.897 0                        46.000  
                  20840701.828    83916862.962          51.000  
 22  1  6  4  0  7.0010000  0  9G01G03G04G06G09G17G19G21G31
  20518949.485    20518946.250   107827533.140 0  84022273.549 0        48.000  
        48.000                                                  
  20346654.149    20346651.273   106923066.892 0  83316680.094 0        49.000  
        49.000                                                  
  21457245.930    21457241.213   112759156.838 0  87864280.073 0        47.000  
        47.000                                                  
  25140390.163    25140387.251   132113169.187 0 102945326.198 0        38.000  
        35.000                                                  
  24333144.096    24333141.934   127871204.15710  99639900.294 0        41.000  
        41.000                                                  
  22555784.161    22555777.407   118531057.155 0  92361582.396 0        46.000  
        44.000                                                  
  22871596.860                   120191278.996 0                        44.000  
                                                                
  22308425.975                   117231842.212 0                        47.000  
                                                                
  22578552.996    22578546.688   118651132.727 0  92455430.424 0        44.000  
        41.000                                                  
 22  1  6  4  0  6.0000000  0  0
 22  1  6  4  0  7.0010000  0  7E03E05E08E09E13E15E18
  23987727.537                   126055700.194 0                        49.000  
                  23987727.341    96588136.604          53.000  
  23933752.920                   125772718.882 0                        48.000  
                  23933752.331    96371074.035          52.000  
  26065442.786                   136974870.051 0                        37.000  
                  26065440.803   104954770.637          42.000  
  26120874.229                   137265898.935 0                        36.000  
                  26120873.532   105177706.819          42.000  
  27628299.735                   145187336.417 0                        38.000  
                  27628299.663   111247439.268          45.000  
  23693394.870                   124509432.844 0                        48.000  
                  23693395.013    95403334.124          53.000  
  20841481.472                   109522718.362 0                        46.000  
                  20841480.096    83919996.450          51.000  
 22  1  6  4  0  8.0010000  0  9G01G03G04G06G09G17G19G21G31
  20519297.752    20519294.571   107829363.537 0  84023699.842 0        48.000  
        48.000                                                  
  20346560.587    20346557.675   106922575.120 0  83316296.899 0        49.000  
        49.000                                                  
  21456783.212    21456778.351   112756724.706 0  87862384.900 0        47.000  
        47.000                                                  
  25139713.356    25139710.533   132109612.659 0 102942554.909 0        37.000  
        35.000                                                  
  24332467.718    24332465.573   127867649.26410  99637130.252 0        41.000  
        41.000                                                  
  22555827.530    22555820.757   118531284.671 0  92361759.668 0        46.000  
        43.000                                                  
  22871369.673                   120190084.631 0                        44.000  
                                                                
  22308891.266                   117234287.520 0                        47.000  
                                                                
  22578603.565    22578597.204   118651398.479 0  92455637.513 0        45.000  
        41.000                                                  
 22  1  6  4  0  7.0000000  0  0
 22  1  6  4  0  8.0010000  0  7E03E05E08E09E13E15E18
  23987470.241                   126054347.528 0                        49.000  
                  23987469.991    96587100.145          53.000  
  23934003.319                   125774033.779 0                        48.000  
                  23934002.390    96372081.555          52.000  
  26064918.545                   136972115.270 0                        37.000  
                  26064916.543   104952659.828          42.000  
  26121393.842                   137268629.392 0                        36.000  
                  26121392.948   105179798.981          42.000  
  27627752.835                   145184463.803 0                        38.000  
                  27627753.085   111245238.186          45.000  
  23693190.609                   124508359.543 0                        48.000  
                  23693190.806    95402511.725          53.000  
  20842259.846                   109526808.986 0                        46.000  
                  20842258.381    83923130.826          50.000  
 22  1  6  4  0  9.0010000  0  9G01G03G04G06G09G17G19G21G31
  20519646.269    20519643.053   107831194.307 0  84025126.421 0        48.000  
        48.000                                                  
  20346467.097    20346464.130   106922083.538 0  83315913.839 0        49.000  
        49.000                                                  
  21456320.529    21456315.669   112754292.832 0  87860489.935 0        47.000  
        47.000                                                  
  25139036.496    25139033.815   132106055.981 0 102939783.490 0        37.000  
        35.000                                                  
  24331791.322    24331789.052   127864094.33510  99634360.157 0        41.000  
        40.000                                                  
  22555870.808    22555864.143   118531512.619 0  92361937.304 0        46.000  
        44.000                                                  
  22871142.504                   120188890.775 0                        44.000  
                                                                
  22309356.701                   117236732.984 0                        47.000  
                                                                
  22578654.188    22578647.987   118651664.781 0  92455845.009 0        45.000  
        41.000                                                  
 22  1  6  4  0  8.0000000  0  0
 22  1  6  4  0  9.0010000  0  7E03E05E08E09E13E15E18
  23987212.891                   126052995.011 0                        49.000  
                  23987212.606    96586063.799          53.000  
  23934253.628                   125775348.767 0                        48.000  
                  23934252.628    96373089.144          52.000  
  26064394.125                   136969360.389 0                        37.000  
                  26064392.356   104950548.955          42.000  
  26121913.259                   137271359.656 0                        35.000  
                  26121912.562   105181891.010          42.000  
  27627206.115                   145181591.090 0                        38.000  
                  27627206.311   111243037.036          45.000  
  23692986.509                   124507286.451 0                        48.000  
                  23692986.652    95401689.490          53.000  
  20843038.435                   109530900.528 0                        46.000  
                  20843036.988    83926265.898          50.000  
 22  1  6  4  0 10.0010000  0  9G01G03G04G06G09G17G19G21G31
  20519994.769    20519991.606   107833025.359 0  84026553.210 0        48.000  
        48.000                                                  
  20346373.642    20346370.622   106921592.053 0  83315530.860 0        49.000  
        49.000                                                  
  21455857.829    21455852.897   112751861.125 0  87858595.108 0        47.000  
        47.000                                                  
  25138359.617    25138357.062   132102499.142 0 102937011.864 0        37.000  
        35.000                                                  
  24331114.908    24331112.513   127860539.30410  99631590.019 0        41.000  
        40.000                                                  
  22555914.266    22555907.583   118531740.925 0  92362115.200 0        47.000  
        44.000                                                  
  22870915.353                   120187697.340 0                        44.000  
                                                                
  22309822.117                   117239178.509 0                        47.000  
                                                                
  22578704.918    22578698.771   118651931.510 0  92456052.867 0        45.000  
        41.000                                                  
 22  1  6  4  0  9.0000000  0  0
 22  1  6  4  0 10.0010000  0  7E03E05E08E09E13E15E18
  23986955.613                   126051642.541 0                        49.000  
                  23986955.238    96585027.491          53.000  
  23934503.866                   125776663.755 0                        48.000  
                  23934502.883    96374096.732          52.000  
  26063869.776                   136966605.397 0                        37.000  
                  26063868.043   104948437.971          42.000  
  26122432.801                   137274089.708 0                        35.000  
                  26122432.157   105183982.853          42.000  
  27626659.072                   145178718.218 0                        38.000  
                  27626659.626   111240835.742          45.000  
  23692782.338                   124506213.493 0                        48.000  
                  23692782.427    95400867.349          53.000  
  20843817.114                   109534992.872 0                        46.000  
                  20843815.738    83929401.592          50.000  
 22  1  6  4  0 11.0010000  0  9G01G03G04G06G09G17G19G21G31
  20520343.251    20520340.141   107834856.965 0  84027980.433 0        48.000  
        48.000                                                  
  20346280.008    20346277.185   106921100.932 0  83315148.177 0        49.000  
        49.000                                                  
  21455395.128    21455390.250   112749429.875 0  87856700.623 0        47.000  
        47.000                                                  
  25137682.756    25137680.273   132098942.285 0 102934240.310 0        36.000  
        35.000                                                  
  24330438.511    24330436.063   127856984.44810  99628820.013 0        41.000  
        40.000                                                  
  22555957.705    22555951.201   118531969.859 0  92362293.588 0        47.000  
        44.000                                                  
  22870688.381                   120186504.625 0                        44.000  
                                                                
  22310287.570                   117241624.398 0                        47.000  
                                                                
  22578755.684    22578749.626   118652198.953 0  92456261.252 0        45.000  
        41.000                                                  
 22  1  6  4  0 10.0000000  0  0
 22  1  6  4  0 11.0010000  0  7E03E05E08E09E13E15E18
  23986698.299                   126050290.409 0                        49.000  
                  23986697.888    96583991.442          53.000  
  23934754.086                   125777979.036 0                        48.000  
                  23934753.228    96375104.549          52.000  
  26063345.642                   136963850.504 0                        37.000  
                  26063343.766   104946327.082          42.000  
  26122952.378                   137276819.763 0                        35.000  
                  26122951.860   105186074.734          42.000  
  27626112.316                   145175845.457 0                        38.000  
                  27626113.049   111238634.530          45.000  
  23692578.273                   124505140.946 0                        48.000  
                  23692578.273    95400045.529          53.000  
  20844595.810                   109539086.325 0                        46.000  
                  20844594.738    83932538.134          50.000  
 22  1  6  4  0 12.0010000  0  9G01G03G04G06G09G17G19G21G31
  20520691.893    20520688.837   107836688.982 0  84029407.977 0        48.000  
        48.000                                                  
  20346186.749    20346183.694   106920610.037 0  83314765.657 0        49.000  
        49.000                                                  
  21454932.428    21454927.639   112746998.937 0  87854806.383 0        47.000  
        47.000                                                  
  25137005.842    25137003.430   132095385.394 0 102931468.726 0        36.000  
        35.000                                                  
  24329762.097    24329759.578   127853429.60710  99626049.996 0        41.000  
        40.000                                                  
  22556001.377    22555994.891   118532199.271 0  92362472.353 0        47.000  
        44.000                                                  
  22870461.516                   120185312.470 0                        44.000  
                                                                
  22310753.004                   117244070.478 0                        47.000  
                                                                
  22578806.629    22578800.678   118652466.965 0  92456470.104 0        45.000  
        41.000                                                  
 22  1  6  4  0 11.0000000  0  0
 22  1  6  4  0 12.0010000  0  7E03E05E08E09E13E15E18
  23986441.021                   126048938.468 0                        49.000  
                  23986440.682    96582955.545          53.000  
  23935004.449                   125779294.455 0                        48.000  
                  23935003.520    96376112.466          52.000  
  26062821.115                   136961095.571 0                        37.000  
                  26062819.417   104944216.183          42.000  
  26123471.688                   137279549.734 0                        35.000  
                  26123471.223   105188166.509          42.000  
  27625565.899                   145172972.641 0                        38.000  
                  27625566.489   111236433.285          45.000  
  23692374.352                   124504068.655 0                        48.000  
                  23692374.209    95399223.901          53.000  
  20845374.989                   109543180.728 0                        46.000  
                  20845373.845    83935675.402          50.000  
 22  1  6  4  0 13.0010000  0  9G01G03G04G06G09G17G19G21G31
  20521040.661    20521037.569   107838521.683 0  84030836.060 0        48.000  
        48.000                                                  
  20346093.420    20346090.382   106920119.655 0  83314383.544 0        49.000  
        49.000                                                  
  21454469.995    21454465.135   112744568.580 0  87852912.599 0        47.000  
        47.000                                                  
  25136329.017    25136326.623   132091828.701 0 102928697.230 0        37.000  
        35.000                                                  
  24329085.719    24329083.146   127849875.08410  99623280.237 0        41.000  
        40.000                                                  
  22556045.228    22556038.724   118532429.446 0  92362651.706 0        47.000  
        44.000                                                  
  22870234.829                   120184121.143 0                        43.000  
                                                                
  22311218.599                   117246517.028 0                        47.000  
                                                                
  22578857.752    22578851.891   118652735.834 0  92456679.608 0        44.000  
        41.000                                                  
 22  1  6  4  0 12.0000000  0  0
 22  1  6  4  0 13.0010000  0  7E03E05E08E09E13E15E18
  23986183.832                   126047586.999 0                        49.000  
                  23986183.493    96581919.995          53.000  
  23935254.901                   125780610.306 0                        48.000  
                  23935253.990    96377120.708          52.000  
  26062297.052                   136958340.919 0                        37.000  
                  26062295.390   104942105.449          42.000  
  26123991.158                   137282279.842 0                        35.000  
                  26123990.711   105190258.419          42.000  
  27625019.304                   145170100.063 0                        38.000  
                  27625019.786   111234232.216          45.000  
  23692170.234                   124502996.903 0                        48.000  
                  23692170.324    95398402.691          53.000  
  20846154.328                   109547276.356 0                        46.000  
                  20846153.203    83938813.621          50.000  
 22  1  6  4  0 14.0010000  0  9G01G03G04G06G09G17G19G21G31
  20521389.482    20521386.444   107840354.954 0  84032264.573 0        48.000  
        48.000                                                  
  20346000.250    20345997.195   106919629.652 0  83314001.723 0        50.000  
        49.000                                                  
  21454007.724    21454002.631   112742138.693 0  87851019.184 0        47.000  
        47.000                                                  
  25135652.317    25135649.905   132088272.062 0 102925925.829 0        37.000  
        35.000                                                  
  24328409.359    24328406.804   127846320.75610  99620510.604 0        41.000  
        40.000                                                  
  22556089.168    22556082.681   118532660.264 0  92362831.566 0        47.000  
        44.000                                                  
  22870008.178                   120182930.540 0                        44.000  
                                                                
  22311684.212                   117248963.950 0                        47.000  
                                                                
  22578909.036    22578903.139   118653005.421 0  92456889.674 0        45.000  
        41.000                                                  
 22  1  6  4  0 13.0000000  0  0
 22  1  6  4  0 14.0010000  0  7E03E05E08E09E13E15E18
  23985926.608                   126046235.870 0                        49.000  
                  23985926.375    96580884.722          53.000  
  23935505.371                   125781926.441 0                        48.000  
                  23935504.442    96378129.175          52.000  
  26061773.061                   136955586.405 0                        37.000  
                  26061771.202   104939994.845          42.000  
  26124510.896                   137285009.982 0                        35.000  
                  26124510.164   105192350.347          42.000  
  27624472.690                   145167227.599 0                        38.000  
                  27624473.155   111232031.231          45.000  
  23691966.295                   124501925.574 0                        48.000  
                  23691966.438    95397581.803          53.000  
  20846933.811                   109551373.098 0                        46.000  
                  20846932.774    83941952.676          50.000  
 22  1  6  4  0 15.0010000  0  9G01G03G04G06G09G17G19G21G31
  20521738.643    20521735.390   107842189.316 0  84033693.944 0        48.000  
        48.000                                                  
  20345907.081    20345904.079   106919140.565 0  83313620.618 0        50.000  
        49.000                                                  
  21453545.577    21453540.574   112739709.782 0  87849126.529 0        47.000  
        47.000                                                  
  25134975.760    25134973.223   132084716.021 0 102923154.886 0        37.000  
        35.000                                                  
  24327733.088    24327730.515   127842767.12210  99617741.550 0        41.000  
        40.000                                                  
  22556133.286    22556126.782   118532892.241 0  92363012.339 0        47.000  
        44.000                                                  
  22869781.814                   120181741.188 0                        44.000  
                                                                
  22312150.004                   117251411.764 0                        47.000  
                                                                
  22578960.606    22578954.763   118653276.289 0  92457100.730 0        45.000  
        41.000                                                  
 22  1  6  4  0 14.0000000  0  0
 22  1  6  4  0 15.0010000  0  7E03E05E08E09E13E15E18
  23985669.794                   126044885.625 0                        49.000  
                  23985669.401    96579850.116          53.000  
  23935755.984                   125783243.413 0                        48.000  
                  23935755.019    96379138.286          52.000  
  26061249.230                   136952832.540 0                        37.000  
                  26061247.139   104937884.745          42.000  
  26125030.438                   137287740.701 0                        35.000  
                  26125029.777   105194442.704          41.000  
  27623926.202                   145164355.777 0                        38.000  
                  27623926.667   111229830.749          45.000  
  23691762.856                   124500855.202 0                        48.000  
                  23691762.803    95396761.643          53.000  
  20847713.651                   109555471.472 0                        46.000  
                  20847712.632    83945092.987          50.000  
 22  1  6  4  0 16.0010000  0  9G01G03G04G06G09G17G19G21G31
  20522087.714    20522084.498   107844023.871 0  84035123.465 0        48.000  
        48.000                                                  
  20345813.966    20345811.053   106918651.474 0  83313239.504 0        50.000  
        49.000                                                  
  21453083.323    21453078.392   112737280.968 0  87847233.947 0        47.000  
        47.000                                                  
  25134298.989    25134296.451   132081159.689 0 102920383.737 0        37.000  
        36.000                                                  
  24327056.799    24327054.333   127839213.27910  99614972.333 0        41.000  
        40.000                                                  
  22556177.548    22556170.919   118533124.497 0  92363193.294 0        47.000  
        44.000                                                  
  22869555.628                   120180552.167 0                        43.000  
                                                                
  22312615.850                   117253859.549 0                        47.000  
                                                                
  22579012.230    22579006.368   118653547.485 0  92457312.049 0        45.000  
        41.000                                                  
 22  1  6  4  0 15.0000000  0  0
 22  1  6  4  0 16.0010000  0  7E03E05E08E09E13E15E18
  23985412.713                   126043535.326 0                        49.000  
                  23985412.498    96578815.474          53.000  
  23936006.436                   125784560.288 0                        48.000  
                  23936005.543    96380147.327          52.000  
  26060725.203                   136950078.439 0                        37.000  
                  26060723.041   104935774.465          42.000  
  26125550.087                   137290471.090 0                        36.000  
                  26125549.283   105196534.828          41.000  
  27623380.035                   145161483.671 0                        38.000  
                  27623380.089   111227630.069          45.000  
  23691559.042                   124499784.850 0                        48.000  
                  23691559.114    95395941.508          53.000  
  20848493.812                   109559570.582 0                        46.000  
                  20848492.704    83948233.870          50.000  
 22  1  6  4  0 17.0010000  0  9G01G03G04G06G09G17G19G21G31
  20522436.803    20522433.730   107845858.714 0  84036553.215 0        48.000  
        48.000                                                  
  20345720.958    20345717.938   106918162.487 0  83312858.482 0        49.000  
        49.000                                                  
  21452621.195    21452616.156   112734852.331 0  87845341.498 0        47.000  
        47.000                                                  
  25133622.289    25133619.591   132077603.094 0 102917612.364 0        36.000  
        36.000                                                  
  24326380.581    24326378.026   127835659.36010  99612203.034 0        41.000  
        40.000                                                  
  22556221.827    22556215.109   118533357.102 0  92363374.554 0        46.000  
        44.000                                                  
  22869329.495                   120179363.592 0                        43.000  
                                                                
  22313081.731                   117256307.413 0                        47.000  
                                                                
  22579063.960    22579058.189   118653819.144 0  92457523.734 0        45.000  
        41.000                                                  
 22  1  6  4  0 16.0000000  0  0
 22  1  6  4  0 17.0010000  0  7E03E05E08E09E13E15E18
  23985155.970                   126042185.110 0                        49.000  
                  23985155.506    96577780.891          53.000  
  23936257.246                   125785877.189 0                        48.000  
                  23936256.228    96381156.376          52.000  
  26060201.176                   136947324.184 0                        37.000  
                  26060199.032   104933664.055          42.000  
  26126069.719                   137293201.231 0                        36.000  
                  26126068.843   105198626.751          41.000  
  27622833.636                   145158611.418 0                        38.000  
                  27622833.600   111225429.247          45.000  
  23691355.532                   124498714.642 0                        48.000  
                  23691355.389    95395121.478          53.000  
  20849274.027                   109563670.523 0                        46.000  
                  20849272.812    83951375.374          50.000  
 22  1  6  4  0 18.0010000  0  9G01G03G04G06G09G17G19G21G31
  20522786.053    20522782.926   107847694.091 0  84037983.379 0        48.000  
        48.000                                                  
  20345627.949    20345625.055   106917673.872 0  83312477.734 0        49.000  
        49.000                                                  
  21452159.102    21452154.134   112732424.148 0  87843449.410 0        47.000  
        47.000                                                  
  25132945.428    25132942.766   132074046.622 0 102914841.052 0        36.000  
        36.000                                                  
  24325704.328    24325701.719   127832105.57810  99609433.862 0        41.000  
        40.000                                                  
  22556266.232    22556259.531   118533590.320 0  92363556.280 0        46.000  
        44.000                                                  
  22869103.416                   120178175.701 0                        43.000  
                                                                
  22313547.523                   117258755.611 0                        47.000  
                                                                
  22579115.816    22579109.937   118654091.487 0  92457735.947 0        45.000  
        41.000                                                  
 22  1  6  4  0 17.0000000  0  0
 22  1  6  4  0 18.0010000  0  7E03E05E08E09E13E15E18
  23984899.121                   126040835.211 0                        49.000  
                  23984898.603    96576746.555          53.000  
  23936507.895                   125787194.372 0                        48.000  
                  23936506.841    96382165.642          52.000  
  26059676.899                   136944570.042 0                        37.000  
                  26059674.701   104931553.754          42.000  
  26126589.421                   137295931.380 0                        35.000  
                  26126588.385   105200718.686          41.000  
  27622287.202                   145155739.268 0                        38.000  
                  27622287.059   111223228.493          45.000  
  23691151.914                   124497644.851 0                        48.000  
                  23691151.771    95394301.766          53.000  
  20850054.386                   109567771.550 0                        46.000  
                  20850053.242    83954517.720          50.000  
 22  1  6  4  0 19.0010000  0  9G01G03G04G06G09G17G19G21G31
  20523135.339    20523132.319   107849530.073 0  84039414.019 0        48.000  
        48.000                                                  
  20345535.013    20345532.189   106917185.668 0  83312097.317 0        50.000  
        49.000                                                  
  21451697.045    21451692.220   112729996.444 0  87841557.687 0        47.000  
        47.000                                                  
  25132268.567    25132266.048   132070490.214 0 102912069.826 0        35.000  
        36.000                                                  
  24325028.057    24325025.377   127828552.00210  99606664.842 0        41.000  
        40.000                                                  
  22556310.726    22556304.043   118533824.202 0  92363738.530 0        46.000  
        44.000                                                  
  22868877.480                   120176988.543 0                        44.000  
                                                                
  22314013.547                   117261204.206 0                        47.000  
                                                                
  22579167.815    22579161.918   118654364.573 0  92457948.755 0        45.000  
        41.000                                                  
 22  1  6  4  0 18.0000000  0  0
 22  1  6  4  0 19.0010000  0  7E03E05E08E09E13E15E18
  23984642.272                   126039485.688 0                        49.000  
                  23984641.825    96575712.504          53.000  
  23936758.562                   125788511.875 0                        48.000  
                  23936757.543    96383175.159          52.000  
  26059152.819                   136941816.071 0                        37.000  
                  26059150.656   104929443.551          42.000  
  26127109.106                   137298661.620 0                        35.000  
                  26127108.034   105202810.681          41.000  
  27621740.624                   145152867.209 0                        38.000  
                  27621740.463   111221027.851          45.000  
  23690948.333                   124496575.491 0                        48.000  
                  23690948.333    95393482.384          53.000  
  20850834.976                   109571873.706 0                        46.000  
                  20850833.886    83957660.933          50.000  
 22  1  6  4  0 20.0010000  0  9G01G03G04G06G09G17G19G21G31
  20523484.929    20523481.802   107851366.914 0  84040845.320 0        48.000  
        48.000                                                  
  20345442.237    20345439.467   106916698.127 0  83311717.417 0        50.000  
        49.000                                                  
  21451235.220    21451230.234   112727569.499 0  87839666.564 0        47.000  
        47.000                                                  
  25131591.760    25131589.491   132066934.141 0 102909298.880 0        35.000  
        36.000                                                  
  24324351.947    24324349.195   127824998.93110  99603896.195 0        41.000  
        40.000                                                  
  22556355.470    22556348.751   118534059.028 0  92363921.512 0        46.000  
        44.000                                                  
  22868651.759                   120175802.395 0                        44.000  
                                                                
  22314479.678                   117263653.438 0                        47.000  
                                                                
  22579220.046    22579214.024   118654638.703 0  92458162.356 0        45.000  
        41.000                                                  
 22  1  6  4  0 19.0000000  0  0
 22  1  6  4  0 20.0010000  0  7E03E05E08E09E13E15E18
  23984385.476                   126038136.795 0                        49.000  
                  23984385.279    96574678.937          53.000  
  23937009.371                   125789829.964 0                        48.000  
                  23937008.442    96384185.124          52.000  
  26058628.702                   136939062.508 0                        36.000  
                  26058626.665   104927333.684          42.000  
  26127628.541                   137301392.157 0                        36.000  
                  26127627.504   105204902.911          41.000  
  27621193.939                   145149995.608 0                        38.000  
                  27621193.939   111218827.534          45.000  
  23690744.912                   124495506.844 0                        48.000  
                  23690744.929    95392663.550          53.000  
  20851615.727                   109575977.257 0                        46.000  
                  20851614.780    83960805.214          50.000  
 22  1  6  4  0 21.0010000  0  9G01G03G04G06G09G17G19G21G31
  20523834.518    20523831.391   107853203.853 0  84042276.705 0        48.000  
        48.000                                                  
  20345349.496    20345346.762   106916210.503 0  83311337.451 0        50.000  
        49.000                                                  
  21450773.252    21450768.445   112725142.549 0  87837775.445 0        47.000  
        47.000                                                  
  25130914.918    25130912.684   132063377.674 0 102906527.605 0        34.000  
        36.000                                                  
  24323675.801    24323672.888   127821445.54910  99601127.339 0        41.000  
        40.000                                                  
  22556400.214    22556393.602   118534294.018 0  92364104.617 0        46.000  
        44.000                                                  
  22868426.162                   120174616.505 0                        44.000  
                                                                
  22314945.667                   117266102.575 0                        47.000  
                                                                
  22579272.349    22579266.273   118654913.089 0  92458376.161 0        45.000  
        41.000                                                  
 22  1  6  4  0 20.0000000  0  0
 22  1  6  4  0 21.0010000  0  7E03E05E08E09E13E15E18
  23984128.841                   126036787.791 0                        49.000  
                  23984128.430    96573645.287          53.000  
  23937260.199                   125791147.884 0                        48.000  
                  23937259.269    96385194.958          52.000  
  26058104.640                   136936308.628 0                        36.000  
                  26058102.728   104925223.580          42.000  
  26128148.029                   137304122.279 0                        36.000  
                  26128147.028   105206994.819          41.000  
  27620647.504                   145147123.640 0                        38.000  
                  27620647.433   111216626.935          45.000  
  23690541.562                   124494438.144 0                        48.000  
                  23690541.616    95391844.681          53.000  
  20852396.800                   109580081.452 0                        46.000  
                  20852395.764    83963949.987          50.000  
 22  1  6  4  0 22.0010000  0  9G01G03G04G06G09G17G19G21G31
  20524184.215    20524181.302   107855041.551 0  84043708.668 0        48.000  
        48.000                                                  
  20345256.828    20345253.986   106915723.450 0  83310957.936 0        50.000  
        49.000                                                  
  21450311.427    21450306.710   112722716.256 0  87835884.818 0        47.000  
        47.000                                                  
  25130238.003    25130236.038   132059821.463 0 102903756.568 0        34.000  
        36.000                                                  
  24322999.655    24322996.707   127817892.54210  99598358.753 0        41.000  
        40.000                                                  
  22556445.172    22556438.525   118534529.825 0  92364288.371 0        46.000  
        44.000                                                  
  22868200.709                   120173431.513 0                        44.000  
                                                                
  22315411.726                   117268552.253 0                        47.000  
                                                                
  22579324.687    22579318.558   118655188.381 0  92458590.679 0        45.000  
        41.000                                                  
 22  1  6  4  0 21.0000000  0  0
 22  1  6  4  0 22.0010000  0  7E03E05E08E09E13E15E18
  23983872.224                   126035439.306 0                        49.000  
                  23983871.831    96572612.030          53.000  
  23937511.080                   125792466.276 0                        48.000  
                  23937510.115    96386205.159          52.000  
  26057580.523                   136933555.059 0                        36.000  
                  26057578.701   104923113.691          42.000  
  26128667.660                   137306852.660 0                        36.000  
                  26128666.695   105209086.915          42.000  
  27620100.784                   145144251.950 0                        38.000  
                  27620100.855   111214426.554          45.000  
  23690338.248                   124493370.049 0                        48.000  
                  23690338.391    95391026.275          53.000  
  20853177.891                   109584186.931 0                        46.000  
                  20853177.069    83967095.748          50.000  
 22  1  6  4  0 23.0010000  0  9G01G03G04G06G09G17G19G21G31
  20524533.983    20524530.963   107856879.558 0  84045140.881 0        48.000  
        48.000                                                  
  20345164.159    20345161.228   106915236.525 0  83310578.502 0        50.000  
        49.000                                                  
  21449849.763    21449845.081   112720290.154 0  87833994.347 0        47.000  
        47.000                                                  
  25129561.089    25129559.230   132056265.056 0 102900985.367 0        34.000  
        36.000                                                  
  24322323.545    24322320.561   127814339.46810  99595590.117 0        41.000  
        40.000                                                  
  22556490.059    22556483.501   118534766.024 0  92364472.414 0        46.000  
        44.000                                                  
  22867975.309                   120172246.976 0                        44.000  
                                                                
  22315877.876                   117271002.030 0                        47.000  
                                                                
  22579377.240    22579371.057   118655464.137 0  92458805.554 0        45.000  
        41.000                                                  
 22  1  6  4  0 22.0000000  0  0
 22  1  6  4  0 23.0010000  0  7E03E05E08E09E13E15E18
  23983615.732                   126034090.910 0                        49.000  
                  23983615.321    96571578.843          53.000  
  23937762.050                   125793784.726 0                        48.000  
                  23937760.996    96387215.394          52.000  
  26057056.443                   136930801.349 0                        36.000  
                  26057054.727   104921003.719          42.000  
  26129187.238                   137309582.771 0                        36.000  
                  26129186.183   105211178.836          42.000  
  27619554.188                   145141380.135 0                        38.000  
                  27619554.402   111212226.067          45.000  
  23690135.024                   124492302.121 0                        48.000  
                  23690135.113    95390207.981          53.000  
  20853959.232                   109588293.280 0                        46.000  
                  20853958.481    83970242.158          50.000  
 22  1  6  4  0 24.0010000  0  9G01G03G04G06G09G17G19G21G31
  20524884.002    20524880.910   107858718.371 0  84046573.723 0        48.000  
        48.000                                                  
  20345071.490    20345068.595   106914750.240 0  83310199.581 0        50.000  
        49.000                                                  
  21449388.278    21449383.578   112717864.780 0  87832104.456 0        47.000  
        47.000                                                  
  25128884.246    25128882.584   132052709.006 0 102898214.385 0        34.000  
        37.000                                                  
  24321647.470    24321644.433   127810786.80210  99592821.833 0        41.000  
        40.000                                                  
  22556535.179    22556528.674   118535003.104 0  92364657.158 0        46.000  
        44.000                                                  
  22867750.124                   120171063.414 0                        44.000  
                                                                
  22316344.168                   117273452.429 0                        47.000  
                                                                
  22579429.900    22579423.807   118655740.885 0  92459021.208 0        44.000  
        41.000                                                  
 22  1  6  4  0 23.0000000  0  0
 22  1  6  4  0 24.0010000  0  7E03E05E08E09E13E15E18
  23983359.151                   126032743.126 0                        49.000  
                  23983358.811    96570546.126          53.000  
  23938012.967                   125795103.723 0                        48.000  
                  23938012.091    96388226.056          52.000  
  26056532.291                   136928048.071 0                        36.000  
                  26056530.718   104918894.051          42.000  
  26129706.637                   137312313.197 0                        36.000  
                  26129705.868   105213270.978          42.000  
  27619007.843                   145138508.701 0                        38.000  
                  27619007.789   111210025.884          45.000  
  23689932.139                   124491234.868 0                        48.000  
                  23689932.139    95389390.218          53.000  
  20854740.930                   109592400.968 0                        46.000  
                  20854740.162    83973389.614          50.000  
 22  1  6  4  0 25.0010000  0  9G01G03G04G06G09G17G19G21G31
  20525234.056    20525230.857   107860557.583 0  84048006.873 0        48.000  
        48.000                                                  
  20344979.000    20344976.141   106914264.151 0  83309820.811 0        50.000  
        49.000                                                  
  21448926.792    21448922.110   112715439.693 0  87830214.769 0        47.000  
        47.000                                                  
  25128207.385    25128205.884   132049152.854 0 102895443.336 0        34.000  
        37.000                                                  
  24320971.610    24320968.394   127807234.16810  99590053.536 0        41.000  
        40.000                                                  
  22556580.316    22556573.919   118535240.639 0  92364842.257 0        46.000  
        44.000                                                  
  22867525.045                   120169880.388 0                        44.000  
                                                                
  22316810.406                   117275902.990 0                        47.000  
                                                                
  22579482.649    22579476.556   118656018.170 0  92459237.268 0        44.000  
        41.000                                                  
 22  1  6  4  0 24.0000000  0  0
 22  1  6  4  0 25.0010000  0  7E03E05E08E09E13E15E18
  23983102.712                   126031395.496 0                        49.000  
                  23983102.444    96569513.526          53.000  
  23938263.991                   125796422.828 0                        48.000  
                  23938263.062    96389236.801          52.000  
  26056008.514                   136925294.722 0                        36.000  
                  26056006.798   104916784.335          42.000  
  26130226.125                   137315043.469 0                        36.000  
                  26130225.374   105215363.016          42.000  
  27618461.194                   145135637.173 0                        38.000  
                  27618461.247   111207825.618          45.000  
  23689729.058                   124490167.853 0                        48.000  
                  23689728.968    95388572.640          53.000  
  20855522.700                   109596509.589 0                        46.000  
                  20855521.949    83976537.780          50.000  
 22  1  6  4  0 26.0010000  0  9G01G03G04G06G09G17G19G21G31
  20525584.074    20525580.894   107862397.142 0  84049440.300 0        48.000  
        48.000                                                  
  20344886.546    20344883.687   106913778.230 0  83309442.173 0        50.000  
        49.000                                                  
  21448465.289    21448460.714   112713014.847 0  87828325.288 0        47.000  
        47.000                                                  
  25127530.489    25127529.238   132045596.528 0 102892672.215 0        34.000  
        38.000                                                  
  24320295.572    24320292.391   127803681.49010  99587285.215 0        41.000  
        40.000                                                  
  22556625.596    22556619.181   118535478.605 0  92365027.676 0        46.000  
        44.000                                                  
  22867299.985                   120168697.855 0                        44.000  
                                                                
  22317276.770                   117278353.712 0                        47.000  
                                                                
  22579535.452    22579529.484   118656295.965 0  92459453.736 0        44.000  
        41.000                                                  
 22  1  6  4  0 25.0000000  0  0
 22  1  6  4  0 26.0010000  0  7E03E05E08E09E13E15E18
  23982846.310                   126030048.003 0                        49.000  
                  23982845.988    96568481.033          53.000  
  23938515.086                   125797742.027 0                        48.000  
                  23938514.068    96390247.611          52.000  
  26055484.451                   136922541.294 0                        36.000  
                  26055482.968   104914674.570          42.000  
  26130745.684                   137317773.586 0                        36.000  
                  26130744.916   105217454.913          42.000  
  27617914.812                   145132765.548 0                        38.000  
                  27617914.848   111205625.284          45.000  
  23689525.958                   124489101.034 0                        48.000  
                  23689526.048    95387755.205          53.000  
  20856304.452                   109600619.099 0                        46.000  
                  20856304.041    83979686.630          50.000  
 22  1  6  4  0 27.0010000  0  9G01G03G04G06G09G17G19G21G31
  20525934.325    20525931.162   107864237.593 0  84050874.411 0        48.000  
        48.000                                                  
  20344794.359    20344791.357   106913293.028 0  83309064.094 0        50.000  
        49.000                                                  
  21448003.982    21447999.443   112710590.796 0  87826436.419 0        47.000  
        47.000                                                  
  25126853.735    25126852.645   132042040.605 0 102889901.358 0        34.000  
        38.000                                                  
  24319619.551    24319616.406   127800129.33710  99584517.304 0        41.000  
        40.000                                                  
  22556671.144    22556664.622   118535717.543 0  92365213.854 0        46.000  
        44.000                                                  
  22867075.121                   120167516.376 0                        44.000  
                                                                
  22317743.205                   117280805.110 0                        47.000  
                                                                
  22579588.559    22579582.484   118656574.823 0  92459671.019 0        44.000  
        41.000                                                  
 22  1  6  4  0 26.0000000  0  0
 22  1  6  4  0 27.0010000  0  7E03E05E08E09E13E15E18
  23982590.050                   126028701.173 0                        49.000  
                  23982589.639    96567449.047          53.000  
  23938766.146                   125799061.830 0                        48.000  
                  23938765.199    96391258.898          52.000  
  26054960.764                   136919788.294 0                        36.000  
                  26054959.173   104912565.162          42.000  
  26131265.423                   137320504.046 0                        36.000  
                  26131264.529   105219547.099          42.000  
  27617368.610                   145129894.372 0                        39.000  
                  27617368.396   111203425.299          44.000  
  23689323.056                   124488034.964 0                        48.000  
                  23689323.234    95386938.348          53.000  
  20857086.775                   109604730.039 0                        46.000  
                  20857086.239    83982836.571          50.000  
 22  1  6  4  0 28.0010000  0  9G01G03G04G06G09G17G19G21G31
  20526284.611    20526281.645   107866079.106 0  84052309.363 0        48.000  
        48.000                                                  
  20344702.173    20344699.207   106912808.700 0  83308686.691 0        50.000  
        49.000                                                  
  21447542.854    21447538.262   112708167.704 0  87824548.298 0        47.000  
        47.000                                                  
  25126177.071    25126176.178   132038485.265 0 102887130.973 0        34.000  
        38.000                                                  
  24318943.726    24318940.528   127796577.85610  99581749.925 0        41.000  
        40.000                                                  
  22556716.889    22556710.438   118535957.616 0  92365400.924 0        46.000  
        44.000                                                  
  22866850.490                   120166336.111 0                        44.000  
                                                                
  22318209.747                   117283257.381 0                        46.000  
                                                                
  22579641.845    22579635.787   118656854.904 0  92459889.266 0        44.000  
        41.000                                                  
 22  1  6  4  0 27.0000000  0  0
 22  1  6  4  0 28.0010000  0  7E03E05E08E09E13E15E18
  23982333.719                   126027355.197 0                        49.000  
                  23982333.576    96566417.713          53.000  
  23939017.653                   125800382.458 0                        48.000  
                  23939016.509    96392270.801          52.000  
  26054437.005                   136917036.007 0                        36.000  
                  26054435.396   104910456.229          42.000  
  26131785.268                   137323235.067 0                        36.000  
                  26131784.053   105221639.691          42.000  
  27616822.765                   145127023.842 0                        39.000  
                  27616822.247   111201225.775          45.000  
  23689120.421                   124486969.832 0                        48.000  
                  23689120.492    95386122.206          53.000  
  20857869.331                   109608842.592 0                        46.000  
                  20857868.885    83985987.745          50.000  
 22  1  6  4  0 29.0010000  0  9G01G03G04G06G09G17G19G21G31
  20526634.987    20526632.057   107867920.602 0  84053744.287 0        48.000  
        48.000                                                  
  20344609.987    20344606.949   106912324.167 0  83308309.132 0        50.000  
        49.000                                                  
  21447081.673    21447077.205   112705744.489 0  87822660.081 0        47.000  
        47.000                                                  
  25125500.371    25125499.585   132034929.406 0 102884360.146 0        34.000  
        38.000                                                  
  24318267.902    24318264.507   127793025.95910  99578982.199 0        41.000  
        40.000                                                  
  22556762.526    22556756.218   118536197.736 0  92365588.026 0        46.000  
        44.000                                                  
  22866625.983                   120165155.967 0                        44.000  
                                                                
  22318676.379                   117285709.406 0                        47.000  
                                                                
  22579695.219    22579689.126   118657135.106 0  92460107.603 0        44.000  
        41.000                                                  
 22  1  6  4  0 28.0000000  0  0
 22  1  6  4  0 29.0010000  0  7E03E05E08E09E13E15E18
  23982077.835                   126026008.975 0                        49.000  
                  23982077.424    96565386.192          53.000  
  23939268.748                   125801702.769 0                        48.000  
                  23939267.748    96393282.472          52.000  
  26053913.264                   136914283.187 0                        37.000  
                  26053911.548   104908346.947          42.000  
  26132304.900                   137325965.495 0                        36.000  
                  26132303.631   105223731.852          42.000  
  27616276.813                   145124152.786 0                        39.000  
                  27616276.044   111199025.887          45.000  
  23688917.661                   124485904.507 0                        48.000  
                  23688917.679    95385305.916          53.000  
  20858651.994                   109612955.650 0                        46.000  
                  20858651.494    83989139.309          50.000  
 22  1  6  4  0 30.0010000  0  9G01G03G04G06G09G17G19G21G31
  20526985.417    20526982.558   107869762.361 0  84055179.436 0        49.000  
        48.000                                                  
  20344517.908    20344514.781   106911839.739 0  83307931.656 0        50.000  
        49.000                                                  
  21446620.562    21446616.149   112703321.454 0  87820771.992 0        47.000  
        47.000                                                  
  25124823.600    25124823.010   132031373.298 0 102881589.201 0        34.000  
        39.000                                                  
  24317592.024    24317588.540   127789473.97010  99576214.418 0        41.000  
        40.000                                                  
  22556808.307    22556801.927   118536438.196 0  92365775.409 0        46.000  
        44.000                                                  
  22866401.638                   120163976.266 0                        44.000  
                                                                
  22319142.993                   117288161.496 0                        46.000  
                                                                
  22579748.630    22579742.411   118657415.760 0  92460326.305 0        44.000  
        41.000                                                  
 22  1  6  4  0 29.0000000  0  0
 22  1  6  4  0 30.0010000  0  7E03E05E08E09E13E15E18
  23981821.521                   126024662.800 0                        49.000  
                  23981821.200    96564354.709          53.000  
  23939520.058                   125803023.095 0                        48.000  
                  23939519.040    96394294.146          52.000  
  26053389.576                   136911530.251 0                        37.000  
                  26053387.646   104906237.551          42.000  
  26132824.263                   137328695.709 0                        36.000  
                  26132823.209   105225823.834          42.000  
  27615730.449                   145121281.581 0                        39.000  
                  27615729.574   111196825.859          45.000  
  23688714.955                   124484839.314 0                        48.000  
                  23688714.973    95384489.736          53.000  
  20859434.854                   109617069.520 0                        46.000  
                  20859434.318    83992291.491          50.000  
 22  1  6  4  0 31.0010000  0  9G01G03G04G06G09G17G19G21G31
  20527335.971    20527333.058   107871604.614 0  84056614.953 0        48.000  
        48.000                                                  
  20344425.847    20344422.630   106911355.593 0  83307554.398 0        50.000  
        49.000                                                  
  21446159.542    21446155.164   112700898.788 0  87818884.210 0        47.000  
        47.000                                                  
  25124146.846    25124146.310   132027817.219 0 102878818.216 0        34.000  
        38.000                                                  
  24316916.128    24316912.662   127785922.08210  99573446.695 0        41.000  
        39.000                                                  
  22556854.159    22556847.887   118536679.220 0  92365963.218 0        46.000  
        44.000                                                  
  22866177.221                   120162797.166 0                        44.000  
                                                                
  22319609.607                   117290613.853 0                        46.000  
                                                                
  22579802.183    22579795.858   118657697.059 0  92460545.483 0        44.000  
        41.000                                                  
 22  1  6  4  0 30.0000000  0  0
 22  1  6  4  0 31.0010000  0  7E03E05E08E09E13E15E18
  23981565.494                   126023316.895 0                        49.000  
                  23981565.154    96563323.431          53.000  
  23939771.261                   125804343.635 0                        48.000  
                  23939770.350    96395305.988          52.000  
  26052865.764                   136908777.340 0                        37.000  
                  26052863.923   104904128.181          42.000  
  26133343.608                   137331425.896 0                        36.000  
                  26133342.858   105227915.769          42.000  
  27615183.890                   145118410.385 0                        39.000  
                  27615183.336   111194625.860          45.000  
  23688512.338                   124483774.462 0                        48.000  
                  23688512.409    95383673.801          53.000  
  20860217.964                   109621184.412 0                        46.000  
                  20860217.535    83995444.461          50.000  
 22  1  6  4  0 32.0010000  0  9G01G03G04G06G09G17G19G21G31
  20527686.669    20527683.738   107873447.445 0  84058050.925 0        48.000  
        48.000                                                  
  20344333.767    20344330.551   106910871.838 0  83307177.452 0        50.000  
        49.000                                                  
  21445698.646    21445694.232   112698476.603 0  87816996.795 0        47.000  
        47.000                                                  
  25123470.039    25123469.735   132024261.201 0 102876047.303 0        34.000  
        38.000                                                  
  24316240.358    24316236.730   127782370.36910  99570679.133 0        41.000  
        39.000                                                  
  22556900.153    22556893.917   118536920.887 0  92366151.525 0        46.000  
        44.000                                                  
  22865953.054                   120161618.809 0                        44.000  
                                                                
  22320076.506                   117293066.597 0                        46.000  
                                                                
  22579855.772    22579849.483   118657979.086 0  92460765.256 0        44.000  
        41.000                                                  
 22  1  6  4  0 31.0000000  0  0
 22  1  6  4  0 32.0010000  0  7E03E05E08E09E13E15E18
  23981309.538                   126021971.333 0                        49.000  
                  23981308.913    96562292.418          53.000  
  23940022.678                   125805664.477 0                        48.000  
                  23940021.677    96396318.058          52.000  
  26052342.058                   136906024.613 0                        37.000  
                  26052339.878   104902018.924          42.000  
  26133863.257                   137334156.092 0                        36.000  
                  26133862.221   105230007.753          42.000  
  27614637.312                   145115539.311 0                        39.000  
                  27614636.937   111192425.949          45.000  
  23688309.846                   124482710.034 0                        48.000  
                  23688309.828    95382858.203          53.000  
  20861001.431                   109625300.422 0                        46.000  
                  20861000.610    83998598.286          50.000  
 22  1  6  4  0 33.0010000  0  9G01G03G04G06G09G17G19G21G31
  20528037.580    20528034.632   107875291.241 0  84059487.642 0        48.000  
        48.000                                                  
  20344241.849    20344238.686   106910388.872 0  83306801.117 0        50.000  
        49.000                                                  
  21445237.875    21445233.533   112696055.281 0  87815110.046 0        47.000  
        47.000                                                  
  25122793.393    25122793.089   132020705.665 0 102873276.744 0        34.000  
        39.000                                                  
  24315564.587    24315561.049   127778819.23410  99567912.032 0        41.000  
        40.000                                                  
  22556946.398    22556940.073   118537163.589 0  92366340.650 0        46.000  
        44.000                                                  
  22865729.048                   120160441.564 0                        44.000  
                                                                
  22320543.352                   117295520.086 0                        46.000  
                                                                
  22579909.737    22579903.340   118658262.231 0  92460985.879 0        44.000  
        41.000                                                  
 22  1  6  4  0 32.0000000  0  0
 22  1  6  4  0 33.0010000  0  7E03E05E08E09E13E15E18
  23981053.654                   126020626.531 0                        49.000  
                  23981053.082    96561261.983          53.000  
  23940274.220                   125806986.015 0                        48.000  
                  23940273.077    96397330.669          52.000  
  26051818.299                   136903272.376 0                        37.000  
                  26051816.173   104899910.077          42.000  
  26134382.870                   137336886.717 0                        36.000  
                  26134381.977   105232100.064          42.000  
  27614091.252                   145112668.767 0                        38.000  
                  27614090.752   111190226.436          45.000  
  23688107.354                   124481646.426 0                        48.000  
                  23688107.408    95382043.230          53.000  
  20861784.935                   109629417.932 0                        46.000  
                  20861784.166    84001753.254          50.000  
 22  1  6  4  0 34.0010000  0  9G01G03G04G06G09G17G19G21G31
  20528388.582    20528385.544   107877135.292 0  84060924.573 0        48.000  
        48.000                                                  
  20344149.931    20344146.858   106909905.991 0  83306424.842 0        50.000  
        49.000                                                  
  21444777.105    21444772.852   112693634.115 0  87813223.423 0        47.000  
        47.000                                                  
  25122116.657    25122116.604   132017149.876 0 102870506.036 0        34.000  
        39.000                                                  
  24314888.816    24314885.314   127775267.98610  99565144.815 0        41.000  
        40.000                                                  
  22556992.697    22556986.354   118537406.629 0  92366530.023 0        46.000  
        44.000                                                  
  22865504.970                   120159264.739 0                        44.000  
                                                                
  22321010.395                   117297973.628 0                        46.000  
                                                                
  22579963.701    22579957.286   118658545.813 0  92461206.869 0        44.000  
        41.000                                                  
 22  1  6  4  0 33.0000000  0  0
 22  1  6  4  0 34.0010000  0  7E03E05E08E09E13E15E18
  23980797.769                   126019281.752 0                        49.000  
                  23980797.251    96560231.573          53.000  
  23940525.655                   125808307.546 0                        48.000  
                  23940524.690    96398343.271          52.000  
  26051294.594                   136900519.981 0                        37.000  
                  26051292.271   104897801.110          42.000  
  26134902.394                   137339617.112 0                        36.000  
                  26134901.608   105234192.176          42.000  
  27613544.889                   145109798.022 0                        38.000  
                  27613544.496   111188026.784          45.000  
  23687904.934                   124480582.935 0                        48.000  
                  23687905.006    95381228.347          53.000  
  20862568.849                   109633536.236 0                        46.000  
                  20862567.830    84004908.843          50.000  
 22  1  6  4  0 35.0010000  0  9G01G03G04G06G09G17G19G21G31
  20528739.601    20528736.581   107878979.945 0  84062361.964 0        48.000  
        48.000                                                  
  20344058.031    20344055.064   106909423.517 0  83306048.891 0        50.000  
        49.000                                                  
  21444316.495    21444312.135   112691213.444 0  87811337.196 0        47.000  
        47.000                                                  
  25121439.993    25121440.065   132013594.191 0 102867735.360 0        33.000  
        39.000                                                  
  24314213.063    24314209.615   127771716.92710  99562377.780 0        40.000  
        40.000                                                  
  22557039.031    22557032.795   118537650.329 0  92366719.930 0        46.000  
        44.000                                                  
  22865281.089                   120158088.650 0                        44.000  
                                                                
  22321477.277                   117300427.564 0                        46.000  
                                                                
  22580017.862    22580011.394   118658830.164 0  92461428.420 0        44.000  
        41.000                                                  
 22  1  6  4  0 34.0000000  0  0
 22  1  6  4  0 35.0010000  0  7E03E05E08E09E13E15E18
  23980541.885                   126017937.364 0                        49.000  
                  23980541.402    96559201.462          53.000  
  23940776.912                   125809629.401 0                        48.000  
                  23940776.108    96399356.123          52.000  
  26050770.674                   136897767.762 0                        37.000  
                  26050768.548   104895692.257          42.000  
  26135422.133                   137342347.596 0                        36.000  
                  26135421.222   105236284.345          42.000  
  27612998.615                   145106927.436 0                        38.000  
                  27612998.312   111185827.237          45.000  
  23687702.710                   124479519.896 0                        48.000  
                  23687702.693    95380413.815          53.000  
  20863352.709                   109637655.680 0                        46.000  
                  20863351.869    84008065.299          50.000  
 22  1  6  4  0 36.0010000  0  9G01G03G04G06G09G17G19G21G31
  20529090.691    20529087.761   107880825.085 0  84063799.736 0        48.000  
        48.000                                                  
  20343966.363    20343963.378   106908941.346 0  83305673.175 0        50.000  
        49.000                                                  
  21443855.921    21443851.454   112688793.164 0  87809451.258 0        47.000  
        47.000                                                  
  25120763.293    25120763.508   132010038.496 0 102864964.721 0        33.000  
        39.000                                                  
  24313537.346    24313533.933   127768166.00710  99559610.811 0        40.000  
        40.000                                                  
  22557085.527    22557079.237   118537894.601 0  92366910.272 0        46.000  
        44.000                                                  
  22865057.405                   120156913.213 0                        44.000  
                                                                
  22321944.284                   117302881.760 0                        46.000  
                                                                
  22580071.970    22580065.555   118659115.140 0  92461650.491 0        44.000  
        41.000                                                  
 22  1  6  4  0 35.0000000  0  0
 22  1  6  4  0 36.0010000  0  7E03E05E08E09E13E15E18
  23980285.983                   126016593.231 0                        49.000  
                  23980285.607    96558171.542          53.000  
  23941028.454                   125810951.473 0                        48.000  
                  23941027.757    96400369.139          52.000  
  26050247.005                   136895015.584 0                        37.000  
                  26050244.896   104893583.455          42.000  
  26135941.836                   137345077.974 0                        36.000  
                  26135940.781   105238376.468          42.000  
  27612452.216                   145104056.859 0                        38.000  
                  27612452.056   111183627.722          45.000  
  23687500.469                   124478457.185 0                        48.000  
                  23687500.558    95379599.535          53.000  
  20864136.802                   109641776.129 0                        46.000  
                  20864135.890    84011222.532          50.000  
 22  1  6  4  0 37.0010000  0  9G01G03G04G06G09G17G19G21G31
  20529441.889    20529438.887   107882670.724 0  84065237.892 0        48.000  
        48.000                                                  
  20343874.659    20343871.692   106908459.489 0  83305297.700 0        50.000  
        49.000                                                  
  21443395.454    21443391.076   112686373.274 0  87807565.625 0        47.000  
        47.000                                                  
  25120086.486    25120086.861   132006482.822 0 102862194.034 0        33.000  
        39.000                                                  
  24312861.665    24312858.180   127764615.20410  99556843.926 0        40.000  
        40.000                                                  
  22557132.147    22557125.929   118538139.428 0  92367101.038 0        47.000  
        44.000                                                  
  22864833.935                   120155738.409 0                        44.000  
                                                                
  22322411.273                   117305336.247 0                        46.000  
                                                                
  22580126.327    22580119.966   118659400.776 0  92461873.071 0        44.000  
        41.000                                                  
 22  1  6  4  0 36.0000000  0  0
 22  1  6  4  0 37.0010000  0  7E03E05E08E09E13E15E18
  23980030.420                   126015249.383 0                        49.000  
                  23980029.848    96557141.831          53.000  
  23941280.264                   125812273.773 0                        48.000  
                  23941279.317    96401382.328          52.000  
  26049723.442                   136892263.493 0                        37.000  
                  26049721.262   104891474.688          42.000  
  26136461.431                   137347808.346 0                        37.000  
                  26136460.448   105240468.560          42.000  
  27611905.835                   145101186.334 0                        38.000  
                  27611905.817   111181428.231          45.000  
  23687298.406                   124477394.833 0                        48.000  
                  23687298.352    95378785.516          53.000  
  20864921.162                   109645897.624 0                        46.000  
                  20864920.072    84014380.551          50.000  
 22  1  6  4  0 38.0010000  0  9G01G03G04G06G09G17G19G21G31
  20529793.283    20529790.228   107884516.918 0  84066676.484 0        48.000  
        48.000                                                  
  20343782.991    20343779.953   106907978.008 0  83304922.520 0        50.000  
        49.000                                                  
  21442935.076    21442930.609   112683953.845 0  87805680.356 0        47.000  
        47.000                                                  
  25119409.804    25119410.304   132002927.165 0 102859423.445 0        34.000  
        39.000                                                  
  24312186.055    24312182.499   127761064.56610  99554077.209 0        40.000  
        40.000                                                  
  22557178.803    22557172.638   118538384.883 0  92367292.308 0        47.000  
        44.000                                                  
  22864610.501                   120154564.319 0                        44.000  
                                                                
  22322878.333                   117307791.087 0                        46.000  
                                                                
  22580180.864    22580174.502   118659687.128 0  92462096.205 0        44.000  
        41.000                                                  
 22  1  6  4  0 37.0000000  0  0
 22  1  6  4  0 38.0010000  0  7E03E05E08E09E13E15E18
  23979774.786                   126013905.875 0                        49.000  
                  23979774.267    96556112.395          53.000  
  23941531.860                   125813596.361 0                        48.000  
                  23941531.092    96402395.740          52.000  
  26049199.701                   136889511.509 0                        37.000  
                  26049197.557   104889366.027          42.000  
  26136980.937                   137350538.760 0                        36.000  
                  26136979.954   105242560.702          42.000  
  27611359.633                   145098315.945 0                        38.000  
                  27611359.543   111179228.820          45.000  
  23687096.325                   124476332.894 0                        48.000  
                  23687096.325    95377971.822          53.000  
  20865705.595                   109650020.210 0                        46.000  
                  20865704.666    84017539.422          50.000  
 22  1  6  4  0 39.0010000  0  9G01G03G04G06G09G17G19G21G31
  20530144.660    20530141.640   107886363.760 0  84068115.584 0        48.000  
        48.000                                                  
  20343691.483    20343688.446   106907497.002 0  83304547.710 0        50.000  
        49.000                                                  
  21442474.770    21442470.321   112681534.967 0  87803795.518 0        47.000  
        47.000                                                  
  25118733.265    25118733.622   131999371.714 0 102856652.959 0        35.000  
        39.000                                                  
  24311510.499    24311506.853   127757514.19710  99551310.688 0        40.000  
        40.000                                                  
  22557225.530    22557219.526   118538631.089 0  92367484.152 0        47.000  
        44.000                                                  
  22864387.102                   120153391.044 0                        44.000  
                                                                
  22323345.626                   117310246.384 0                        46.000  
                                                                
  22580235.507    22580229.199   118659974.308 0  92462319.973 0        44.000  
        41.000                                                  
 22  1  6  4  0 38.0000000  0  0
 22  1  6  4  0 39.0010000  0  7E03E05E08E09E13E15E18
  23979519.223                   126012562.795 0                        49.000  
                  23979518.633    96555083.279          53.000  
  23941783.688                   125814919.343 0                        48.000  
                  23941782.795    96403409.453          52.000  
  26048675.960                   136886759.742 0                        36.000  
                  26048673.887   104887257.536          42.000  
  26137500.658                   137353269.305 0                        36.000  
                  26137499.585   105244652.938          42.000  
  27610813.448                   145095445.726 0                        38.000  
                  27610813.413   111177029.583          45.000  
  23686894.280                   124475271.463 0                        48.000  
                  23686894.334    95377158.520          53.000  
  20866490.438                   109654143.990 0                        46.000  
                  20866489.348    84020699.198          50.000  
 22  1  6  4  0 40.0010000  0  9G01G03G04G06G09G17G19G21G31
  20530496.215    20530493.177   107888210.910 0  84069554.919 0        49.000  
        48.000                                                  
  20343599.940    20343596.974   106907016.111 0  83304172.987 0        50.000  
        49.000                                                  
  21442014.500    21442010.015   112679116.286 0  87801910.836 0        47.000  
        47.000                                                  
  25118056.726    25118056.833   131995816.073 0 102853882.322 0        35.000  
        40.000                                                  
  24310834.835    24310831.154   127753963.74010  99548544.087 0        40.000  
        40.000                                                  
  22557272.383    22557266.540   118538877.656 0  92367676.282 0        47.000  
        44.000                                                  
  22864163.936                   120152218.210 0                        44.000  
                                                                
  22323812.848                   117312701.769 0                        46.000  
                                                                
  22580290.168    22580283.843   118660261.940 0  92462544.106 0        44.000  
        41.000                                                  
 22  1  6  4  0 39.0000000  0  0
 22  1  6  4  0 40.0010000  0  7E03E05E08E09E13E15E18
  23979263.696                   126011219.795 0                        49.000  
                  23979262.999    96554054.227          53.000  
  23942035.320                   125816242.351 0                        48.000  
                  23942034.623    96404423.184          52.000  
  26048152.416                   136884007.854 0                        36.000  
                  26048150.236   104885148.945          42.000  
  26138020.325                   137355999.613 0                        36.000  
                  26138019.038   105246744.994          42.000  
  27610267.299                   145092575.392 0                        38.000  
                  27610267.174   111174830.225          45.000  
  23686692.307                   124474210.193 0                        48.000  
                  23686692.396    95376345.333          53.000  
  20867275.335                   109658268.613 0                        46.000  
                  20867274.370    84023859.614          50.000  
 22  1  6  4  0 41.0010000  0  9G01G03G04G06G09G17G19G21G31
  20530847.877    20530844.840   107890058.703 0  84070994.756 0        48.000  
        48.000                                                  
  20343508.612    20343505.592   106906535.677 0  83303798.625 0        50.000  
        49.000                                                  
  21441554.373    21441549.852   112676698.157 0  87800026.575 0        47.000  
        47.000                                                  
  25117380.205    25117380.312   131992260.575 0 102851111.816 0        35.000  
        40.000                                                  
  24310159.279    24310155.652   127750413.53010  99545777.701 0        40.000  
        40.000                                                  
  22557319.504    22557313.553   118539124.936 0  92367868.964 0        47.000  
        44.000                                                  
  22863940.770                   120151046.179 0                        44.000  
                                                                
  22324280.140                   117315157.588 0                        46.000  
                                                                
  22580345.116    22580338.683   118660550.367 0  92462768.861 0        44.000  
        41.000                                                  
 22  1  6  4  0 40.0000000  0  0
 22  1  6  4  0 41.0010000  0  7E03E05E08E09E13E15E18
  23979008.222                   126009877.218 0                        49.000  
                  23979007.543    96553025.504          53.000  
  23942287.327                   125817565.728 0                        48.000  
                  23942286.487    96405437.201          52.000  
  26047628.621                   136881256.187 0                        36.000  
                  26047626.423   104883040.529          42.000  
  26138539.777                   137358730.055 0                        36.000  
                  26138538.580   105248837.138          42.000  
  27609721.168                   145089705.226 0                        38.000  
                  27609721.204   111172631.009          45.000  
  23686490.512                   124473149.399 0                        48.000  
                  23686490.494    95375532.526          53.000  
  20868060.535                   109662394.400 0                        46.000  
                  20868059.320    84027020.931          50.000  
 22  1  6  4  0 42.0010000  0  9G01G03G04G06G09G17G19G21G31
  20531199.629    20531196.520   107891907.135 0  84072435.097 0        48.000  
        48.000                                                  
  20343417.212    20343414.335   106906055.707 0  83303424.623 0        50.000  
        49.000                                                  
  21441094.281    21441089.760   112674280.547 0  87798142.726 0        47.000  
        47.000                                                  
  25116703.701    25116703.701   131988705.220 0 102848341.417 0        35.000  
        40.000                                                  
  24309483.687    24309480.113   127746863.59610  99543011.525 0        40.000  
        40.000                                                  
  22557366.696    22557360.674   118539372.924 0  92368062.205 0        47.000  
        44.000                                                  
  22863717.925                   120149874.944 0                        44.000  
                                                                
  22324747.594                   117317613.836 0                        46.000  
                                                                
  22580400.117    22580393.844   118660839.612 0  92462994.245 0        44.000  
        41.000                                                  
 22  1  6  4  0 41.0000000  0  0
 22  1  6  4  0 42.0010000  0  7E03E05E08E09E13E15E18
  23978752.856                   126008535.063 0                        49.000  
                  23978752.177    96551997.099          53.000  
  23942539.083                   125818889.481 0                        48.000  
                  23942538.297    96406451.507          52.000  
  26047104.916                   136878504.704 0                        36.000  
                  26047102.968   104880932.243          42.000  
  26139059.265                   137361460.574 0                        36.000  
                  26139058.229   105250929.356          42.000  
  27609174.948                   145086835.235 0                        38.000  
                  27609174.805   111170431.933          45.000  
  23686288.824                   124472089.121 0                        48.000  
                  23686288.699    95374720.105          53.000  
  20868845.861                   109666521.365 0                        46.000  
                  20868844.700    84030183.155          50.000  
 22  1  6  4  0 43.0010000  0  9G01G03G04G06G09G17G19G21G31
  20531551.417    20531548.325   107893756.266 0  84073875.976 0        48.000  
        48.000                                                  
  20343326.062    20343323.042   106905576.256 0  83303051.032 0        50.000  
        49.000                                                  
  21440634.458    21440629.865   112671863.550 0  87796259.345 0        47.000  
        47.000                                                  
  25116027.198    25116027.109   131985150.080 0 102845571.155 0        35.000  
        40.000                                                  
  24308808.238    24308804.664   127743313.98410  99540245.578 0        40.000  
        40.000                                                  
  22557414.013    22557407.973   118539621.686 0  92368256.046 0        47.000  
        44.000                                                  
  22863495.152                   120148704.545 0                        44.000  
                                                                
  22325215.030                   117320070.585 0                        46.000  
                                                                
  22580455.260    22580448.988   118661129.706 0  92463220.285 0        44.000  
        41.000                                                  
 22  1  6  4  0 42.0000000  0  0
 22  1  6  4  0 43.0010000  0  7E03E05E08E09E13E15E18
  23978497.526                   126007193.386 0                        49.000  
                  23978496.793    96550969.061          53.000  
  23942791.019                   125820213.663 0                        48.000  
                  23942790.375    96407466.140          52.000  
  26046581.425                   136875753.527 0                        36.000  
                  26046579.459   104878824.189          42.000  
  26139578.914                   137364191.287 0                        36.000  
                  26139577.949   105253021.718          42.000  
  27608629.282                   145083965.509 0                        39.000  
                  27608628.746   111168233.060          45.000  
  23686087.101                   124471029.392 0                        48.000  
                  23686087.083    95373908.105          53.000  
  20869631.562                   109670649.558 0                        46.000  
                  20869630.168    84033346.321          50.000  
 22  1  6  4  0 44.0010000  0  9G01G03G04G06G09G17G19G21G31
  20531903.311    20531900.309   107895605.696 0  84075317.091 0        49.000  
        48.000                                                  
  20343234.894    20343231.678   106905096.920 0  83302677.518 0        50.000  
        49.000                                                  
  21440174.598    21440169.988   112669446.748 0  87794376.129 0        47.000  
        47.000                                                  
  25115350.677    25115350.427   131981594.738 0 102842800.767 0        35.000  
        40.000                                                  
  24308132.735    24308129.215   127739764.28510  99537479.590 0        40.000  
        40.000                                                  
  22557461.437    22557455.433   118539870.829 0  92368450.177 0        46.000  
        44.000                                                  
  22863272.558                   120147534.607 0                        44.000  
                                                                
  22325682.483                   117322527.429 0                        46.000  
                                                                
  22580510.690    22580504.311   118661420.269 0  92463446.698 0        44.000  
        41.000                                                  
 22  1  6  4  0 43.0000000  0  0
 22  1  6  4  0 44.0010000  0  7E03E05E08E09E13E15E18
  23978242.124                   126005851.788 0                        49.000  
                  23978241.623    96549941.081          53.000  
  23943043.043                   125821537.874 0                        48.000  
                  23943042.346    96408480.793          52.000  
  26046057.827                   136873002.200 0                        36.000  
                  26046055.772   104876716.032          42.000  
  26140098.581                   137366921.773 0                        36.000  
                  26140097.581   105255113.918          42.000  
  27608083.401                   145081095.636 0                        39.000  
                  27608082.633   111166034.058          45.000  
  23685885.324                   124469969.816 0                        48.000  
                  23685885.413    95373096.219          53.000  
  20870417.191                   109674778.600 0                        46.000  
                  20870416.084    84036510.130          50.000  
 22  1  6  4  0 45.0010000  0  9G01G03G04G06G09G17G19G21G31
  20532255.402    20532252.240   107897455.444 0  84076758.455 0        49.000  
        48.000                                                  
  20343143.744    20343140.456   106904617.718 0  83302304.112 0        50.000  
        49.000                                                  
  21439714.721    21439710.093   112667030.159 0  87792493.072 0        47.000  
        47.000                                                  
  25114674.156    25114673.852   131978039.193 0 102840030.231 0        36.000  
        40.000                                                  
  24307457.161    24307453.712   127736214.54410  99534713.546 0        39.000  
        40.000                                                  
  22557508.880    22557502.911   118540120.360 0  92368644.618 0        47.000  
        44.000                                                  
  22863049.999                   120146365.132 0                        44.000  
                                                                
  22326149.937                   117324984.369 0                        46.000  
                                                                
  22580566.066    22580559.705   118661711.305 0  92463673.477 0        44.000  
        41.000                                                  
 22  1  6  4  0 44.0000000  0  0
 22  1  6  4  0 45.0010000  0  7E03E05E08E09E13E15E18
  23977986.954                   126004510.285 0                        49.000  
                  23977986.204    96548913.180          53.000  
  23943295.104                   125822862.129 0                        48.000  
                  23943294.264    96409495.484          52.000  
  26045534.318                   136870250.735 0                        36.000  
                  26045532.192   104874607.784          42.000  
  26140618.212                   137369652.040 0                        36.000  
                  26140617.122   105257205.940          42.000  
  27607537.127                   145078225.608 0                        39.000  
                  27607536.430   111163834.954          45.000  
  23685683.797                   124468910.400 0                        48.000  
                  23685683.850    95372284.464          53.000  
  20871203.375                   109678908.472 0                        46.000  
                  20871201.910    84039674.578          50.000  
 22  1  6  4  0 46.0010000  0  9G01G03G04G06G09G17G19G21G31
  20532607.583    20532604.384   107899306.185 0  84078200.587 0        49.000  
        48.000                                                  
  20343052.809    20343049.431   106904139.327 0  83301931.340 0        50.000  
        49.000                                                  
  21439254.969    21439250.377   112664614.468 0  87790610.709 0        47.000  
        47.000                                                  
  25113997.795    25113997.241   131974484.182 0 102837260.075 0        36.000  
        40.000                                                  
  24306781.712    24306778.388   127732665.37010  99531947.963 0        40.000  
        40.000                                                  
  22557556.536    22557550.729   118540370.938 0  92368839.879 0        46.000  
        44.000                                                  
  22862827.708                   120145196.785 0                        44.000  
                                                                
  22326617.534                   117327442.105 0                        46.000  
                                                                
  22580621.603    22580615.367   118662003.491 0  92463901.159 0        44.000  
        41.000                                                  
 22  1  6  4  0 45.0000000  0  0
 22  1  6  4  0 46.0010000  0  7E03E05E08E09E13E15E18
  23977731.838                   126003169.556 0                        49.000  
                  23977731.231    96547885.862          53.000  
  23943547.200                   125824187.109 0                        48.000  
                  23943546.467    96410510.730          52.000  
  26045011.024                   136867499.851 0                        36.000  
                  26045008.754   104872499.939          42.000  
  26141137.736                   137372382.785 0                        36.000  
                  26141136.754   105259298.311          42.000  
  27606991.175                   145075356.143 0                        39.000  
                  27606990.424   111161636.271          45.000  
  23685482.466                   124467851.839 0                        48.000  
                  23685482.449    95371473.354          53.000  
  20871989.612                   109683039.894 0                        46.000  
                  20871988.129    84042840.197          50.000  
 22  1  6  4  0 47.0010000  0  9G01G03G04G06G09G17G19G21G31
  20532959.835    20532956.690   107901157.406 0  84079643.103 0        49.000  
        48.000                                                  
  20342961.855    20342958.514   106903661.235 0  83301558.805 0        50.000  
        49.000                                                  
  21438795.306    21438790.732   112662199.162 0  87788728.666 0        47.000  
        47.000                                                  
  25113321.292    25113320.702   131970929.145 0 102834489.927 0        36.000  
        40.000                                                  
  24306106.424    24306103.064   127729116.33610  99529182.480 0        40.000  
        41.000                                                  
  22557604.247    22557598.457   118540622.077 0  92369035.574 0        46.000  
        44.000                                                  
  22862605.560                   120144029.106 0                        44.000  
                                                                
  22327085.202                   117329900.125 0                        46.000  
                                                                
  22580677.283    22580671.047   118662296.334 0  92464129.364 0        44.000  
        41.000                                                  
 22  1  6  4  0 46.0000000  0  0
 22  1  6  4  0 47.0010000  0  7E03E05E08E09E13E15E18
  23977476.776                   126001829.091 0                        49.000  
                  23977476.097    96546858.757          53.000  
  23943799.439                   125825512.306 0                        48.000  
                  23943798.617    96411526.143          52.000  
  26044487.622                   136864749.025 0                        36.000  
                  26044485.424   104870392.184          42.000  
  26141657.439                   137375113.480 0                        36.000  
                  26141656.385   105261390.667          42.000  
  27606445.151                   145072486.719 0                        39.000  
                  27606444.293   111159437.612          44.000  
  23685281.011                   124466793.621 0                        48.000  
                  23685281.029    95370662.516          53.000  
  20872776.081                   109687172.313 0                        46.000  
                  20872774.419    84046006.607          50.000  
 22  1  6  4  0 48.0010000  0  9G01G03G04G06G09G17G19G21G31
  20533312.302    20533309.139   107903008.975 0  84081085.880 0        49.000  
        48.000                                                  
  20342870.884    20342867.686   106903183.304 0  83301186.389 0        50.000  
        49.000                                                  
  21438335.715    21438331.158   112659784.087 0  87786846.776 0        47.000  
        47.000                                                  
  25112645.039    25112644.181   131967373.964 0 102831719.647 0        36.000  
        41.000                                                  
  24305431.064    24305427.722   127725567.23010  99526416.963 0        39.000  
        41.000                                                  
  22557652.064    22557646.328   118540873.630 0  92369231.596 0        46.000  
        44.000                                                  
  22862383.359                   120142861.888 0                        44.000  
                                                                
  22327552.941                   117332358.257 0                        46.000  
                                                                
  22580733.124    22580726.869   118662589.659 0  92464357.920 0        44.000  
        41.000                                                  
 22  1  6  4  0 47.0000000  0  0
 22  1  6  4  0 48.0010000  0  7E03E05E08E09E13E15E18
  23977221.695                   126000488.743 0                        49.000  
                  23977221.016    96545831.738          53.000  
  23944051.732                   125826837.570 0                        48.000  
                  23944050.767    96412541.601          52.000  
  26043964.328                   136861998.071 0                        36.000  
                  26043962.005   104868284.313          42.000  
  26142177.017                   137377843.975 0                        36.000  
                  26142175.980   105263482.855          42.000  
  27605898.984                   145069617.139 0                        39.000  
                  27605898.234   111157238.864          45.000  
  23685079.788                   124465735.594 0                        48.000  
                  23685079.752    95369851.816          53.000  
  20873562.801                   109691305.616 0                        46.000  
                  20873561.067    84049173.674          50.000  
 22  1  6  4  0 49.0010000  0  9G01G03G04G06G09G17G19G21G31
  20533664.840    20533661.730   107904861.451 0  84082529.363 0        49.000  
        48.000                                                  
  20342780.110    20342776.732   106902706.098 0  83300814.531 0        50.000  
        49.000                                                  
  21437876.410    21437871.889   112657369.817 0  87784965.529 0        47.000  
        47.000                                                  
  25111968.803    25111967.660   131963819.217 0 102828949.698 0        37.000  
        41.000                                                  
  24304755.811    24304752.452   127722018.65710  99523651.830 0        39.000  
        41.000                                                  
  22557700.185    22557694.485   118541126.163 0  92369428.365 0        46.000  
        45.000                                                  
  22862161.497                   120141695.750 0                        44.000  
                                                                
  22328020.877                   117334817.101 0                        46.000  
                                                                
  22580789.089    22580782.907   118662884.057 0  92464587.323 0        44.000  
        40.000                                                  
 22  1  6  4  0 48.0000000  0  0
 22  1  6  4  0 49.0010000  0  7E03E05E08E09E13E15E18
  23976966.651                   125999149.077 0                        49.000  
                  23976966.097    96544805.240          53.000  
  23944303.917                   125828163.468 0                        48.000  
                  23944303.113    96413557.549          52.000  
  26043440.926                   136859247.662 0                        36.000  
                  26043438.710   104866176.845          42.000  
  26142696.737                   137380574.864 0                        36.000  
                  26142695.629   105265575.372          42.000  
  27605352.854                   145066748.067 0                        39.000  
                  27605352.389   111155040.468          45.000  
  23684878.368                   124464678.327 0                        48.000  
                  23684878.529    95369041.698          53.000  
  20874349.538                   109695440.336 0                        46.000  
                  20874347.930    84052341.850          50.000  
 22  1  6  4  0 50.0010000  0  9G01G03G04G06G09G17G19G21G31
  20534017.503    20534014.143   107906714.236 0  84083973.098 0        49.000  
        48.000                                                  
  20342689.389    20342685.958   106902229.025 0  83300442.790 0        50.000  
        49.000                                                  
  21437417.069    21437412.512   112654955.772 0  87783084.457 0        47.000  
        47.000                                                  
  25111292.443    25111291.264   131960264.270 0 102826179.610 0        37.000  
        41.000                                                  
  24304080.666    24304077.253   127718470.02310  99520886.674 0        39.000  
        40.000                                                  
  22557748.289    22557742.606   118541379.083 0  92369625.446 0        46.000  
        44.000                                                  
  22861939.600                   120140530.067 0                        44.000  
                                                                
  22328488.831                   117337276.058 0                        46.000  
                                                                
  22580845.198    22580839.069   118663178.940 0  92464817.109 0        44.000  
        40.000                                                  
 22  1  6  4  0 49.0000000  0  0
 22  1  6  4  0 50.0010000  0  7E03E05E08E09E13E15E18
  23976711.981                   125997809.522 0                        49.000  
                  23976711.124    96543778.823          53.000  
  23944556.299                   125829489.416 0                        48.000  
                  23944555.388    96414573.537          52.000  
  26042917.382                   136856497.083 0                        36.000  
                  26042915.219   104864069.266          42.000  
  26143216.565                   137383305.524 0                        36.000  
                  26143215.189   105267667.710          42.000  
  27604806.669                   145063878.837 0                        39.000  
                  27604806.437   111152841.969          45.000  
  23684677.574                   124463621.233 0                        48.000  
                  23684677.360    95368231.716          53.000  
  20875136.651                   109699575.928 0                        46.000  
                  20875134.846    84055510.671          50.000  
 22  1  6  4  0 51.0010000  0  9G01G03G04G06G09G17G19G21G31
  20534370.076    20534366.753   107908567.193 0  84085416.963 0        49.000  
        48.000                                                  
  20342598.596    20342595.219   106901751.945 0  83300071.042 0        50.000  
        49.000                                                  
  21436957.727    21436953.010   112652541.786 0  87781203.429 0        47.000  
        47.000                                                  
  25110615.975    25110614.778   131956708.987 0 102823409.284 0        37.000  
        41.000                                                  
  24303405.378    24303401.965   127714921.17710  99518121.324 0        39.000  
        40.000                                                  
  22557796.535    22557790.888   118541632.249 0  92369822.714 0        46.000  
        44.000                                                  
  22861717.827                   120139364.701 0                        44.000  
                                                                
  22328956.785                   117339734.964 0                        46.000  
                                                                
  22580901.378    22580895.178   118663474.145 0  92465047.130 0        44.000  
        40.000                                                  
 22  1  6  4  0 50.0000000  0  0
 22  1  6  4  0 51.0010000  0  7E03E05E08E09E13E15E18
  23976456.865                   125996469.896 0                        49.000  
                  23976456.294    96542752.361          53.000  
  23944808.556                   125830815.273 0                        48.000  
                  23944807.788    96415589.447          52.000  
  26042393.730                   136853746.258 0                        36.000  
                  26042391.800   104861961.490          42.000  
  26143736.053                   137386035.858 0                        36.000  
                  26143734.981   105269759.757          42.000  
  27604260.520                   145061009.319 0                        39.000  
                  27604260.341   111150643.257          45.000  
  23684476.298                   124462564.157 0                        48.000  
                  23684476.226    95367421.751          53.000  
  20875923.763                   109703712.215 0                        46.000  
                  20875921.958    84058680.034          50.000  
 22  1  6  4  0 52.0010000  0  9G01G03G04G06G09G17G19G21G31
  20534722.882    20534719.523   107910420.946 0  84086861.443 0        49.000  
        48.000                                                  
  20342507.893    20342504.533   106901275.470 0  83299699.767 0        50.000  
        49.000                                                  
  21436498.476    21436493.794   112650128.502 0  87779322.952 0        47.000  
        47.000                                                  
  25109939.508    25109938.293   131953154.026 0 102820639.189 0        37.000  
        42.000                                                  
  24302730.125    24302726.730   127711372.73310  99515356.330 0        39.000  
        41.000                                                  
  22557844.907    22557839.242   118541886.296 0  92370020.670 0        46.000  
        44.000                                                  
  22861496.287                   120138200.288 0                        44.000  
                                                                
  22329424.864                   117342194.481 0                        45.000  
                                                                
  22580957.719    22580951.501   118663770.313 0  92465277.920 0        44.000  
        40.000                                                  
 22  1  6  4  0 51.0000000  0  0
 22  1  6  4  0 52.0010000  0  7E03E05E08E09E13E15E18
  23976202.125                   125995130.872 0                        49.000  
                  23976201.463    96541726.360          53.000  
  23945060.956                   125832141.653 0                        48.000  
                  23945060.116    96416605.768          52.000  
  26041869.953                   136850995.811 0                        35.000  
                  26041868.524   104859854.003          42.000  
  26144255.631                   137388766.459 0                        36.000  
                  26144254.469   105271852.040          42.000  
  27603714.639                   145058140.165 0                        39.000  
                  27603714.496   111148444.821          45.000  
  23684275.074                   124461507.747 0                        48.000  
                  23684275.235    95366612.296          53.000  
  20876711.162                   109707849.837 0                        46.000  
                  20876709.285    84061850.422          50.000  
 22  1  6  4  0 53.0010000  0  9G01G03G04G06G09G17G19G21G31
  20535075.867    20535072.436   107912275.288 0  84088306.383 0        49.000  
        48.000                                                  
  20342417.333    20342413.991   106900799.402 0  83299328.806 0        50.000  
        49.000                                                  
  21436039.403    21436034.560   112647715.710 0  87777442.851 0        47.000  
        47.000                                                  
  25109263.058    25109261.772   131949599.144 0 102817869.165 0        37.000  
        42.000                                                  
  24302054.927    24302051.531   127707824.51910  99512591.472 0        38.000  
        40.000                                                  
  22557893.314    22557887.810   118542140.989 0  92370219.137 0        46.000  
        45.000                                                  
  22861274.801                   120137036.612 0                        44.000  
                                                                
  22329892.961                   117344654.355 0                        45.000  
                                                                
  22581014.221    22581007.931   118664067.224 0  92465509.283 0        44.000  
        40.000                                                  
 22  1  6  4  0 52.0000000  0  0
 22  1  6  4  0 53.0010000  0  7E03E05E08E09E13E15E18
  23975947.598                   125993792.203 0                        49.000  
                  23975946.598    96540700.618          53.000  
  23945313.481                   125833468.346 0                        48.000  
                  23945312.534    96417622.328          52.000  
  26041346.444                   136848245.491 0                        35.000  
                  26041345.086   104857746.626          42.000  
  26144774.940                   137391497.078 0                        36.000  
                  26144774.011   105273944.341          42.000  
  27603168.598                   145055271.117 0                        39.000  
                  27603168.508   111146246.473          45.000  
  23684074.316                   124460451.765 0                        48.000  
                  23684074.173    95365803.172          53.000  
  20877498.739                   109711988.571 0                        46.000  
                  20877496.863    84065021.657          50.000  
 22  1  6  4  0 54.0010000  0  9G01G03G04G06G09G17G19G21G31
  20535428.852    20535425.474   107914130.209 0  84089751.781 0        49.000  
        48.000                                                  
  20342326.755    20342323.395   106900323.746 0  83298958.169 0        50.000  
        49.000                                                  
  21435580.383    21435575.558   112645303.388 0  87775563.121 0        47.000  
        47.000                                                  
  25108586.644    25108585.286   131946044.335 0 102815099.189 0        38.000  
        42.000                                                  
  24301379.746    24301376.261   127704276.50910  99509826.778 0        38.000  
        40.000                                                  
  22557941.900    22557936.378   118542396.347 0  92370418.115 0        46.000  
        45.000                                                  
  22861053.600                   120135873.675 0                        44.000  
                                                                
  22330361.112                   117347114.609 0                        46.000  
                                                                
  22581070.866    22581064.648   118664364.880 0  92465741.222 0        44.000  
        40.000                                                  
 22  1  6  4  0 53.0000000  0  0
 22  1  6  4  0 54.0010000  0  7E03E05E08E09E13E15E18
  23975692.857                   125992453.889 0                        49.000  
                  23975691.982    96539675.163          53.000  
  23945566.024                   125834795.354 0                        48.000  
                  23945565.041    96418639.124          52.000  
  26040822.900                   136845495.326 0                        35.000  
                  26040821.756   104855639.359          42.000  
  26145294.732                   137394227.773 0                        36.000  
                  26145293.642   105276036.692          42.000  
  27602622.520                   145052402.242 0                        39.000  
                  27602622.556   111144048.228          45.000  
  23683873.307                   124459396.229 0                        48.000  
                  23683873.325    95364994.382          53.000  
  20878286.548                   109716128.409 0                        46.000  
                  20878284.619    84068193.739          50.000  
 22  1  6  4  0 55.0010000  0  9G01G03G04G06G09G17G19G21G31
  20535781.872    20535778.495   107915985.684 0  84091197.594 0        49.000  
        48.000                                                  
  20342236.355    20342233.032   106899848.447 0  83298587.800 0        50.000  
        49.000                                                  
  21435121.328    21435116.593   112642891.536 0  87773683.754 0        47.000  
        47.000                                                  
  25107910.445    25107908.854   131942489.653 0 102812329.291 0        38.000  
        42.000                                                  
  24300704.564    24300701.098   127700728.62910  99507062.225 0        38.000  
        40.000                                                  
  22557990.557    22557985.107   118542652.328 0  92370617.585 0        46.000  
        45.000                                                  
  22860832.525                   120134711.437 0                        44.000  
                                                                
  22330829.262                   117349575.211 0                        46.000  
                                                                
  22581127.600    22581121.382   118664663.248 0  92465973.708 0        44.000  
        40.000                                                  
 22  1  6  4  0 54.0000000  0  0
 22  1  6  4  0 55.0010000  0  7E03E05E08E09E13E15E18
  23975438.099                   125991115.921 0                        49.000  
                  23975437.384    96538649.963          53.000  
  23945818.657                   125836122.646 0                        48.000  
                  23945817.638    96419656.135          52.000  
  26040299.695                   136842745.293 0                        36.000  
                  26040298.533   104853532.195          42.000  
  26145814.363                   137396958.509 0                        36.000  
                  26145813.327   105278129.068          42.000  
  27602076.926                   145049533.463 0                        39.000  
                  27602076.729   111141850.069          45.000  
  23683672.728                   124458341.107 0                        48.000  
                  23683672.638    95364185.910          53.000  
  20879074.554                   109720269.344 0                        46.000  
                  20879072.571    84071366.663          50.000  
 22  1  6  4  0 56.0010000  0  9G01G03G04G06G09G17G19G21G31
  20536135.053    20536131.712   107917841.526 0  84092643.707 0        49.000  
        48.000                                                  
  20342145.956    20342142.543   106899373.343 0  83298217.593 0        50.000  
        49.000                                                  
  21434662.398    21434657.734   112640479.942 0  87771804.587 0        47.000  
        47.000                                                  
  25107234.066    25107232.351   131938934.807 0 102809559.285 0        38.000  
        42.000                                                  
  24300029.330    24300025.935   127697180.76110  99504297.657 0        38.000  
        40.000                                                  
  22558039.304    22558033.782   118542908.761 0  92370817.394 0        46.000  
        45.000                                                  
  22860611.413                   120133549.730 0                        44.000  
                                                                
  22331297.556                   117352035.984 0                        45.000  
                                                                
  22581184.531    22581178.134   118664962.148 0  92466206.629 0        44.000  
        40.000                                                  
 22  1  6  4  0 55.0000000  0  0
 22  1  6  4  0 56.0010000  0  7E03E05E08E09E13E15E18
  23975183.537                   125989778.098 0                        49.000  
                  23975182.893    96537624.881          53.000  
  23946071.110                   125837450.035 0                        48.000  
                  23946070.217    96420673.232          52.000  
  26039776.579                   136839995.221 0                        36.000  
                  26039775.275   104851424.993          42.000  
  26146333.798                   137399689.077 0                        36.000  
                  26146332.940   105280221.315          41.000  
  27601530.955                   145046664.594 0                        39.000  
                  27601530.812   111139651.860          45.000  
  23683472.058                   124457286.199 0                        48.000  
                  23683471.915    95363377.604          53.000  
  20879862.703                   109724411.171 0                        46.000  
                  20879860.827    84074540.271          50.000  
 22  1  6  4  0 57.0010000  0  9G01G03G04G06G09G17G19G21G31
  20536488.431    20536485.000   107919698.231 0  84094090.494 0        49.000  
        48.000                                                  
  20342055.592    20342052.286   106898898.922 0  83297847.912 0        50.000  
        49.000                                                  
  21434203.736    21434198.875   112638069.110 0  87769926.022 0        47.000  
        47.000                                                  
  25106557.777    25106555.955   131935380.353 0 102806789.572 0        38.000  
        42.000                                                  
  24299354.256    24299350.879   127693633.37910  99501533.459 0        38.000  
        40.000                                                  
  22558088.175    22558082.743   118543166.112 0  92371017.932 0        46.000  
        45.000                                                  
  22860390.552                   120132389.012 0                        44.000  
                                                                
  22331765.957                   117354497.390 0                        45.000  
                                                                
  22581241.622    22581235.136   118665262.064 0  92466440.322 0        44.000  
        40.000                                                  
 22  1  6  4  0 56.0000000  0  0
 22  1  6  4  0 57.0010000  0  7E03E05E08E09E13E15E18
  23974929.082                   125988440.911 0                        49.000  
                  23974928.349    96536600.283          53.000  
  23946323.671                   125838778.020 0                        48.000  
                  23946322.938    96421690.774          52.000  
  26039253.392                   136837245.541 0                        36.000  
                  26039251.963   104849318.113          42.000  
  26146853.340                   137402419.957 0                        36.000  
                  26146852.589   105282313.814          42.000  
  27600985.378                   145043796.135 0                        39.000  
                  27600984.967   111137453.954          45.000  
  23683271.514                   124456232.002 0                        48.000  
                  23683271.300    95362569.842          53.000  
  20880651.353                   109728554.392 0                        46.000  
                  20880649.280    84077714.944          50.000  
 22  1  6  4  0 58.0010000  0  9G01G03G04G06G09G17G19G21G31
  20536841.952    20536838.485   107921555.297 0  84095537.561 0        49.000  
        48.000                                                  
  20341965.336    20341962.012   106898424.659 0  83297478.356 0        50.000  
        49.000                                                  
  21433745.109    21433740.106   112635658.540 0  87768047.651 0        47.000  
        47.000                                                  
  25105881.346    25105879.505   131931825.718 0 102804019.745 0        39.000  
        42.000                                                  
  24298679.129    24298675.733   127690085.96910  99498769.241 0        38.000  
        40.000                                                  
  22558137.244    22558131.865   118543423.903 0  92371218.813 0        46.000  
        45.000                                                  
  22860169.727                   120131228.840 0                        44.000  
                                                                
  22332234.429                   117356958.964 0                        46.000  
                                                                
  22581298.821    22581292.156   118665562.507 0  92466674.443 0        44.000  
        40.000                                                  
 22  1  6  4  0 57.0000000  0  0
 22  1  6  4  0 58.0010000  0  7E03E05E08E09E13E15E18
  23974674.627                   125987103.856 0                        49.000  
                  23974673.984    96535575.791          53.000  
  23946576.428                   125840106.080 0                        48.000  
                  23946575.696    96422708.388          52.000  
  26038730.223                   136834495.830 0                        36.000  
                  26038728.775   104847211.185          42.000  
  26147373.221                   137405150.720 0                        36.000  
                  26147372.131   105284406.201          42.000  
  27600439.498                   145040927.577 0                        39.000  
                  27600439.122   111135255.979          44.000  
  23683070.756                   124455178.033 0                        48.000  
                  23683070.667    95361762.253          53.000  
  20881439.841                   109732698.497 0                        46.000  
                  20881437.840    84080890.306          50.000  
 22  1  6  4  0 59.0010000  0  9G01G03G04G06G09G17G19G21G31
  20537195.365    20537191.952   107923412.585 0  84096984.794 0        49.000  
        48.000                                                  
  20341875.115    20341871.899   106897950.440 0  83297108.835 0        50.000  
        49.000                                                  
  21433286.465    21433281.426   112633248.084 0  87766169.367 0        47.000  
        47.000                                                  
  25105204.842    25105202.966   131928270.851 0 102801249.723 0        39.000  
        42.000                                                  
  24298003.948    24298000.624   127686538.38810  99496004.897 0        39.000  
        40.000                                                  
  22558186.258    22558180.969   118543681.988 0  92371419.911 0        46.000  
        45.000                                                  
  22859949.062                   120130069.017 0                        44.000  
                                                                
  22332702.954                   117359420.535 0                        45.000  
                                                                
  22581355.966    22581349.426   118665863.338 0  92466908.850 0        44.000  
        40.000                                                  
 22  1  6  4  0 58.0000000  0  0
 22  1  6  4  0 59.0010000  0  7E03E05E08E09E13E15E18
  23974420.244                   125985766.812 0                        49.000  
                  23974419.529    96534551.306          53.000  
  23946829.257                   125841434.100 0                        48.000  
                  23946828.310    96423725.960          52.000  
  26038207.232                   136831745.894 0                        37.000  
                  26038205.481   104845104.091          42.000  
  26147892.995                   137407881.110 0                        36.000  
                  26147891.673   105286498.344          41.000  
  27599893.563                   145038058.799 0                        39.000  
                  27599893.152   111133057.809          44.000  
  23682870.337                   124454124.120 0                        48.000  
                  23682870.194    95360954.719          53.000  
  20882228.598                   109736843.355 0                        46.000  
                  20882226.614    84084066.234          50.000  
 22  1  6  4  1  0.0010000  0  9G01G03G04G06G09G17G19G21G31
  20537548.904    20537545.455   107925270.517 0  84098432.537 0        49.000  
        48.000                                                  
  20341785.002    20341781.732   106897476.697 0  83296739.687 0        50.000  
        49.000                                                  
  21432827.964    21432822.853   112630838.189 0  87764291.526 0        47.000  
        47.000                                                  
  25104528.321    25104526.463   131924716.125 0 102798479.809 0        38.000  
        42.000                                                  
  24297328.856    24297325.639   127682991.10610  99493240.767 0        39.000  
        40.000                                                  
  22558235.488    22558230.073   118543940.789 0  92371621.571 0        46.000  
        45.000                                                  
  22859728.433                   120128910.003 0                        44.000  
                                                                
  22333171.427                   117361882.561 0                        45.000  
                                                                
  22581413.290    22581406.732   118666164.994 0  92467143.897 0        44.000  
        40.000                                                  
 22  1  6  4  0 59.0000000  0  0
 22  1  6  4  1  0.0010000  0  7E03E05E08E09E13E15E18
  23974165.860                   125984430.197 0                        49.000  
                  23974165.110    96533527.140          53.000  
  23947082.032                   125842762.513 0                        48.000  
                  23947081.157    96424743.826          52.000  
  26037684.152                   136828996.169 0                        37.000  
                  26037682.187   104842997.157          42.000  
  26148412.734                   137410611.693 0                        36.000  
                  26148411.233   105288590.572          41.000  
  27599348.004                   145035190.223 0                        39.000  
                  27599347.271   111130859.816          44.000  
  23682669.918                   124453070.732 0                        48.000  
                  23682669.829    95360147.568          53.000  
  20883017.462                   109740989.387 0                        46.000  
                  20883015.550    84087243.069          50.000  
 22  1  6  4  1  1.0010000  0  9G01G03G04G06G09G17G19G21G31
  20537902.746    20537899.298   107927129.314 0  84099880.946 0        49.000  
        48.000                                                  
  20341694.977    20341691.636   106897003.617 0  83296371.058 0        50.000  
        49.000                                                  
  21432369.534    21432364.388   112628429.028 0  87762414.267 0        47.000  
        47.000                                                  
  25103851.978    25103850.120   131921161.777 0 102795710.180 0        38.000  
        42.000                                                  
  24296653.818    24296650.726   127679444.25010  99490476.999 0        39.000  
        40.000                                                  
  22558284.949    22558279.499   118544200.520 0  92371823.968 0        46.000  
        44.000                                                  
  22859508.055                   120127752.000 0                        44.000  
                                                                
  22333640.095                   117364345.229 0                        45.000  
                                                                
  22581470.900    22581464.342   118666467.656 0  92467379.754 0        44.000  
        40.000                                                  
 22  1  6  4  1  0.0000000  0  0
 22  1  6  4  1  1.0010000  0  7E03E05E08E09E13E15E18
  23973911.566                   125983094.219 0                        49.000  
                  23973910.851    96532503.466          53.000  
  23947334.754                   125844091.493 0                        47.000  
                  23947334.093    96425762.135          52.000  
  26037161.037                   136826246.861 0                        36.000  
                  26037158.946   104840890.553          42.000  
  26148932.365                   137413342.555 0                        36.000  
                  26148930.989   105290683.066          41.000  
  27598802.445                   145032322.063 0                        39.000  
                  27598801.355   111128662.126          44.000  
  23682469.481                   124452018.037 0                        48.000  
                  23682469.392    95359340.962          53.000  
  20883806.290                   109745136.805 0                        46.000  
                  20883804.771    84090420.960          50.000  
 22  1  6  4  1  2.0010000  0  9G01G03G04G06G09G17G19G21G31
  20538256.482    20538253.122   107928988.536 0  84101329.693 0        49.000  
        48.000                                                  
  20341605.007    20341601.755   106896530.810 0  83296002.630 0        50.000  
        49.000                                                  
  21431911.229    21431905.869   112626020.227 0  87760537.272 0        47.000  
        47.000                                                  
  25103175.672    25103173.706   131917607.370 0 102792940.515 0        39.000  
        42.000                                                  
  24295978.851    24295975.813   127675897.50310  99487713.289 0        39.000  
        40.000                                                  
  22558334.482    22558329.068   118544460.761 0  92372026.749 0        46.000  
        45.000                                                  
  22859287.855                   120126594.580 0                        44.000  
                                                                
  22334108.836                   117366808.132 0                        45.000  
                                                                
  22581528.635    22581521.987   118666770.896 0  92467616.031 0        44.000  
        40.000                                                  
 22  1  6  4  1  1.0000000  0  0
 22  1  6  4  1  2.0010000  0  7E03E05E08E09E13E15E18
  23973657.540                   125981758.458 0                        48.000  
                  23973656.629    96531479.963          53.000  
  23947587.886                   125845420.654 0                        47.000  
                  23947586.957    96426780.583          52.000  
  26036637.993                   136823497.582 0                        37.000  
                  26036635.830   104838783.945          42.000  
  26149451.996                   137416073.341 0                        36.000  
                  26149450.674   105292775.484          41.000  
  27598256.600                   145029453.863 0                        39.000  
                  27598255.492   111126464.419          44.000  
  23682269.295                   124450965.647 0                        48.000  
                  23682269.205    95358534.586          53.000  
  20884595.940                   109749285.193 0                        46.000  
                  20884594.206    84093599.589          50.000  
 22  1  6  4  1  3.0010000  0  9G01G03G04G06G09G17G19G21G31
  20538610.413    20538607.090   107930848.252 0  84102778.822 0        49.000  
        48.000                                                  
  20341515.036    20341511.748   106896058.290 0  83295634.430 0        50.000  
        49.000                                                  
  21431452.960    21431447.546   112623611.808 0  87758660.580 0        47.000  
        47.000                                                  
  25102499.365    25102497.274   131914052.923 0 102790170.830 0        39.000  
        42.000                                                  
  24295303.885    24295300.918   127672350.83710  99484949.644 0        39.000  
        40.000                                                  
  22558384.069    22558378.761   118544721.557 0  92372229.960 0        46.000  
        45.000                                                  
  22859067.726                   120125437.803 0                        44.000  
                                                                
  22334577.540                   117369271.302 0                        45.000  
                                                                
  22581586.459    22581579.776   118667074.805 0  92467852.859 0        44.000  
        40.000                                                  
 22  1  6  4  1  2.0000000  0  0
 22  1  6  4  1  3.0010000  0  7E03E05E08E09E13E15E18
  23973403.317                   125980422.956 0                        48.000  
                  23973402.460    96530456.656          53.000  
  23947840.715                   125846750.012 0                        47.000  
                  23947839.965    96427799.186          52.000  
  26036114.895                   136820748.321 0                        37.000  
                  26036112.625   104836677.397          42.000  
  26149971.753                   137418804.069 0                        36.000  
                  26149970.216   105294867.864          41.000  
  27597710.666                   145026585.713 0                        39.000  
                  27597709.611   111124266.743          44.000  
  23682069.126                   124449913.591 0                        48.000  
                  23682068.876    95357728.461          53.000  
  20885385.447                   109753434.592 0                        46.000  
                  20885383.856    84096779.002          50.000  
 22  1  6  4  1  4.0010000  0  9G01G03G04G06G09G17G19G21G31
  20538964.399    20538961.129   107932708.484 0  84104228.356 0        49.000  
        48.000                                                  
  20341425.191    20341421.885   106895586.120 0  83295266.515 0        50.000  
        49.000                                                  
  21430994.674    21430989.331   112621203.808 0  87756784.219 0        47.000  
        47.000                                                  
  25101823.094    25101821.021   131910498.561 0 102787401.194 0        40.000  
        42.000                                                  
  24294628.989    24294626.166   127668804.31310  99482186.146 0        39.000  
        40.000                                                  
  22558433.780    22558428.527   118544982.952 0  92372433.645 0        46.000  
        45.000                                                  
  22858847.616                   120124281.709 0                        44.000  
                                                                
  22335046.334                   117371734.801 0                        45.000  
                                                                
  22581644.372    22581637.797   118667379.403 0  92468090.181 0        44.000  
        41.000                                                  
 22  1  6  4  1  3.0000000  0  0
 22  1  6  4  1  4.0010000  0  7E03E05E08E09E13E15E18
  23973149.256                   125979087.767 0                        48.000  
                  23973148.434    96529433.591          53.000  
  23948093.723                   125848079.640 0                        47.000  
                  23948092.954    96428817.990          52.000  
  26035591.761                   136817999.186 0                        37.000  
                  26035589.581   104834570.922          42.000  
  26150491.384                   137421534.825 0                        36.000  
                  26150489.883   105296960.253          41.000  
  27597164.695                   145023717.636 0                        39.000  
                  27597163.766   111122069.130          44.000  
  23681868.885                   124448861.929 0                        48.000  
                  23681868.832    95356922.644          53.000  
  20886175.097                   109757585.043 0                        46.000  
                  20886173.739    84099959.221          50.000  
 22  1  6  4  1  5.0010000  0  9G01G03G04G06G09G17G19G21G31
  20539318.366    20539315.275   107934569.094 0  84105678.178 0        49.000  
        48.000                                                  
  20341335.363    20341332.075   106895114.135 0  83294898.727 0        50.000  
        49.000                                                  
  21430536.440    21430531.187   112618796.084 0  87754908.068 0        47.000  
        47.000                                                  
  25101146.751    25101144.500   131906944.054 0 102784631.431 0        40.000  
        42.000                                                  
  24293954.041    24293951.325   127665257.77710  99479422.605 0        39.000  
        40.000                                                  
  22558483.581    22558478.381   118545244.793 0  92372637.679 0        46.000  
        45.000                                                  
  22858627.809                   120123126.135 0                        44.000  
                                                                
  22335515.163                   117374198.458 0                        45.000  
                                                                
  22581702.482    22581695.907   118667684.507 0  92468327.947 0        44.000  
        41.000                                                  
 22  1  6  4  1  4.0000000  0  0
 22  1  6  4  1  5.0010000  0  7E03E05E08E09E13E15E18
  23972895.051                   125977752.713 0                        48.000  
                  23972894.426    96528410.630          53.000  
  23948346.659                   125849409.362 0                        47.000  
                  23948345.962    96429836.870          52.000  
  26035068.842                   136815250.001 0                        37.000  
                  26035066.305   104832464.385          42.000  
  26151010.908                   137424265.391 0                        36.000  
                  26151009.442   105299052.521          41.000  
  27596618.564                   145020849.468 0                        38.000  
                  27596618.100   111119871.447          44.000  
  23681668.806                   124447810.478 0                        48.000  
                  23681668.788    95356116.986          53.000  
  20886964.997                   109761736.393 0                        46.000  
                  20886963.514    84103140.125          50.000  
 22  1  6  4  1  6.0010000  0  9G01G03G04G06G09G17G19G21G31
  20539672.619    20539669.492   107936430.567 0  84107128.683 0        49.000  
        48.000                                                  
  20341245.732    20341242.373   106894642.842 0  83294531.488 0        50.000  
        49.000                                                  
  21430078.439    21430073.097   112616389.124 0  87753032.510 0        47.000  
        47.000                                                  
  25100470.480    25100468.300   131903389.906 0 102781861.999 0        40.000  
        42.000                                                  
  24293279.199    24293276.626   127661711.72510  99476659.459 0        39.000  
        40.000                                                  
  22558533.614    22558528.289   118545507.567 0  92372842.428 0        46.000  
        45.000                                                  
  22858408.216                   120121971.573 0                        44.000  
                                                                
  22335984.118                   117376662.776 0                        45.000  
                                                                
  22581760.735    22581754.106   118667990.655 0  92468566.509 0        44.000  
        40.000                                                  
 22  1  6  4  1  5.0000000  0  0
 22  1  6  4  1  6.0010000  0  7E03E05E08E09E13E15E18
  23972641.168                   125976418.320 0                        48.000  
                  23972640.453    96527388.171          53.000  
  23948599.756                   125850739.682 0                        47.000  
                  23948599.094    96430856.202          52.000  
  26034545.798                   136812501.242 0                        37.000  
                  26034543.189   104830358.186          42.000  
  26151530.521                   137426996.303 0                        36.000  
                  26151529.109   105301145.022          41.000  
  27596072.684                   145017981.725 0                        39.000  
                  27596072.183   111117674.097          44.000  
  23681469.066                   124446759.758 0                        48.000  
                  23681468.798    95355311.885          53.000  
  20887755.111                   109765889.136 0                        46.000  
                  20887753.735    84106322.092          50.000  
 22  1  6  4  1  7.0010000  0  9G01G03G04G06G09G17G19G21G31
  20540026.891    20540023.871   107938292.214 0  84108579.317 0        49.000  
        48.000                                                  
  20341155.994    20341152.688   106894171.543 0  83294164.242 0        50.000  
        49.000                                                  
  21429620.367    21429615.078   112613982.236 0  87751157.017 0        47.000  
        47.000                                                  
  25099794.013    25099791.815   131899835.453 0 102779092.293 0        40.000  
        42.000                                                  
  24292604.286    24292601.856   127658165.47610  99473896.139 0        39.000  
        40.000                                                  
  22558583.773    22558578.466   118545770.599 0  92373047.386 0        46.000  
        45.000                                                  
  22858188.678                   120120817.346 0                        44.000  
                                                                
  22336453.126                   117379127.049 0                        45.000  
                                                                
  22581818.971    22581812.413   118668297.134 0  92468805.303 0        44.000  
        40.000                                                  
 22  1  6  4  1  6.0000000  0  0
 22  1  6  4  1  7.0010000  0  7E03E05E08E09E13E15E18
  23972387.124                   125975083.882 0                        48.000  
                  23972386.481    96526365.677          53.000  
  23948852.906                   125852069.903 0                        47.000  
                  23948852.191    96431875.458          52.000  
  26034022.897                   136809752.224 0                        37.000  
                  26034020.038   104828251.801          42.000  
  26152050.259                   137429726.857 0                        36.000  
                  26152048.705   105303237.287          41.000  
  27595526.767                   145015113.698 0                        39.000  
                  27595526.320   111115476.525          44.000  
  23681269.004                   124445709.064 0                        48.000  
                  23681268.844    95354506.810          53.000  
  20888545.726                   109770042.587 0                        46.000  
                  20888544.190    84109504.616          50.000  
 22  1  6  4  1  8.0010000  0  9G01G03G04G06G09G17G19G21G31
  20540381.269    20540378.410   107940154.826 0  84110030.691 0        49.000  
        49.000                                                  
  20341066.488    20341063.164   106893701.022 0  83293797.598 0        50.000  
        49.000                                                  
  21429162.509    21429157.220   112611576.217 0  87749282.198 0        47.000  
        47.000                                                  
  25099117.724    25099115.401   131896281.495 0 102776322.960 0        40.000  
        42.000                                                  
  24291929.588    24291927.068   127654619.80510  99471133.283 0        40.000  
        40.000                                                  
  22558633.967    22558628.642   118546034.656 0  92373253.154 0        46.000  
        45.000                                                  
  22857969.300                   120119664.234 0                        44.000  
                                                                
  22336922.260                   117381592.098 0                        46.000  
                                                                
  22581877.456    22581871.005   118668604.738 0  92469045.006 0        44.000  
        40.000                                                  
 22  1  6  4  1  7.0000000  0  0
 22  1  6  4  1  8.0010000  0  7E03E05E08E09E13E15E18
  23972133.437                   125973750.181 0                        48.000  
                  23972132.633    96525343.753          53.000  
  23949106.164                   125853400.822 0                        47.000  
                  23949105.502    96432895.257          52.000  
  26033500.174                   136807003.720 0                        38.000  
                  26033496.994   104826145.804          42.000  
  26152570.016                   137432457.863 0                        36.000  
                  26152568.318   105305329.872          41.000  
  27594981.083                   145012246.211 0                        39.000  
                  27594980.547   111113279.355          44.000  
  23681069.211                   124444659.186 0                        48.000  
                  23681069.122    95353702.360          53.000  
  20889336.431                   109774197.531 0                        46.000  
                  20889334.876    84112688.261          50.000  
 22  1  6  4  1  9.0010000  0  9G01G03G04G06G09G17G19G21G31
  20540735.737    20540732.878   107942018.015 0  84111482.534 0        49.000  
        49.000                                                  
  20340977.125    20340973.623   106893230.908 0  83293431.280 0        50.000  
        49.000                                                  
  21428704.758    21428699.398   112609170.671 0  87747407.748 0        47.000  
        47.000                                                  
  25098441.399    25098439.005   131892727.600 0 102773553.692 0        40.000  
        42.000                                                  
  24291255.014    24291252.352   127651074.37610  99468370.599 0        39.000  
        40.000                                                  
  22558684.286    22558679.033   118546299.366 0  92373459.422 0        46.000  
        45.000                                                  
  22857750.136                   120118511.873 0                        44.000  
                                                                
  22337391.322                   117384057.510 0                        46.000  
                                                                
  22581936.120    22581929.705   118668913.090 0  92469285.285 0        44.000  
        40.000                                                  
 22  1  6  4  1  8.0000000  0  0
 22  1  6  4  1  9.0010000  0  7E03E05E08E09E13E15E18
  23971879.572                   125972416.847 0                        48.000  
                  23971878.893    96524322.107          53.000  
  23949359.457                   125854732.049 0                        47.000  
                  23949358.885    96433915.288          52.000  
  26032977.291                   136804255.400 0                        38.000  
                  26032974.182   104824039.949          42.000  
  26153089.861                   137435188.949 0                        36.000  
                  26153088.056   105307422.501          41.000  
  27594435.434                   145009378.858 0                        39.000  
                  27594434.988   111111082.281          44.000  
  23680869.650                   124443609.762 0                        48.000  
                  23680869.400    95352898.249          53.000  
  20890127.367                   109778353.575 0                        46.000  
                  20890125.723    84115872.762          50.000  
 22  1  6  4  1 10.0010000  0  9G01G03G04G06G09G17G19G21G31
  20541090.473    20541087.489   107943881.525 0  84112934.624 0        49.000  
        49.000                                                  
  20340887.709    20340884.206   106892760.924 0  83293065.054 0        50.000  
        49.000                                                  
  21428246.990    21428241.647   112606765.356 0  87745533.470 0        47.000  
        47.000                                                  
  25097765.128    25097762.609   131889173.534 0 102770784.306 0        40.000  
        42.000                                                  
  24290580.280    24290577.546   127647528.82810  99465607.849 0        40.000  
        40.000                                                  
  22558734.712    22558729.530   118546564.491 0  92373666.003 0        46.000  
        44.000                                                  
  22857530.955                   120117359.961 0                        44.000  
                                                                
  22337860.491                   117386523.021 0                        46.000  
                                                                
  22581994.855    22581988.565   118669221.917 0  92469525.936 0        44.000  
        40.000                                                  
 22  1  6  4  1  9.0000000  0  0
 22  1  6  4  1 10.0010000  0  7E03E05E08E09E13E15E18
  23971625.636                   125971083.607 0                        48.000  
                  23971625.260    96523300.536          53.000  
  23949612.715                   125856063.326 0                        47.000  
                  23949612.214    96434935.358          52.000  
  26032454.318                   136801506.955 0                        38.000  
                  26032451.048   104821934.008          42.000  
  26153609.618                   137437919.790 0                        36.000  
                  26153607.795   105309514.971          41.000  
  27593889.804                   145006511.365 0                        39.000  
                  27593889.482   111108885.116          43.000  
  23680669.767                   124442560.494 0                        48.000  
                  23680669.838    95352094.272          53.000  
  20890918.429                   109782510.459 0                        46.000  
                  20890916.624    84119057.914          50.000  
 22  1  6  4  1 11.0010000  0  9G01G03G04G06G09G17G19G21G31
  20541445.137    20541442.171   107945745.073 0  84114386.730 0        49.000  
        49.000                                                  
  20340798.256    20340794.718   106892290.784 0  83292698.714 0        50.000  
        49.000                                                  
  21427789.328    21427783.843   112604359.977 0  87743659.151 0        47.000  
        47.000                                                  
  25097088.714    25097086.123   131885619.027 0 102768014.545 0        40.000  
        42.000                                                  
  24289905.706    24289902.686   127643982.96110  99462844.833 0        40.000  
        40.000                                                  
  22558785.246    22558779.903   118546829.703 0  92373872.667 0        46.000  
        44.000                                                  
  22857311.773                   120116208.237 0                        44.000  
                                                                
  22338329.660                   117388988.372 0                        45.000  
                                                                
  22582053.644    22582047.480   118669530.944 0  92469766.729 0        44.000  
        40.000                                                  
 22  1  6  4  1 10.0000000  0  0
 22  1  6  4  1 11.0010000  0  7E03E05E08E09E13E15E18
  23971371.913                   125969750.182 0                        48.000  
                  23971371.538    96522278.823          53.000  
  23949866.097                   125857394.375 0                        48.000  
                  23949865.454    96435955.254          52.000  
  26031931.256                   136798758.122 0                        38.000  
                  26031928.004   104819827.735          42.000  
  26154129.302                   137440650.145 0                        36.000  
                  26154127.176   105311607.050          41.000  
  27593344.459                   145003643.432 0                        39.000  
                  27593343.601   111106687.620          43.000  
  23680470.170                   124441511.124 0                        48.000  
                  23680470.134    95351290.206          53.000  
  20891709.133                   109786667.909 0                        46.000  
                  20891707.882    84122243.490          50.000  
 22  1  6  4  1 12.0010000  0  9G01G03G04G06G09G17G19G21G31
  20541799.945    20541796.907   107947609.484 0  84115839.527 0        49.000  
        49.000                                                  
  20340709.018    20340705.284   106891821.349 0  83292332.924 0        50.000  
        49.000                                                  
  21427331.792    21427326.288   112601955.355 0  87741785.424 0        47.000  
        47.000                                                  
  25096412.372    25096409.852   131882064.879 0 102765245.093 0        40.000  
        42.000                                                  
  24289231.079    24289228.024   127640437.56110  99460082.204 0        40.000  
        40.000                                                  
  22558835.815    22558830.508   118547095.855 0  92374080.055 0        46.000  
        44.000                                                  
  22857092.735                   120115057.555 0                        44.000  
                                                                
  22338798.882                   117391454.380 0                        46.000  
                                                                
  22582112.719    22582106.430   118669841.001 0  92470008.325 0        44.000  
        40.000                                                  
 22  1  6  4  1 11.0000000  0  0
 22  1  6  4  1 12.0010000  0  7E03E05E08E09E13E15E18
  23971118.495                   125968417.402 0                        48.000  
                  23971117.744    96521257.607          53.000  
  23950119.605                   125858726.004 0                        48.000  
                  23950118.819    96436975.596          52.000  
  26031408.212                   136796009.703 0                        38.000  
                  26031405.013   104817721.826          42.000  
  26154648.844                   137443380.828 0                        36.000  
                  26154646.896   105313699.405          41.000  
  27592799.132                   145000775.953 0                        40.000  
                  27592797.989   111104490.463          43.000  
  23680270.501                   124440462.469 0                        48.000  
                  23680270.501    95350486.699          53.000  
  20892500.606                   109790826.759 0                        46.000  
                  20892499.248    84125430.137          50.000  
 22  1  6  4  1 13.0010000  0  9G01G03G04G06G09G17G19G21G31
  20542154.877    20542151.857   107949474.637 0  84117292.886 0        49.000  
        49.000                                                  
  20340619.691    20340616.153   106891352.468 0  83291967.563 0        50.000  
        49.000                                                  
  21426874.381    21426868.895   112599551.385 0  87739912.198 0        47.000  
        47.000                                                  
  25095736.101    25095733.492   131878510.986 0 102762475.821 0        41.000  
        42.000                                                  
  24288556.399    24288553.343   127636892.53810  99457319.824 0        40.000  
        39.000                                                  
  22558886.724    22558881.363   118547362.808 0  92374288.070 0        46.000  
        44.000                                                  
  22856873.893                   120113907.756 0                        44.000  
                                                                
  22339268.159                   117393920.910 0                        46.000  
                                                                
  22582172.009    22582165.505   118670151.946 0  92470250.623 0        44.000  
        40.000                                                  
 22  1  6  4  1 12.0000000  0  0
 22  1  6  4  1 13.0010000  0  7E03E05E08E09E13E15E18
  23970864.987                   125967085.160 0                        48.000  
                  23970864.308    96520236.791          53.000  
  23950373.202                   125860058.126 0                        48.000  
                  23950372.291    96437996.299          52.000  
  26030885.257                   136793261.610 0                        38.000  
                  26030881.934   104815616.138          42.000  
  26155168.350                   137446111.746 0                        36.000  
                  26155166.456   105315791.911          41.000  
  27592253.841                   144997908.757 0                        40.000  
                  27592252.412   111102293.516          43.000  
  23680071.208                   124439414.422 0                        48.000  
                  23680071.172    95349683.647          53.000  
  20893292.239                   109794986.862 0                        46.000  
                  20893290.792    84128617.762          50.000  
 22  1  6  4  1 14.0010000  0  9G01G03G04G06G09G17G19G21G31
  20542509.827    20542506.950   107951340.297 0  84118746.657 0        49.000  
        49.000                                                  
  20340530.596    20340526.951   106890883.901 0  83291602.443 0        50.000  
        49.000                                                  
  21426417.005    21426411.537   112597147.822 0  87738039.288 0        47.000  
        47.000                                                  
  25095059.812    25095057.310   131874957.114 0 102759706.575 0        41.000  
        42.000                                                  
  24287881.771    24287878.627   127633347.64810  99454557.583 0        40.000  
        39.000                                                  
  22558937.597    22558932.165   118547630.353 0  92374496.550 0        46.000  
        44.000                                                  
  22856655.069                   120112758.623 0                        44.000  
                                                                
  22339737.631                   117396387.757 0                        46.000  
                                                                
  22582231.209    22582224.758   118670463.588 0  92470493.456 0        44.000  
        40.000                                                  
 22  1  6  4  1 13.0000000  0  0
 22  1  6  4  1 14.0010000  0  7E03E05E08E09E13E15E18
  23970611.283                   125965753.196 0                        48.000  
                  23970610.854    96519216.191          53.000  
  23950626.603                   125861390.465 0                        48.000  
                  23950625.888    96439017.194          52.000  
  26030362.392                   136790513.616 0                        38.000  
                  26030359.032   104813510.525          42.000  
  26155687.839                   137448842.638 0                        36.000  
                  26155686.087   105317884.421          41.000  
  27591708.354                   144995041.619 0                        40.000  
                  27591706.745   111100096.616          43.000  
  23679871.897                   124438366.745 0                        48.000  
                  23679871.772    95348880.879          53.000  
  20894084.016                   109799148.022 0                        46.000  
                  20894082.765    84131806.172          50.000  
 22  1  6  4  1 15.0010000  0  9G01G03G04G06G09G17G19G21G31
  20542864.938    20542862.097   107953206.510 0  84120200.846 0        49.000  
        49.000                                                  
  20340441.537    20340437.892   106890415.707 0  83291237.619 0        50.000  
        49.000                                                  
  21425959.665    21425954.215   112594744.699 0  87736166.725 0        47.000  
        47.000                                                  
  25094383.505    25094381.075   131871403.312 0 102756937.367 0        41.000  
        42.000                                                  
  24287207.180    24287204.035   127629802.92310  99451795.437 0        40.000  
        39.000                                                  
  22558988.703    22558983.110   118547898.520 0  92374705.514 0        46.000  
        44.000                                                  
  22856436.584                   120111610.189 0                        44.000  
                                                                
  22340207.122                   117398854.924 0                        46.000  
                                                                
  22582290.659    22582284.244   118670775.919 0  92470736.846 0        44.000  
        40.000                                                  
 22  1  6  4  1 14.0000000  0  0
 22  1  6  4  1 15.0010000  0  7E03E05E08E09E13E15E18
  23970357.971                   125964421.561 0                        48.000  
                  23970357.471    96518195.851          53.000  
  23950880.272                   125862723.098 0                        48.000  
                  23950879.414    96440038.300          52.000  
  26029839.526                   136787765.713 0                        38.000  
                  26029836.292   104811404.983          42.000  
  26156207.559                   137451573.529 0                        36.000  
                  26156205.987   105319976.929          41.000  
  27591162.616                   144992174.572 0                        40.000  
                  27591161.097   111097899.796          43.000  
  23679672.550                   124437319.470 0                        48.000  
                  23679672.443    95348078.422          53.000  
  20894876.167                   109803310.238 0                        46.000  
                  20894874.773    84134995.406          50.000  
 22  1  6  4  1 16.0010000  0  9G01G03G04G06G09G17G19G21G31
  20543220.139    20543217.351   107955073.177 0  84121655.394 0        49.000  
        49.000                                                  
  20340352.478    20340348.850   106889947.803 0  83290873.019 0        50.000  
        49.000                                                  
  21425502.469    21425496.983   112592341.956 0  87734294.452 0        47.000  
        47.000                                                  
  25093707.323    25093704.857   131867849.463 0 102754168.143 0        41.000  
        42.000                                                  
  24286532.642    24286529.426   127626258.28210  99449033.397 0        40.000  
        39.000                                                  
  22559039.719    22559034.197   118548167.213 0  92374914.896 0        46.000  
        44.000                                                  
  22856218.171                   120110462.367 0                        44.000  
                                                                
  22340676.595                   117401322.352 0                        46.000  
                                                                
  22582350.270    22582343.855   118671088.878 0  92470980.692 0        44.000  
        40.000                                                  
 22  1  6  4  1 15.0000000  0  0
 22  1  6  4  1 16.0010000  0  7E03E05E08E09E13E15E18
  23970104.624                   125963090.172 0                        48.000  
                  23970104.124    96517175.694          53.000  
  23951133.905                   125864055.913 0                        48.000  
                  23951133.065    96441059.552          52.000  
  26029316.446                   136785017.867 0                        38.000  
                  26029313.266   104809299.492          42.000  
  26156727.262                   137454304.374 0                        36.000  
                  26156725.582   105322069.395          41.000  
  27590616.914                   144989307.542 0                        39.000  
                  27590615.520   111095702.977          43.000  
  23679473.364                   124436272.506 0                        48.000  
                  23679473.203    95347276.202          53.000  
  20895668.480                   109807473.439 0                        46.000  
                  20895666.943    84138185.394          50.000  
 22  1  6  4  1 17.0010000  0  9G01G03G04G06G09G17G19G21G31
  20543575.464    20543572.641   107956940.305 0  84123110.292 0        49.000  
        49.000                                                  
  20340263.526    20340259.880   106889480.158 0  83290508.624 0        50.000  
        49.000                                                  
  21425045.290    21425039.768   112589939.555 0  87732422.465 0        47.000  
        47.000                                                  
  25093031.034    25093028.586   131864295.588 0 102751398.894 0        41.000  
        42.000                                                  
  24285858.140    24285854.835   127622713.72710  99446271.383 0        40.000  
        39.000                                                  
  22559091.003    22559085.481   118548436.449 0  92375124.679 0        46.000  
        44.000                                                  
  22855999.954                   120109315.165 0                        44.000  
                                                                
  22341146.121                   117403790.029 0                        45.000  
                                                                
  22582409.863    22582403.556   118671402.465 0  92471225.053 0        44.000  
        40.000                                                  
 22  1  6  4  1 16.0000000  0  0
 22  1  6  4  1 17.0010000  0  7E03E05E08E09E13E15E18
  23969851.188                   125961759.007 0                        48.000  
                  23969850.813    96516155.710          53.000  
  23951387.555                   125865388.915 0                        48.000  
                  23951386.698    96442080.944          52.000  
  26028793.277                   136782270.014 0                        38.000  
                  26028790.489   104807193.994          43.000  
  26157246.964                   137457035.157 0                        36.000  
                  26157245.106   105324161.802          41.000  
  27590071.337                   144986440.524 0                        40.000  
                  27590069.782   111093506.162          43.000  
  23679274.303                   124435225.858 0                        48.000  
                  23679274.035    95346474.226          53.000  
  20896460.792                   109811637.633 0                        46.000  
                  20896459.345    84141376.129          50.000  
 22  1  6  4  1 18.0010000  0  9G01G03G04G06G09G17G19G21G31
  20543930.933    20543928.020   107958808.105 0  84124565.723 0        49.000  
        49.000                                                  
  20340174.556    20340171.036   106889013.023 0  83290144.614 0        50.000  
        49.000                                                  
  21424588.218    21424582.714   112587537.747 0  87730550.917 0        47.000  
        47.000                                                  
  25092354.781    25092352.369   131860741.892 0 102748629.776 0        41.000  
        42.000                                                  
  24285183.763    24285180.333   127619169.45010  99443509.643 0        40.000  
        39.000                                                  
  22559142.430    22559136.694   118548706.436 0  92375335.046 0        46.000  
        44.000                                                  
  22855781.863                   120108168.797 0                        44.000  
                                                                
  22341615.791                   117406258.173 0                        46.000  
                                                                
  22582469.671    22582463.363   118671716.885 0  92471470.053 0        44.000  
        40.000                                                  
 22  1  6  4  1 17.0000000  0  0
 22  1  6  4  1 18.0010000  0  7E03E05E08E09E13E15E18
  23969598.055                   125960428.317 0                        48.000  
                  23969597.519    96515136.093          53.000  
  23951641.170                   125866722.332 0                        48.000  
                  23951640.491    96443102.641          52.000  
  26028270.501                   136779522.461 0                        38.000  
                  26028267.624   104805088.702          43.000  
  26157766.721                   137459766.055 0                        36.000  
                  26157764.809   105326254.323          41.000  
  27589525.920                   144983573.747 0                        39.000  
                  27589524.276   111091309.543          42.000  
  23679075.117                   124434179.745 0                        48.000  
                  23679074.939    95345672.659          53.000  
  20897253.408                   109815803.018 0                        46.000  
                  20897251.979    84144567.794          50.000  
 22  1  6  4  1 19.0010000  0  9G01G03G04G06G09G17G19G21G31
  20544286.437    20544283.542   107960676.336 0  84126021.481 0        49.000  
        49.000                                                  
  20340085.729    20340082.048   106888546.135 0  83289780.809 0        50.000  
        49.000                                                  
  21424131.128    21424125.785   112585136.262 0  87728679.623 0        47.000  
        47.000                                                  
  25091678.581    25091676.098   131857188.143 0 102745860.618 0        41.000  
        42.000                                                  
  24284509.422    24284505.813   127615625.24710  99440747.885 0        40.000  
        39.000                                                  
  22559193.839    22559188.228   118548976.904 0  92375545.805 0        46.000  
        44.000                                                  
  22855563.879                   120107022.988 0                        44.000  
                                                                
  22342085.478                   117408726.540 0                        45.000  
                                                                
  22582529.639    22582523.171   118672031.901 0  92471715.511 0        44.000  
        40.000                                                  
 22  1  6  4  1 18.0000000  0  0
 22  1  6  4  1 19.0010000  0  7E03E05E08E09E13E15E18
  23969344.726                   125959097.823 0                        48.000  
                  23969344.405    96514116.624          53.000  
  23951895.036                   125868055.904 0                        48.000  
                  23951894.160    96444124.475          52.000  
  26027747.528                   136776774.846 0                        37.000  
                  26027744.794   104802983.413          43.000  
  26158286.388                   137462496.888 0                        36.000  
                  26158284.547   105328346.768          41.000  
  27588980.093                   144980706.923 0                        39.000  
                  27588978.682   111089112.881          42.000  
  23678876.217                   124433133.916 0                        48.000  
                  23678875.931    95344871.305          53.000  
  20898046.328                   109819969.357 0                        46.000  
                  20898044.863    84147760.186          50.000  
 22  1  6  4  1 20.0010000  0  9G01G03G04G06G09G17G19G21G31
  20544642.048    20544639.028   107962545.016 0  84127477.595 0        49.000  
        49.000                                                  
  20339996.759    20339993.310   106888079.499 0  83289417.199 0        50.000  
        49.000                                                  
  21423674.182    21423668.857   112582735.120 0  87726808.608 0        47.000  
        47.000                                                  
  25091002.328    25090999.844   131853634.350 0 102743091.429 0        41.000  
        41.000                                                  
  24283834.902    24283831.382   127612081.07010  99437986.205 0        40.000  
        39.000                                                  
  22559245.373    22559239.888   118549247.897 0  92375756.974 0        46.000  
        44.000                                                  
  22855345.948                   120105877.782 0                        44.000  
                                                                
  22342555.201                   117411195.133 0                        45.000  
                                                                
  22582589.804    22582583.336   118672347.513 0  92471961.456 0        44.000  
        40.000                                                  
 22  1  6  4  1 19.0000000  0  0
 22  1  6  4  1 20.0010000  0  7E03E05E08E09E13E15E18
  23969091.576                   125957767.561 0                        48.000  
                  23969091.290    96513097.334          53.000  
  23952148.758                   125869389.646 0                        48.000  
                  23952148.025    96445146.429          52.000  
  26027224.734                   136774027.269 0                        37.000  
                  26027221.982   104800878.131          43.000  
  26158806.019                   137465227.612 0                        36.000  
                  26158804.214   105330439.144          41.000  
  27588434.623                   144977840.105 0                        39.000  
                  27588432.979   111086916.235          42.000  
  23678677.138                   124432088.390 0                        48.000  
                  23678676.978    95344070.189          53.000  
  20898839.356                   109824136.666 0                        46.000  
                  20898837.855    84150953.308          50.000  
