     2.11           OBSERVATION DATA    M (Mixed)           RINEX VERSION / TYPE
RTCM3TORINEX on                         2022-01-14 03:59    PGM / RUN BY / DATE
RTCM3TORINEX                                                MARKER NAME
                                                            OBSERVER / AGENCY
                                                            REC # / TYPE / VERS
                                                            ANT # / TYPE
         .0000         .0000         .0000                  APPROX POSITION XYZ
         .0000         .0000         .0000                  ANTENNA: DELTA H/E/N
     1     1                                                WAVELENGTH FACT L1/2
     9    C1    C2    L1    L2    S1    S2    C7    L7    S7# / TYPES OF OBSERV
  2022     1    14     3    59   21.0000000     GPS         TIME OF FIRST OBS
                                                            END OF HEADER
 22  1 14  3 59 21.0000000  0  5E04E09E11E12E19
  24097081.669                   126630552.926 0                        49.000  
                  24097079.632    97028608.994          53.000  
  26243964.636                   137913252.05110                        38.000  
                  26243963.868   105673791.007          41.000  
  22672957.957                   119146754.002 0                        46.000  
                  22672953.221    91294267.958          49.000  
  22784944.446                   119736162.523 0                        45.000  
                  22784940.926    91745894.007          50.000  
  24031889.773                   126289072.839 0                        43.000  
                  24031886.914    96766955.675          46.000  
 22  1 14  3 59 22.0000000  0 10G01G03G04G06G09G17G19G21G22G31
  21366994.677    21366992.444   112284629.705 0  87494585.683 0        47.000  
        47.000                                                  
  20295560.073    20295557.089   106653404.924 0  83106554.880 0        50.000  
        49.000                                                  
  20728225.710    20728220.528   108928303.170 0  84879200.060 0        48.000  
        49.000                                                  
  23864716.343    23864713.145   125409241.377 0  97722444.827 0        43.000  
        41.000                                                  
  23089135.006    23089132.147   121334336.268 0  94546236.488 0        45.000  
        45.000                                                  
  22845668.407    22845662.975   120054992.307 0  93549340.852 0        46.000  
        43.000                                                  
  22681951.364                   119194995.11910                        46.000  
                                                                
  23329746.779                   122598531.987 0                        43.000  
                                                                
  21225104.950                   111539271.584 0                        44.000  
                                                                
  22917073.219    22917066.947   120429757.731 0  93841372.983 0        42.000  
        40.000                                                  
 22  1 14  3 59 21.0000000  0  0
 22  1 14  3 59 22.0000000  0  5E04E09E11E12E19
  24096851.480                   126629343.751 0                        49.000  
                  24096849.551    97027682.488          53.000  
  26243463.195                   137910617.58610                        38.000  
                  26243462.516   105671772.386          41.000  
  22672776.121                   119145798.730 0                        46.000  
                  22672771.475    91293535.999          49.000  
  22785326.789                   119738172.770 0                        45.000  
                  22785323.484    91747434.323          50.000  
  24032191.438                   126290657.321 0                        43.000  
                  24032188.365    96768169.770          46.000  
 22  1 14  3 59 23.0000000  0 10G01G03G04G06G09G17G19G21G22G31
  21367522.421    21367520.384   112287403.395 0  87496747.002 0        47.000  
        47.000                                                  
  20295597.598    20295594.542   106653602.081 0  83106708.506 0        50.000  
        49.000                                                  
  20727935.070    20727930.049   108926776.350 0  84878010.331 0        48.000  
        49.000                                                  
  23864082.708    23864079.599   125405911.905 0  97719850.437 0        43.000  
        41.000                                                  
  23088534.732    23088531.873   121331181.628 0  94543778.331 0        45.000  
        45.000                                                  
  22845919.163    22845913.767   120056309.965 0  93550367.594 0        46.000  
        43.000                                                  
  22681982.349                   119195157.55310                        46.000  
                                                                
  23330317.016                   122601528.271 0                        43.000  
                                                                
  21225386.208                   111540749.809 0                        44.000  
                                                                
  22917371.400    22917365.199   120431324.911 0  93842594.174 0        42.000  
        40.000                                                  
 22  1 14  3 59 22.0000000  0  0
 22  1 14  3 59 23.0000000  0  5E04E09E11E12E19
  24096621.506                   126628134.861 0                        49.000  
                  24096619.433    97026756.194          53.000  
  26242961.737                   137907983.19910                        38.000  
                  26242961.272   105669753.837          41.000  
  22672594.393                   119144843.873 0                        46.000  
                  22672589.801    91292804.352          49.000  
  22785709.526                   119740183.366 0                        45.000  
                  22785706.149    91748974.905          50.000  
  24032492.763                   126292242.014 0                        43.000  
                  24032489.976    96769384.006          46.000  
 22  1 14  3 59 24.0000000  0 10G01G03G04G06G09G17G19G21G22G31
  21368050.361    21368048.235   112290177.441 0  87498908.594 0        47.000  
        47.000                                                  
  20295635.194    20295632.085   106653799.534 0  83106862.370 0        50.000  
        49.000                                                  
  20727644.717    20727639.481   108925249.959 0  84876820.928 0        48.000  
        49.000                                                  
  23863449.144    23863446.034   125402582.568 0  97717256.137 0        43.000  
        41.000                                                  
  23087934.494    23087931.653   121328027.154 0  94541320.306 0        45.000  
        45.000                                                  
  22846169.991    22846164.648   120057628.061 0  93551394.686 0        46.000  
        43.000                                                  
  22682013.316                   119195320.61710                        46.000  
                                                                
  23330887.216                   122604524.700 0                        43.000  
                                                                
  21225667.520                   111542228.269 0                        44.000  
                                                                
  22917669.634    22917663.505   120432892.661 0  93843815.792 0        42.000  
        40.000                                                  
 22  1 14  3 59 23.0000000  0  0
 22  1 14  3 59 24.0000000  0  5E04E09E11E12E19
  24096391.514                   126626926.177 0                        49.000  
                  24096389.423    97025830.059          53.000  
  26242460.493                   137905348.86910                        38.000  
                  26242460.046   105667735.311          41.000  
  22672412.755                   119143889.352 0                        46.000  
                  22672408.002    91292072.962          49.000  
  22786092.263                   119742194.246 0                        45.000  
                  22786088.742    91750515.712          50.000  
  24032794.339                   126293826.833 0                        43.000  
                  24032791.569    96770598.350          46.000  
 22  1 14  3 59 25.0000000  0 10G01G03G04G06G09G17G19G21G22G31
  21368578.355    21368576.264   112292952.038 0  87501070.623 0        47.000  
        47.000                                                  
  20295672.862    20295669.806   106653997.474 0  83107016.600 0        50.000  
        49.000                                                  
  20727354.381    20727349.216   108923724.169 0  84875631.998 0        48.000  
        49.000                                                  
  23862815.508    23862812.560   125399253.533 0  97714662.089 0        43.000  
        40.000                                                  
  23087334.220    23087331.486   121324873.062 0  94538862.568 0        45.000  
        45.000                                                  
  22846420.907    22846415.529   120058946.796 0  93552422.268 0        46.000  
        43.000                                                  
  22682044.516                   119195484.49110                        46.000  
                                                                
  23331457.470                   122607521.471 0                        43.000  
                                                                
  21225948.886                   111543707.126 0                        44.000  
                                                                
  22917968.029    22917961.917   120434461.147 0  93845037.966 0        42.000  
        40.000                                                  
 22  1 14  3 59 24.0000000  0  0
 22  1 14  3 59 25.0000000  0  5E04E09E11E12E19
  24096161.504                   126625717.900 0                        49.000  
                  24096159.574    97024904.236          53.000  
  26241959.178                   137902714.72310                        38.000  
                  26241958.713   105665716.955          41.000  
  22672231.277                   119142935.366 0                        46.000  
                  22672226.560    91291341.990          49.000  
  22786474.856                   119744205.602 0                        45.000  
                  22786471.550    91752056.881          50.000  
  24033096.147                   126295411.958 0                        43.000  
                  24033093.127    96771812.929          46.000  
 22  1 14  3 59 26.0000000  0 10G01G03G04G06G09G17G19G21G22G31
  21369106.295    21369104.205   112295726.797 0  87503232.768 0        47.000  
        47.000                                                  
  20295710.530    20295707.456   106654195.497 0  83107170.915 0        50.000  
        49.000                                                  
  20727064.045    20727058.881   108922198.593 0  84874443.249 0        48.000  
        49.000                                                  
  23862181.962    23862179.121   125395924.427 0  97712067.983 0        43.000  
        40.000                                                  
  23086734.017    23086731.176   121321718.953 0  94536404.827 0        45.000  
        45.000                                                  
  22846671.914    22846666.553   120060265.778 0  93553450.039 0        46.000  
        43.000                                                  
  22682075.858                   119195648.80910                        46.000  
                                                                
  23332027.742                   122610518.203 0                        43.000  
                                                                
  21226230.359                   111545186.017 0                        44.000  
                                                                
  22918266.459    22918260.437   120436029.994 0  93846260.465 0        42.000  
        40.000                                                  
 22  1 14  3 59 25.0000000  0  0
 22  1 14  3 59 26.0000000  0  5E04E09E11E12E19
  24095931.690                   126624509.647 0                        49.000  
                  24095929.653    97023978.429          53.000  
  26241457.969                   137900080.42810                        38.000  
                  26241457.290   105663698.449          41.000  
  22672049.638                   119141981.532 0                        46.000  
                  22672045.010    91290611.137          49.000  
  22786857.521                   119746217.055 0                        45.000  
                  22786854.251    91753598.127          50.000  
  24033397.686                   126296997.023 0                        43.000  
                  24033394.774    96773027.459          46.000  
 22  1 14  3 59 27.0000000  0 10G01G03G04G06G09G17G19G21G22G31
  21369634.379    21369632.288   112298502.213 0  87505395.434 0        47.000  
        47.000                                                  
  20295748.305    20295745.249   106654394.115 0  83107325.673 0        50.000  
        49.000                                                  
  20726773.941    20726768.777   108920673.742 0  84873255.049 0        48.000  
        49.000                                                  
  23861548.577    23861545.807   125392595.736 0  97709474.179 0        43.000  
        41.000                                                  
  23086133.993    23086131.027   121318565.310 0  94533947.441 0        45.000  
        45.000                                                  
  22846923.098    22846917.756   120061585.508 0  93554478.388 0        46.000  
        43.000                                                  
  22682107.289                   119195814.05310                        46.000  
                                                                
  23332598.157                   122613515.375 0                        43.000  
                                                                
  21226511.814                   111546665.428 0                        44.000  
                                                                
  22918565.122    22918559.100   120437599.707 0  93847483.632 0        42.000  
        40.000                                                  
 22  1 14  3 59 26.0000000  0  0
 22  1 14  3 59 27.0000000  0  5E04E09E11E12E19
  24095701.752                   126623301.875 0                        49.000  
                  24095699.822    97023052.996          53.000  
  26240956.904                   137897446.42010                        38.000  
                  26240956.064   105661680.203          41.000  
  22671868.232                   119141028.347 0                        46.000  
                  22671863.693    91289880.770          49.000  
  22787240.383                   119748229.092 0                        45.000  
                  22787237.113    91755139.819          50.000  
  24033699.423                   126298582.518 0                        43.000  
                  24033696.564    96774242.319          46.000  
 22  1 14  3 59 28.0000000  0 10G01G03G04G06G09G17G19G21G22G31
  21370162.658    21370160.586   112301278.037 0  87507558.407 0        47.000  
        47.000                                                  
  20295786.170    20295783.114   106654593.073 0  83107480.708 0        50.000  
        49.000                                                  
  20726483.820    20726478.691   108919149.352 0  84872067.217 0        48.000  
        49.000                                                  
  23860915.209    23860912.421   125389267.214 0  97706880.533 0        43.000  
        41.000                                                  
  23085533.880    23085530.860   121315411.919 0  94531490.249 0        45.000  
        45.000                                                  
  22847174.408    22847169.030   120062905.728 0  93555507.154 0        46.000  
        43.000                                                  
  22682138.900                   119195979.97910                        46.000  
                                                                
  23333168.536                   122616512.756 0                        43.000  
                                                                
  21226793.412                   111548145.127 0                        44.000  
                                                                
  22918863.928    22918857.870   120439170.027 0  93848707.258 0        42.000  
        40.000                                                  
 22  1 14  3 59 27.0000000  0  0
 22  1 14  3 59 28.0000000  0  5E04E09E11E12E19
  24095471.992                   126622094.381 0                        49.000  
                  24095469.991    97022127.778          53.000  
  26240455.660                   137894812.51510                        38.000  
                  26240454.981   105659662.021          41.000  
  22671686.736                   119140075.570 0                        46.000  
                  22671682.323    91289150.718          49.000  
  22787623.263                   119750241.466 0                        45.000  
                  22787620.135    91756681.764          50.000  
  24034001.213                   126300168.176 0                        43.000  
                  24033998.211    96775457.308          46.000  
 22  1 14  3 59 29.0000000  0 10G01G03G04G06G09G17G19G21G22G31
  21370690.956    21370688.812   112304054.313 0  87509721.734 0        47.000  
        47.000                                                  
  20295824.141    20295821.086   106654792.422 0  83107636.047 0        50.000  
        49.000                                                  
  20726193.805    20726188.766   108917625.484 0  84870879.795 0        48.000  
        49.000                                                  
  23860281.913    23860279.054   125385938.931 0  97704287.063 0        43.000  
        41.000                                                  
  23084933.803    23084930.908   121312258.787 0  94529033.276 0        45.000  
        45.000                                                  
  22847425.772    22847420.375   120064226.505 0  93556536.325 0        46.000  
        43.000                                                  
  22682170.564                   119196146.63510                        46.000  
                                                                
  23333738.969                   122619510.389 0                        43.000  
                                                                
  21227074.974                   111549625.136 0                        44.000  
                                                                
  22919162.877    22919156.855   120440741.019 0  93849931.403 0        42.000  
        40.000                                                  
 22  1 14  3 59 28.0000000  0  0
 22  1 14  3 59 29.0000000  0  5E04E09E11E12E19
  24095242.429                   126620887.202 0                        49.000  
                  24095240.320    97021202.795          53.000  
  26239954.488                   137892178.75310                        38.000  
                  26239953.576   105657643.921          41.000  
  22671505.759                   119139123.239 0                        46.000  
                  22671501.238    91288421.005          49.000  
  22788006.357                   119752254.240 0                        45.000  
                  22788003.086    91758224.010          50.000  
  24034302.949                   126301754.075 0                        43.000  
                  24034300.036    96776672.478          46.000  
 22  1 14  3 59 30.0000000  0 10G01G03G04G06G09G17G19G21G22G31
  21371219.468    21371217.127   112306830.987 0  87511885.381 0        47.000  
        47.000                                                  
  20295862.041    20295859.075   106654992.111 0  83107791.647 0        50.000  
        49.000                                                  
  20725903.845    20725898.895   108916102.089 0  84869692.727 0        48.000  
        49.000                                                  
  23859648.653    23859645.633   125382610.803 0  97701693.723 0        43.000  
        41.000                                                  
  23084333.868    23084330.884   121309105.892 0  94526576.461 0        45.000  
        45.000                                                  
  22847677.153    22847671.703   120065547.773 0  93557565.877 0        46.000  
        43.000                                                  
  22682202.299                   119196313.98110                        46.000  
                                                                
  23334309.509                   122622508.221 0                        43.000  
                                                                
  21227356.608                   111551105.419 0                        44.000  
                                                                
  22919461.843    22919455.875   120442312.622 0  93851156.022 0        42.000  
        40.000                                                  
 22  1 14  3 59 29.0000000  0  0
 22  1 14  3 59 30.0000000  0  5E04E09E11E12E19
  24095012.561                   126619680.281 0                        49.000  
                  24095010.614    97020278.013          53.000  
  26239453.226                   137889545.06510                        38.000  
                  26239452.350   105655625.882          41.000  
  22671324.513                   119138171.298 0                        46.000  
                  22671319.975    91287691.598          49.000  
  22788389.504                   119754267.333 0                        45.000  
                  22788386.180    91759766.519          50.000  
  24034604.739                   126303340.156 0                        43.000  
                  24034601.826    96777887.775          46.000  
 22  1 14  3 59 31.0000000  0 10G01G03G04G06G09G17G19G21G22G31
  21371747.909    21371745.639   112309608.035 0  87514049.312 0        47.000  
        47.000                                                  
  20295900.120    20295897.029   106655192.112 0  83107947.489 0        50.000  
        49.000                                                  
  20725614.027    20725609.095   108914579.110 0  84868505.999 0        48.000  
        49.000                                                  
  23859015.410    23859012.372   125379282.809 0  97699100.479 0        43.000  
        41.000                                                  
  23083733.862    23083731.003   121305953.191 0  94524119.820 0        45.000  
        45.000                                                  
  22847928.642    22847923.281   120066869.481 0  93558595.779 0        46.000  
        43.000                                                  
  22682234.231                   119196481.94810                        46.000  
                                                                
  23334879.978                   122625506.203 0                        43.000  
                                                                
  21227638.366                   111552585.945 0                        44.000  
                                                                
  22919760.899    22919754.984   120443884.779 0  93852381.097 0        42.000  
        40.000                                                  
 22  1 14  3 59 30.0000000  0  0
 22  1 14  3 59 31.0000000  0  5E04E09E11E12E19
  24094782.837                   126618473.589 0                        49.000  
                  24094781.050    97019353.405          53.000  
  26238951.982                   137886911.36810                        38.000  
                  26238951.214   105653607.878          41.000  
  22671143.411                   119137219.706 0                        46.000  
                  22671138.890    91286962.468          49.000  
  22788772.527                   119756280.743 0                        45.000  
                  22788769.435    91761309.255          50.000  
  24034906.600                   126304926.370 0                        43.000  
                  24034903.652    96779103.183          46.000  
 22  1 14  3 59 32.0000000  0 10G01G03G04G06G09G17G19G21G22G31
  21372276.474    21372274.223   112312385.573 0  87516213.639 0        47.000  
        47.000                                                  
  20295938.288    20295935.161   106655392.531 0  83108103.667 0        50.000  
        49.000                                                  
  20725324.406    20725319.421   108913056.692 0  84867319.692 0        48.000  
        49.000                                                  
  23858382.204    23858379.148   125375955.060 0  97696507.441 0        43.000  
        41.000                                                  
  23083133.892    23083131.104   121302800.787 0  94521663.401 0        45.000  
        45.000                                                  
  22848180.291    22848174.913   120068191.755 0  93559626.137 0        46.000  
        43.000                                                  
  22682266.324                   119196650.69410                        46.000  
                                                                
  23335450.589                   122628504.464 0                        43.000  
                                                                
  21227920.125                   111554066.806 0                        44.000  
                                                                
  22920060.187    22920054.273   120445457.632 0  93853606.690 0        42.000  
        40.000                                                  
 22  1 14  3 59 31.0000000  0  0
 22  1 14  3 59 32.0000000  0  5E04E09E11E12E19
  24094553.417                   126617267.231 0                        49.000  
                  24094551.433    97018429.058          53.000  
  26238450.756                   137884277.86810                        38.000  
                  26238450.112   105651590.001          41.000  
  22670962.362                   119136268.590 0                        46.000  
                  22670957.913    91286233.681          49.000  
  22789155.710                   119758294.558 0                        45.000  
                  22789152.583    91762852.313          50.000  
  24035208.569                   126306512.835 0                        43.000  
                  24035205.496    96780318.793          46.000  
 22  1 14  3 59 33.0000000  0 10G01G03G04G06G09G17G19G21G22G31
  21372805.183    21372802.932   112315163.712 0  87518378.420 0        47.000  
        47.000                                                  
  20295976.618    20295973.401   106655593.488 0  83108260.246 0        50.000  
        49.000                                                  
  20725034.821    20725029.799   108911534.937 0  84866133.909 0        48.000  
        49.000                                                  
  23857749.050    23857745.995   125372627.698 0  97693914.685 0        43.000  
        41.000                                                  
  23082534.100    23082531.312   121299648.822 0  94519207.318 0        45.000  
        45.000                                                  
  22848432.066    22848426.634   120069514.745 0  93560657.027 0        46.000  
        43.000                                                  
  22682298.631                   119196820.31710                        46.000  
                                                                
  23336021.165                   122631503.142 0                        43.000  
                                                                
  21228202.027                   111555548.144 0                        44.000  
                                                                
  22920359.511    22920353.722   120447031.297 0  93854832.925 0        42.000  
        40.000                                                  
 22  1 14  3 59 32.0000000  0  0
 22  1 14  3 59 33.0000000  0  5E04E09E11E12E19
  24094323.871                   126616061.326 0                        49.000  
                  24094321.906    97017505.052          53.000  
  26237949.601                   137881644.62910                        38.000  
                  26237949.101   105649572.311          41.000  
  22670781.492                   119135318.075 0                        46.000  
                  22670777.024    91285505.365          49.000  
  22789538.965                   119760308.916 0                        45.000  
                  22789535.927    91764395.784          50.000  
  24035510.573                   126308099.691 0                        43.000  
                  24035507.482    96781534.694          46.000  
 22  1 14  3 59 34.0000000  0 10G01G03G04G06G09G17G19G21G22G31
  21373333.856    21373331.622   112317942.288 0  87520543.540 0        47.000  
        47.000                                                  
  20296014.893    20296011.730   106655794.818 0  83108417.126 0        50.000  
        49.000                                                  
  20724745.271    20724740.286   108910013.683 0  84864948.517 0        48.000  
        49.000                                                  
  23857115.879    23857112.895   125369300.529 0  97691322.081 0        43.000  
        41.000                                                  
  23081934.362    23081931.467   121296497.119 0  94516751.450 0        45.000  
        45.000                                                  
  22848683.787    22848678.390   120070838.234 0  93561688.317 0        46.000  
        43.000                                                  
  22682331.063                   119196990.64710                        46.000  
                                                                
  23336591.848                   122634502.040 0                        43.000  
                                                                
  21228484.000                   111557029.797 0                        44.000  
                                                                
  22920658.996    22920653.385   120448605.602 0  93856059.652 0        43.000  
        39.000                                                  
 22  1 14  3 59 33.0000000  0  0
 22  1 14  3 59 34.0000000  0  5E04E09E11E12E19
  24094094.344                   126614855.722 0                        49.000  
                  24094092.414    97016581.278          53.000  
  26237448.464                   137879011.49610                        37.000  
                  26237448.018   105647554.719          41.000  
  22670600.657                   119134368.000 0                        46.000  
                  22670596.279    91284777.379          49.000  
  22789922.398                   119762323.638 0                        45.000  
                  22789919.253    91765939.532          50.000  
  24035812.524                   126309686.746 0                        43.000  
                  24035809.397    96782750.745          46.000  
 22  1 14  3 59 35.0000000  0 10G01G03G04G06G09G17G19G21G22G31
  21373862.672    21373860.420   112320721.135 0  87522708.879 0        47.000  
        47.000                                                  
  20296053.222    20296050.113   106655996.347 0  83108574.159 0        50.000  
        49.000                                                  
  20724455.972    20724450.968   108908492.747 0  84863763.376 0        48.000  
        49.000                                                  
  23856482.816    23856479.778   125365973.401 0  97688729.501 0        43.000  
        41.000                                                  
  23081334.570    23081331.747   121293345.489 0  94514295.637 0        45.000  
        45.000                                                  
  22848935.722    22848930.415   120072162.079 0  93562719.879 0        46.000  
        43.000                                                  
  22682363.549                   119197161.52010                        46.000  
                                                                
  23337162.585                   122637501.014 0                        43.000  
                                                                
  21228765.955                   111558511.597 0                        44.000  
                                                                
  22920958.749    22920952.942   120450180.377 0  93857286.742 0        43.000  
        39.000                                                  
 22  1 14  3 59 34.0000000  0  0
 22  1 14  3 59 35.0000000  0  5E04E09E11E12E19
  24093865.013                   126613650.251 0                        49.000  
                  24093863.083    97015657.598          53.000  
  26236947.274                   137876378.28910                        37.000  
                  26236946.845   105645537.067          41.000  
  22670419.858                   119133418.172 0                        46.000  
                  22670415.427    91284049.595          49.000  
  22790305.796                   119764338.560 0                        45.000  
                  22790302.812    91767483.428          50.000  
  24036114.350                   126311273.825 0                        43.000  
                  24036111.491    96783966.827          46.000  
 22  1 14  3 59 36.0000000  0 10G01G03G04G06G09G17G19G21G22G31
  21374391.524    21374389.308   112323500.401 0  87524874.534 0        47.000  
        47.000                                                  
  20296091.640    20296088.549   106656198.225 0  83108731.478 0        50.000  
        49.000                                                  
  20724166.583    20724161.651   108906972.304 0  84862578.615 0        48.000  
        49.000                                                  
  23855849.752    23855846.750   125362646.444 0  97686137.082 0        43.000  
        41.000                                                  
  23080734.975    23080731.955   121290194.115 0  94511840.014 0        45.000  
        45.000                                                  
  22849187.729    22849182.440   120073486.427 0  93563751.830 0        46.000  
        43.000                                                  
  22682396.232                   119197333.07910                        46.000  
                                                                
  23337733.393                   122640500.184 0                        43.000  
                                                                
  21229047.928                   111559993.649 0                        44.000  
                                                                
  22921258.502    22921252.641   120451755.762 0  93858514.333 0        42.000  
        39.000                                                  
 22  1 14  3 59 35.0000000  0  0
 22  1 14  3 59 36.0000000  0  5E04E09E11E12E19
  24093635.682                   126612445.041 0                        49.000  
                  24093633.716    97014734.130          53.000  
  26236446.084                   137873745.19110                        37.000  
                  26236445.941   105643519.503          41.000  
  22670239.167                   119132468.758 0                        46.000  
                  22670234.878    91283322.124          49.000  
  22790688.997                   119766353.842 0                        45.000  
                  22790686.156    91769027.603          50.000  
  24036416.461                   126312861.127 0                        43.000  
                  24036413.567    96785183.060          46.000  
 22  1 14  3 59 37.0000000  0 10G01G03G04G06G09G17G19G21G22G31
  21374920.464    21374918.213   112326279.872 0  87527040.358 0        47.000  
        47.000                                                  
  20296129.970    20296127.003   106656400.245 0  83108888.889 0        50.000  
        49.000                                                  
  20723877.265    20723872.316   108905452.115 0  84861394.048 0        48.000  
        49.000                                                  
  23855216.670    23855213.615   125359319.452 0  97683544.616 0        43.000  
        41.000                                                  
  23080135.255    23080132.235   121287042.761 0  94509384.415 0        45.000  
        45.000                                                  
  22849439.772    22849434.536   120074811.076 0  93564784.035 0        46.000  
        43.000                                                  
  22682428.914                   119197505.12610                        46.000  
                                                                
  23338304.165                   122643499.340 0                        43.000  
                                                                
  21229330.045                   111561475.774 0                        44.000  
                                                                
  22921558.308    22921552.430   120453331.558 0  93859742.224 0        43.000  
        39.000                                                  
 22  1 14  3 59 36.0000000  0  0
 22  1 14  3 59 37.0000000  0  5E04E09E11E12E19
  24093406.369                   126611239.892 0                        49.000  
                  24093404.474    97013810.704          53.000  
  26235944.947                   137871111.94910                        37.000  
                  26235944.715   105641501.811          41.000  
  22670058.636                   119131519.540 0                        46.000  
                  22670054.169    91282594.794          49.000  
  22791072.592                   119768369.242 0                        45.000  
                  22791069.768    91770571.873          50.000  
  24036718.519                   126314448.364 0                        43.000  
                  24036715.589    96786399.273          46.000  
 22  1 14  3 59 38.0000000  0 10G01G03G04G06G09G17G19G21G22G31
  21375449.495    21375447.386   112329059.998 0  87529206.690 0        47.000  
        47.000                                                  
  20296168.567    20296165.618   106656602.859 0  83109046.771 0        50.000  
        49.000                                                  
  20723588.162    20723583.177   108903932.661 0  84860210.065 0        48.000  
        49.000                                                  
  23854583.624    23854580.622   125355992.899 0  97680952.504 0        43.000  
        41.000                                                  
  23079535.589    23079532.694   121283891.903 0  94506929.199 0        45.000  
        45.000                                                  
  22849691.886    22849686.739   120076136.472 0  93565816.820 0        46.000  
        43.000                                                  
  22682461.793                   119197678.10610                        46.000  
                                                                
  23338874.884                   122646498.963 0                        43.000  
                                                                
  21229612.161                   111562958.431 0                        44.000  
                                                                
  22921858.311    22921852.397   120454908.231 0  93860970.796 0        43.000  
        39.000                                                  
 22  1 14  3 59 37.0000000  0  0
 22  1 14  3 59 38.0000000  0  5E04E09E11E12E19
  24093177.198                   126610035.269 0                        49.000  
                  24093175.179    97012887.679          53.000  
  26235443.900                   137868479.03010                        37.000  
                  26235443.649   105639484.395          41.000  
  22669878.141                   119130570.980 0                        46.000  
                  22669873.692    91281867.969          49.000  
  22791456.293                   119770385.246 0                        45.000  
                  22791453.470    91772116.603          50.000  
  24037020.631                   126316036.068 0                        43.000  
                  24037017.808    96787615.814          46.000  
 22  1 14  3 59 39.0000000  0 10G01G03G04G06G09G17G19G21G22G31
  21375978.704    21375976.577   112331840.537 0  87531373.342 0        47.000  
        47.000                                                  
  20296207.128    20296204.233   106656805.815 0  83109204.913 0        50.000  
        49.000                                                  
  20723299.185    20723294.217   108902413.667 0  84859026.433 0        48.000  
        49.000                                                  
  23853950.704    23853947.773   125352666.517 0  97678360.525 0        43.000  
        41.000                                                  
  23078936.011    23078933.224   121280741.256 0  94504474.158 0        45.000  
        45.000                                                  
  22849944.250    22849938.978   120077462.370 0  93566849.979 0        46.000  
        43.000                                                  
  22682494.869                   119197851.76110                        46.000  
                                                                
  23339445.799                   122649498.785 0                        43.000  
                                                                
  21229894.330                   111564441.372 0                        44.000  
                                                                
  22922158.386    22922152.561   120456485.503 0  93862199.843 0        43.000  
        39.000                                                  
 22  1 14  3 59 38.0000000  0  0
 22  1 14  3 59 39.0000000  0  5E04E09E11E12E19
  24092947.867                   126608830.892 0                        49.000  
                  24092946.009    97011964.845          53.000  
  26234942.673                   137865846.19910                        37.000  
                  26234942.781   105637467.029          41.000  
  22669697.735                   119129622.792 0                        46.000  
                  22669693.197    91281141.444          49.000  
  22791840.084                   119772401.587 0                        45.000  
                  22791837.118    91773661.588          50.000  
  24037322.725                   126317623.930 0                        43.000  
                  24037319.919    96788832.492          46.000  
 22  1 14  3 59 40.0000000  0 10G01G03G04G06G09G17G19G21G22G31
  21376508.002    21376505.804   112334621.807 0  87533540.563 0        47.000  
        47.000                                                  
  20296245.868    20296243.027   106657009.448 0  83109363.595 0        50.000  
        49.000                                                  
  20723010.332    20723005.293   108900895.466 0  84857843.424 0        48.000  
        49.000                                                  
  23853317.854    23853314.852   125349340.631 0  97675768.930 0        43.000  
        41.000                                                  
  23078336.416    23078333.700   121277591.187 0  94502019.557 0        45.000  
        45.000                                                  
  22850196.721    22850191.504   120078789.093 0  93567883.796 0        46.000  
        43.000                                                  
  22682528.123                   119198026.43110                        46.000  
                                                                
  23340016.643                   122652499.135 0                        43.000  
                                                                
  21230176.715                   111565924.897 0                        44.000  
                                                                
  22922458.836    22922452.850   120458063.723 0  93863429.634 0        43.000  
        39.000                                                  
 22  1 14  3 59 39.0000000  0  0
 22  1 14  3 59 40.0000000  0  5E04E09E11E12E19
  24092718.804                   126607627.105 0                        49.000  
                  24092716.892    97011042.471          53.000  
  26234441.608                   137863213.78410                        38.000  
                  26234441.787   105635449.970          41.000  
  22669517.419                   119128675.338 0                        46.000  
                  22669512.934    91280415.477          49.000  
  22792223.839                   119774418.586 0                        45.000  
                  22792220.980    91775207.083          50.000  
  24037625.194                   126319212.300 0                        43.000  
                  24037622.192    96790049.562          46.000  
 22  1 14  3 59 41.0000000  0 10G01G03G04G06G09G17G19G21G22G31
  21377037.318    21377035.067   112337403.383 0  87535708.034 0        47.000  
        47.000                                                  
  20296284.644    20296281.749   106657213.313 0  83109522.453 0        50.000  
        49.000                                                  
  20722721.461    20722716.404   108899377.646 0  84856660.709 0        48.000  
        49.000                                                  
  23852684.880    23852682.057   125346014.830 0  97673177.387 0        43.000  
        41.000                                                  
  23077736.982    23077734.266   121274441.241 0  94499565.056 0        45.000  
        45.000                                                  
  22850449.246    22850443.939   120080116.221 0  93568917.923 0        45.000  
        43.000                                                  
  22682561.556                   119198201.67910                        46.000  
                                                                
  23340587.683                   122655499.597 0                        43.000  
                                                                
  21230459.009                   111567408.604 0                        44.000  
                                                                
  22922759.268    22922753.210   120459642.438 0  93864659.800 0        43.000  
        39.000                                                  
 22  1 14  3 59 40.0000000  0  0
 22  1 14  3 59 41.0000000  0  5E04E09E11E12E19
  24092489.902                   126606423.488 0                        49.000  
                  24092487.829    97010120.220          53.000  
  26233940.757                   137860581.33710                        38.000  
                  26233940.757   105633432.914          41.000  
  22669337.156                   119127728.192 0                        46.000  
                  22669332.671    91279689.751          49.000  
  22792607.576                   119776435.832 0                        45.000  
                  22792604.789    91776752.765          50.000  
  24037927.269                   126320800.747 0                        42.000  
                  24037924.303    96791266.689          46.000  
 22  1 14  3 59 42.0000000  0 10G01G03G04G06G09G17G19G21G22G31
  21377566.724    21377564.419   112340185.334 0  87537875.758 0        47.000  
        47.000                                                  
  20296323.616    20296320.614   106657417.483 0  83109681.547 0        50.000  
        49.000                                                  
  20722432.734    20722427.694   108897860.225 0  84855478.296 0        48.000  
        49.000                                                  
  23852051.977    23852049.172   125342689.146 0  97670585.934 0        43.000  
        41.000                                                  
  23077137.530    23077134.760   121271291.478 0  94497110.686 0        45.000  
        45.000                                                  
  22850701.807    22850696.625   120081443.783 0  93569952.390 0        45.000  
        43.000                                                  
  22682595.078                   119198377.54610                        46.000  
                                                                
  23341158.688                   122658500.188 0                        43.000  
                                                                
  21230741.376                   111568892.546 0                        44.000  
                                                                
  22923059.771    22923053.731   120461221.712 0  93865890.398 0        43.000  
        39.000                                                  
 22  1 14  3 59 41.0000000  0  0
 22  1 14  3 59 42.0000000  0  5E04E09E11E12E19
  24092260.875                   126605220.082 0                        49.000  
                  24092258.820    97009198.125          53.000  
  26233439.781                   137857948.88210                        38.000  
                  26233439.906   105631415.856          41.000  
  22669157.019                   119126781.404 0                        46.000  
                  22669152.587    91278964.272          49.000  
  22792991.546                   119778453.365 0                        45.000  
                  22792988.758    91778298.660          50.000  
  24038229.309                   126322389.337 0                        42.000  
                  24038226.575    96792483.907          46.000  
 22  1 14  3 59 43.0000000  0 10G01G03G04G06G09G17G19G21G22G31
  21378096.129    21378093.931   112342967.543 0  87540043.734 0        47.000  
        47.000                                                  
  20296362.463    20296359.479   106657621.876 0  83109840.812 0        50.000  
        49.000                                                  
  20722143.988    20722139.092   108896343.174 0  84854296.179 0        48.000  
        49.000                                                  
  23851419.181    23851416.269   125339363.512 0  97667994.549 0        43.000  
        41.000                                                  
  23076538.203    23076535.344   121268141.829 0  94494656.416 0        45.000  
        45.000                                                  
  22850954.547    22850949.347   120082771.741 0  93570987.144 0        45.000  
        43.000                                                  
  22682628.565                   119198553.97710                        46.000  
                                                                
  23341729.657                   122661500.869 0                        43.000  
                                                                
  21231023.760                   111570376.625 0                        44.000  
                                                                
  22923360.364    22923354.413   120462801.492 0  93867121.398 0        43.000  
        39.000                                                  
 22  1 14  3 59 42.0000000  0  0
 22  1 14  3 59 43.0000000  0  5E04E09E11E12E19
  24092031.812                   126604016.815 0                        49.000  
                  24092029.882    97008276.143          53.000  
  26232938.877                   137855316.44110                        38.000  
                  26232939.109   105629398.762          41.000  
  22668976.881                   119125834.886 0                        46.000  
                  22668972.414    91278239.018          49.000  
  22793375.712                   119780471.118 0                        45.000  
                  22793372.674    91779844.730          50.000  
  24038531.707                   126323977.965 0                        42.000  
                  24038528.919    96793701.177          46.000  
 22  1 14  3 59 44.0000000  0 10G01G03G04G06G09G17G19G21G22G31
  21378625.696    21378623.587   112345750.477 0  87542212.243 0        47.000  
        47.000                                                  
  20296401.400    20296398.452   106657826.891 0  83110000.562 0        50.000  
        49.000                                                  
  20721855.403    20721850.614   108894826.880 0  84853114.653 0        48.000  
        49.000                                                  
  23850786.421    23850783.491   125336038.348 0  97665403.505 0        43.000  
        41.000                                                  
  23075938.894    23075936.160   121264992.702 0  94492202.544 0        45.000  
        45.000                                                  
  22851207.375    22851202.158   120084100.468 0  93572022.520 0        45.000  
        43.000                                                  
  22682662.301                   119198731.39110                        46.000  
                                                                
  23342300.769                   122664502.050 0                        43.000  
                                                                
  21231306.394                   111571861.289 0                        44.000  
                                                                
  22923661.153    22923655.185   120464382.165 0  93868353.089 0        43.000  
        39.000                                                  
 22  1 14  3 59 43.0000000  0  0
 22  1 14  3 59 44.0000000  0  5E04E09E11E12E19
  24091803.053                   126602814.107 0                        49.000  
                  24091800.980    97007354.584          53.000  
  26232438.008                   137852684.36110                        38.000  
                  26232438.062   105627381.978          41.000  
  22668797.101                   119124889.057 0                        46.000  
                  22668792.562    91277514.294          49.000  
  22793759.485                   119782489.493 0                        45.000  
                  22793756.823    91781391.282          50.000  
  24038834.212                   126325567.089 0                        43.000  
                  24038831.245    96794918.813          46.000  
 22  1 14  3 59 45.0000000  0 10G01G03G04G06G09G17G19G21G22G31
  21379155.262    21379153.297   112348533.643 0  87544380.955 0        47.000  
        47.000                                                  
  20296440.301    20296437.406   106658032.094 0  83110160.462 0        50.000  
        49.000                                                  
  20721566.926    20721562.173   108893310.885 0  84851933.363 0        48.000  
        49.000                                                  
  23850153.608    23850150.659   125332713.192 0  97662812.486 0        43.000  
        41.000                                                  
  23075339.638    23075336.851   121261843.654 0  94489748.750 0        45.000  
        45.000                                                  
  22851460.240    22851455.111   120085429.547 0  93573058.173 0        46.000  
        43.000                                                  
  22682696.092                   119198909.33010                        46.000  
                                                                
  23342871.827                   122667503.263 0                        43.000  
                                                                
  21231588.886                   111573346.067 0                        44.000  
                                                                
  22923961.996    22923956.081   120465963.290 0  93869585.148 0        43.000  
        39.000                                                  
 22  1 14  3 59 44.0000000  0  0
 22  1 14  3 59 45.0000000  0  5E04E09E11E12E19
  24091574.186                   126601611.506 0                        49.000  
                  24091572.185    97006433.114          53.000  
  26231937.211                   137850052.16710                        38.000  
                  26231937.175   105625365.092          41.000  
  22668617.071                   119123943.457 0                        46.000  
                  22668612.550    91276789.749          49.000  
  22794143.740                   119784508.062 0                        45.000  
                  22794140.917    91782937.969          50.000  
  24039136.538                   126327156.222 0                        42.000  
                  24039133.804    96796136.451          46.000  
 22  1 14  3 59 46.0000000  0 10G01G03G04G06G09G17G19G21G22G31
  21379685.007    21379682.899   112351317.190 0  87546549.950 0        47.000  
        47.000                                                  
  20296479.434    20296476.664   106658237.611 0  83110320.608 0        50.000  
        49.000                                                  
  20721278.502    20721273.838   108891795.330 0  84850752.411 0        48.000  
        49.000                                                  
  23849520.776    23849518.042   125329388.183 0  97660221.566 0        43.000  
        41.000                                                  
  23074740.436    23074737.559   121258694.789 0  94487295.089 0        45.000  
        45.000                                                  
  22851713.176    22851708.208   120086759.084 0  93574094.172 0        46.000  
        43.000                                                  
  22682730.043                   119199087.91210                        46.000  
                                                                
  23343442.885                   122670504.640 0                        43.000  
                                                                
  21231871.484                   111574831.074 0                        44.000  
                                                                
  22924262.999    22924257.049   120467544.990 0  93870817.632 0        43.000  
        39.000                                                  
 22  1 14  3 59 45.0000000  0  0
 22  1 14  3 59 46.0000000  0  5E04E09E11E12E19
  24091345.302                   126600409.125 0                        49.000  
                  24091343.390    97005511.809          53.000  
  26231436.557                   137847420.02810                        38.000  
                  26231436.253   105623348.257          41.000  
  22668437.237                   119122998.225 0                        46.000  
                  22668432.609    91276065.475          49.000  
  22794527.853                   119786526.916 0                        45.000  
                  22794525.101    91784484.889          50.000  
  24039438.935                   126328745.484 0                        42.000  
                  24039436.165    96797354.207          46.000  
 22  1 14  3 59 47.0000000  0 10G01G03G04G06G09G17G19G21G22G31
  21380214.859    21380212.751   112354101.404 0  87548719.467 0        47.000  
        47.000                                                  
  20296518.692    20296515.851   106658443.733 0  83110481.222 0        50.000  
        49.000                                                  
  20720990.239    20720985.611   108890280.515 0  84849572.041 0        48.000  
        49.000                                                  
  23848888.070    23848885.336   125326063.618 0  97657631.000 0        43.000  
        41.000                                                  
  23074141.342    23074138.465   121255546.440 0  94484841.823 0        45.000  
        45.000                                                  
  22851966.380    22851961.377   120088089.393 0  93575130.776 0        46.000  
        43.000                                                  
  22682764.226                   119199267.44710                        46.000  
                                                                
  23344014.176                   122673506.499 0                        43.000  
                                                                
  21232154.154                   111576316.642 0                        44.000  
                                                                
  22924564.146    22924558.231   120469127.570 0  93872050.812 0        43.000  
        39.000                                                  
 22  1 14  3 59 46.0000000  0  0
 22  1 14  3 59 47.0000000  0  5E04E09E11E12E19
  24091116.578                   126599207.280 0                        49.000  
                  24091114.649    97004590.920          53.000  
  26230935.813                   137844788.24510                        38.000  
                  26230935.402   105621331.691          41.000  
  22668257.421                   119122053.667 0                        46.000  
                  22668252.864    91275341.723          49.000  
  22794912.216                   119788546.386 0                        45.000  
                  22794909.392    91786032.271          50.000  
  24039741.440                   126330335.216 0                        42.000  
                  24039738.759    96798572.308          46.000  
 22  1 14  3 59 48.0000000  0 10G01G03G04G06G09G17G19G21G22G31
  21380744.819    21380742.764   112356886.128 0  87550889.380 0        47.000  
        47.000                                                  
  20296557.986    20296555.056   106658650.283 0  83110642.168 0        50.000  
        49.000                                                  
  20720702.083    20720697.348   108888766.261 0  84848392.097 0        48.000  
        49.000                                                  
  23848255.489    23848252.701   125322739.316 0  97655040.626 0        43.000  
        41.000                                                  
  23073542.372    23073539.513   121252398.399 0  94482388.813 0        45.000  
        45.000                                                  
  22852219.566    22852214.563   120089420.274 0  93576167.824 0        46.000  
        43.000                                                  
  22682798.517                   119199447.75110                        46.000  
                                                                
  23344585.395                   122676508.633 0                        43.000  
                                                                
  21232437.021                   111577802.541 0                        44.000  
                                                                
  22924865.454    22924859.539   120470710.843 0  93873284.520 0        43.000  
        39.000                                                  
 22  1 14  3 59 47.0000000  0  0
 22  1 14  3 59 48.0000000  0  5E04E09E11E12E19
  24090887.908                   126598005.779 0                        49.000  
                  24090886.050    97003670.294          53.000  
  26230435.034                   137842156.60810                        38.000  
                  26230434.533   105619315.267          41.000  
  22668077.766                   119121109.587 0                        46.000  
                  22668073.280    91274618.344          49.000  
  22795296.471                   119790566.278 0                        45.000  
                  22795293.773    91787579.987          50.000  
  24040043.944                   126331925.197 0                        42.000  
                  24040041.353    96799790.612          46.000  
 22  1 14  3 59 49.0000000  0 10G01G03G04G06G09G17G19G21G22G31
  21381274.778    21381272.581   112359670.784 0  87553059.238 0        47.000  
        47.000                                                  
  20296597.423    20296594.332   106658856.712 0  83110803.022 0        50.000  
        49.000                                                  
  20720413.909    20720409.263   108887252.000 0  84847212.159 0        48.000  
        49.000                                                  
  23847622.782    23847620.030   125319414.706 0  97652450.023 0        43.000  
        41.000                                                  
  23072943.224    23072940.418   121249250.111 0  94479935.604 0        45.000  
        45.000                                                  
  22852472.895    22852467.856   120090751.184 0  93577204.892 0        46.000  
        43.000                                                  
  22682832.825                   119199628.26110                        46.000  
                                                                
  23345156.649                   122679510.498 0                        43.000  
                                                                
  21232719.780                   111579288.287 0                        44.000  
                                                                
  22925166.761    22925160.864   120472294.254 0  93874518.344 0        43.000  
        39.000                                                  
 22  1 14  3 59 48.0000000  0  0
 22  1 14  3 59 49.0000000  0  5E04E09E11E12E19
  24090659.292                   126596804.081 0                        49.000  
                  24090657.327    97002749.510          53.000  
  26229934.201                   137839524.58910                        38.000  
                  26229933.700   105617298.516          41.000  
  22667898.093                   119120165.446 0                        46.000  
                  22667893.607    91273894.906          49.000  
  22795680.887                   119792586.053 0                        45.000  
                  22795678.118    91789127.603          50.000  
  24040346.485                   126333514.899 0                        42.000  
                  24040343.876    96801008.689          46.000  
 22  1 14  3 59 50.0000000  0 10G01G03G04G06G09G17G19G21G22G31
  21381804.738    21381802.558   112362456.066 0  87555229.587 0        47.000  
        47.000                                                  
  20296636.824    20296633.787   106659063.711 0  83110964.318 0        50.000  
        49.000                                                  
  20720125.825    20720121.286   108885738.441 0  84846032.760 0        48.000  
        49.000                                                  
  23846990.255    23846987.413   125316090.516 0  97649859.747 0        43.000  
        41.000                                                  
  23072344.272    23072341.395   121246102.299 0  94477482.763 0        45.000  
        45.000                                                  
  22852726.296    22852721.221   120092082.822 0  93578242.534 0        46.000  
        43.000                                                  
  22682867.295                   119199809.69210                        46.000  
                                                                
  23345727.958                   122682512.791 0                        43.000  
                                                                
  21233002.665                   111580774.506 0                        44.000  
                                                                
  22925468.211    22925462.333   120473878.507 0  93875752.820 0        43.000  
        39.000                                                  
 22  1 14  3 59 49.0000000  0  0
 22  1 14  3 59 50.0000000  0  5E04E09E11E12E19
  24090430.730                   126595602.877 0                        49.000  
                  24090428.692    97001829.104          53.000  
  26229433.368                   137836892.88510                        38.000  
                  26229433.064   105615282.009          41.000  
  22667718.545                   119119221.933 0                        46.000  
                  22667713.952    91273171.955          49.000  
  22796065.322                   119794606.386 0                        45.000  
                  22796062.659    91790675.650          50.000  
  24040648.972                   126335104.991 0                        42.000  
                  24040646.381    96802227.074          46.000  
 22  1 14  3 59 51.0000000  0 10G01G03G04G06G09G17G19G21G22G31
  21382334.930    21382332.768   112365242.067 0  87557400.490 0        47.000  
        47.000                                                  
  20296676.368    20296673.366   106659271.359 0  83111126.130 0        50.000  
        49.000                                                  
  20719838.026    20719833.452   108884225.657 0  84844853.969 0        48.000  
        49.000                                                  
  23846357.763    23846354.922   125312766.801 0  97647269.849 0        43.000  
        41.000                                                  
  23071745.427    23071742.425   121242955.021 0  94475030.339 0        45.000  
        45.000                                                  
  22852979.893    22852974.711   120093415.267 0  93579280.796 0        46.000  
        43.000                                                  
  22682902.050                   119199992.10910                        46.000  
                                                                
  23346299.338                   122685515.606 0                        43.000  
                                                                
  21233285.657                   111582261.326 0                        44.000  
                                                                
  22925769.823    22925763.980   120475463.670 0  93876988.016 0        43.000  
        39.000                                                  
 22  1 14  3 59 50.0000000  0  0
 22  1 14  3 59 51.0000000  0  5E04E09E11E12E19
  24090202.310                   126594402.232 0                        49.000  
                  24090200.291    97000909.132          53.000  
  26228932.660                   137834261.54810                        38.000  
                  26228932.392   105613265.803          41.000  
  22667539.283                   119118279.133 0                        46.000  
                  22667534.637    91272449.547          49.000  
  22796449.881                   119796627.361 0                        45.000  
                  22796447.147    91792224.194          50.000  
  24040951.566                   126336695.594 0                        42.000  
                  24040949.136    96803445.847          46.000  
 22  1 14  3 59 52.0000000  0 10G01G03G04G06G09G17G19G21G22G31
  21382865.104    21382862.977   112368028.173 0  87559571.486 0        47.000  
        47.000                                                  
  20296715.859    20296712.946   106659479.044 0  83111287.949 0        50.000  
        49.000                                                  
  20719550.067    20719545.635   108882713.039 0  84843675.313 0        48.000  
        49.000                                                  
  23845725.271    23845722.358   125309442.966 0  97644679.829 0        43.000  
        41.000                                                  
  23071146.404    23071143.491   121239807.681 0  94472577.866 0        45.000  
        45.000                                                  
  22853233.383    22853228.398   120094747.912 0  93580319.214 0        46.000  
        43.000                                                  
  22682936.841                   119200174.91410                        46.000  
                                                                
  23346870.718                   122688518.307 0                        43.000  
                                                                
  21233568.505                   111583748.109 0                        45.000  
                                                                
  22926071.505    22926065.716   120477049.149 0  93878223.446 0        43.000  
        39.000                                                  
 22  1 14  3 59 51.0000000  0  0
 22  1 14  3 59 52.0000000  0  5E04E09E11E12E19
  24089973.890                   126593201.556 0                        49.000  
                  24089971.871    96999989.131          53.000  
  26228432.023                   137831630.00510                        38.000  
                  26228431.827   105611249.405          41.000  
  22667359.842                   119117336.424 0                        46.000  
                  22667355.196    91271727.212          49.000  
  22796834.583                   119798648.386 0                        45.000  
                  22796831.724    91793772.764          50.000  
  24041254.338                   126338286.060 0                        42.000  
                  24041251.747    96804664.515          46.000  
 22  1 14  3 59 53.0000000  0 10G01G03G04G06G09G17G19G21G22G31
  21383395.420    21383393.330   112370815.015 0  87561743.056 0        47.000  
        47.000                                                  
  20296755.528    20296752.580   106659687.428 0  83111450.331 0        50.000  
        49.000                                                  
  20719262.286    20719257.980   108881201.247 0  84842497.286 0        48.000  
        49.000                                                  
  23845092.940    23845089.920   125306119.642 0  97642090.244 0        43.000  
        41.000                                                  
  23070547.559    23070544.629   121236660.919 0  94470125.838 0        45.000  
        45.000                                                  
  22853487.195    22853482.030   120096081.384 0  93581358.301 0        46.000  
        43.000                                                  
  22682971.846                   119200358.74210                        46.000  
                                                                
  23347442.187                   122691521.556 0                        43.000  
                                                                
  21233851.586                   111585235.507 0                        45.000  
                                                                
  22926373.331    22926367.524   120478635.574 0  93879459.636 0        42.000  
        39.000                                                  
 22  1 14  3 59 52.0000000  0  0
 22  1 14  3 59 53.0000000  0  5E04E09E11E12E19
  24089745.595                   126592001.481 0                        49.000  
                  24089743.433    96999069.600          53.000  
  26227931.405                   137828998.87610                        38.000  
                  26227931.030   105609233.345          41.000  
  22667180.776                   119116394.448 0                        46.000  
                  22667175.916    91271005.436          49.000  
  22797219.410                   119800670.083 0                        45.000  
                  22797216.498    91795321.852          50.000  
  24041557.111                   126339877.050 0                        42.000  
                  24041554.359    96805883.582          46.000  
 22  1 14  3 59 54.0000000  0 10G01G03G04G06G09G17G19G21G22G31
  21383925.809    21383923.807   112373602.190 0  87563914.878 0        47.000  
        47.000                                                  
  20296795.144    20296792.338   106659896.059 0  83111612.902 0        50.000  
        49.000                                                  
  20718974.720    20718970.396   108879689.818 0  84841319.549 0        48.000  
        49.000                                                  
  23844460.537    23844457.553   125302796.403 0  97639500.702 0        43.000  
        41.000                                                  
  23069948.786    23069945.892   121233514.275 0  94467673.909 0        45.000  
        45.000                                                  
  22853741.006    22853735.878   120097415.261 0  93582397.674 0        46.000  
        43.000                                                  
  22683006.852                   119200543.14310                        46.000  
                                                                
  23348013.727                   122694524.944 0                        43.000  
                                                                
  21234134.757                   111586723.082 0                        45.000  
                                                                
  22926675.300    22926669.457   120480222.520 0  93880696.200 0        43.000  
        39.000                                                  
 22  1 14  3 59 53.0000000  0  0
 22  1 14  3 59 54.0000000  0  5E04E09E11E12E19
  24089517.069                   126590801.570 0                        49.000  
                  24089515.085    96998150.188          53.000  
  26227430.697                   137826367.71410                        38.000  
                  26227430.268   105607217.256          41.000  
  22667001.532                   119115452.781 0                        46.000  
                  22666996.797    91270283.898          49.000  
  22797604.148                   119802692.026 0                        45.000  
                  22797601.343    91796871.132          50.000  
  24041859.830                   126341468.117 0                        42.000  
                  24041857.168    96807102.713          46.000  
 22  1 14  3 59 55.0000000  0 10G01G03G04G06G09G17G19G21G22G31
  21384456.269    21384454.178   112376389.716 0  87566086.972 0        47.000  
        47.000                                                  
  20296834.813    20296831.972   106660104.974 0  83111775.696 0        50.000  
        49.000                                                  
  20718687.243    20718682.794   108878178.815 0  84840142.146 0        48.000  
        49.000                                                  
  23843828.188    23843825.043   125299473.286 0  97636911.273 0        43.000  
        41.000                                                  
  23069350.049    23069347.065   121230367.822 0  94465222.120 0        45.000  
        45.000                                                  
  22853994.907    22853989.850   120098749.596 0  93583437.413 0        46.000  
        43.000                                                  
  22683042.054                   119200728.18310                        46.000  
                                                                
  23348585.286                   122697528.454 0                        43.000  
                                                                
  21234417.856                   111588210.894 0                        45.000  
                                                                
  22926977.376    22926971.568   120481810.019 0  93881933.226 0        42.000  
        39.000                                                  
 22  1 14  3 59 54.0000000  0  0
 22  1 14  3 59 55.0000000  0  5E04E09E11E12E19
  24089288.756                   126589601.897 0                        49.000  
                  24089286.826    96997230.953          53.000  
  26226929.989                   137823736.60010                        38.000  
                  26226929.614   105605201.212          41.000  
  22666822.413                   119114511.471 0                        46.000  
                  22666817.731    91269562.642          49.000  
  22797989.047                   119804714.266 0                        45.000  
                  22797985.991    91798420.645          50.000  
  24042162.532                   126343059.321 0                        42.000  
                  24042160.066    96808321.952          46.000  
 22  1 14  3 59 56.0000000  0 10G01G03G04G06G09G17G19G21G22G31
  21384986.871    21384984.566   112379177.648 0  87568259.379 0        47.000  
        47.000                                                  
  20296874.661    20296871.766   106660314.235 0  83111938.750 0        50.000  
        49.000                                                  
  20718399.802    20718395.424   108876668.266 0  84838965.105 0        48.000  
        49.000                                                  
  23843195.803    23843192.694   125296150.335 0  97634321.946 0        43.000  
        41.000                                                  
  23068751.347    23068748.453   121227221.603 0  94462770.524 0        45.000  
        45.000                                                  
  22854248.987    22854243.841   120100084.412 0  93584477.530 0        46.000  
        43.000                                                  
  22683077.417                   119200913.90810                        46.000  
                                                                
  23349156.934                   122700532.185 0                        43.000  
                                                                
  21234701.008                   111589698.971 0                        45.000  
                                                                
  22927279.541    22927273.769   120483398.122 0  93883170.706 0        42.000  
        39.000                                                  
 22  1 14  3 59 55.0000000  0  0
 22  1 14  3 59 56.0000000  0  5E04E09E11E12E19
  24089060.515                   126588402.459 0                        49.000  
                  24089058.585    96996311.903          53.000  
  26226429.281                   137821105.54410                        38.000  
                  26226428.942   105603185.210          41.000  
  22666643.223                   119113570.546 0                        46.000  
                  22666638.684    91268841.674          49.000  
  22798373.946                   119806736.826 0                        45.000  
                  22798370.997    91799970.394          50.000  
  24042465.340                   126344650.690 0                        42.000  
                  24042462.892    96809541.310          46.000  
 22  1 14  3 59 57.0000000  0 10G01G03G04G06G09G17G19G21G22G31
  21385517.546    21385515.276   112381966.245 0  87570432.315 0        47.000  
        47.000                                                  
  20296914.634    20296911.739   106660524.095 0  83112102.272 0        50.000  
        49.000                                                  
  20718112.540    20718108.037   108875158.463 0  84837788.628 0        48.000  
        49.000                                                  
  23842563.597    23842560.363   125292827.844 0  97631732.994 0        43.000  
        41.000                                                  
  23068152.807    23068149.733   121224075.877 0  94460319.304 0        45.000  
        45.000                                                  
  22854503.209    22854497.902   120101419.979 0  93585518.225 0        46.000  
        43.000                                                  
  22683112.994                   119201100.57110                        46.000  
                                                                
  23349728.564                   122703536.359 0                        43.000  
                                                                
  21234984.322                   111591187.569 0                        44.000  
                                                                
  22927581.867    22927576.131   120484987.120 0  93884408.882 0        43.000  
        39.000                                                  
 22  1 14  3 59 56.0000000  0  0
 22  1 14  3 59 57.0000000  0  5E04E09E11E12E19
  24088832.488                   126587203.558 0                        49.000  
                  24088830.451    96995393.267          53.000  
  26225928.770                   137818474.84910                        38.000  
                  26225928.484   105601169.470          41.000  
  22666464.389                   119112630.308 0                        46.000  
                  22666459.690    91268121.227          49.000  
  22798758.862                   119808759.990 0                        45.000  
                  22798756.003    91801520.615          50.000  
  24042768.166                   126346242.505 0                        42.000  
                  24042765.736    96810761.017          46.000  
 22  1 14  3 59 58.0000000  0 10G01G03G04G06G09G17G19G21G22G31
  21386048.291    21386045.986   112384755.116 0  87572605.465 0        47.000  
        47.000                                                  
  20296954.696    20296951.694   106660734.175 0  83112265.973 0        50.000  
        49.000                                                  
  20717825.313    20717820.900   108873649.001 0  84836612.428 0        48.000  
        49.000                                                  
  23841931.356    23841928.175   125289505.391 0  97629144.067 0        43.000  
        41.000                                                  
  23067554.248    23067551.228   121220930.257 0  94457868.183 0        45.000  
        45.000                                                  
  22854757.432    22854752.214   120102755.925 0  93586559.235 0        46.000  
        43.000                                                  
  22683148.553                   119201287.79710                        46.000  
                                                                
  23350300.266                   122706540.612 0                        43.000  
                                                                
  21235267.707                   111592676.341 0                        45.000  
                                                                
  22927884.354    22927878.618   120486576.596 0  93885647.428 0        43.000  
        39.000                                                  
 22  1 14  3 59 57.0000000  0  0
 22  1 14  3 59 58.0000000  0  5E04E09E11E12E19
  24088604.551                   126586004.792 0                        49.000  
                  24088602.282    96994474.739          53.000  
  26225428.259                   137815844.09510                        38.000  
                  26225427.865   105599153.702          41.000  
  22666285.628                   119111690.337 0                        46.000  
                  22666280.785    91267400.987          49.000  
  22799144.011                   119810783.381 0                        45.000  
                  22799140.974    91803071.000          50.000  
  24043070.993                   126347834.373 0                        42.000  
                  24043068.705    96811980.774          46.000  
 22  1 14  3 59 59.0000000  0 10G01G03G04G06G09G17G19G21G22G31
  21386579.055    21386576.696   112387544.197 0  87574778.776 0        47.000  
        47.000                                                  
  20296994.759    20296991.721   106660944.382 0  83112429.775 0        50.000  
        49.000                                                  
  20717538.194    20717533.691   108872139.796 0  84835436.429 0        48.000  
        49.000                                                  
  23841299.078    23841295.844   125286182.891 0  97626555.104 0        43.000  
        41.000                                                  
  23066955.582    23066952.723   121217784.660 0  94455417.064 0        45.000  
        45.000                                                  
  22855011.744    22855006.562   120104092.152 0  93587600.444 0        46.000  
        43.000                                                  
  22683184.398                   119201475.48510                        46.000  
                                                                
  23350871.967                   122709544.850 0                        43.000  
                                                                
  21235551.020                   111594165.148 0                        45.000  
                                                                
  22928186.983    22928181.194   120488166.463 0  93886886.271 0        43.000  
        39.000                                                  
 22  1 14  3 59 58.0000000  0  0
 22  1 14  3 59 59.0000000  0  5E04E09E11E12E19
  24088376.346                   126584806.072 0                        49.000  
                  24088374.130    96993556.237          53.000  
  26224927.694                   137813213.18910                        38.000  
                  26224927.301   105597137.822          41.000  
  22666106.652                   119110750.544 0                        46.000  
                  22666101.970    91266680.886          49.000  
  22799529.142                   119812806.888 0                        45.000  
                  22799526.069    91804621.478          50.000  
  24043373.980                   126349426.215 0                        42.000  
                  24043371.532    96813200.481          46.000  
 22  1 14  4  0  0.0000000  0 10G01G03G04G06G09G17G19G21G22G31
  21387109.890    21387107.621   112390333.810 0  87576952.493 0        47.000  
        47.000                                                  
  20297034.910    20297031.837   106661155.081 0  83112593.947 0        50.000  
        49.000                                                  
  20717251.164    20717246.643   108870631.199 0  84834260.894 0        48.000  
        49.000                                                  
  23840666.961    23840663.745   125282860.705 0  97623966.397 0        43.000  
        41.000                                                  
  23066357.005    23066354.289   121214639.427 0  94452966.245 0        45.000  
        45.000                                                  
  22855266.145    22855260.981   120105429.019 0  93588642.159 0        46.000  
        43.000                                                  
  22683220.333                   119201663.98210                        46.000  
                                                                
  23351443.740                   122712549.429 0                        43.000  
                                                                
  21235834.440                   111595654.381 0                        45.000  
                                                                
  22928489.667    22928483.931   120489757.077 0  93888125.725 0        43.000  
        40.000                                                  
 22  1 14  3 59 59.0000000  0  0
 22  1 14  4  0  0.0000000  0  5E04E09E11E12E19
  24088148.283                   126583607.755 0                        49.000  
                  24088146.086    96992638.039          53.000  
  26224427.218                   137810582.53010                        38.000  
                  26224426.610   105595122.119          41.000  
  22665927.926                   119109811.274 0                        46.000  
                  22665923.137    91265961.188          49.000  
  22799914.327                   119814830.868 0                        45.000  
                  22799911.182    91806172.322          50.000  
  24043677.074                   126351018.355 0                        42.000  
                  24043674.519    96814420.446          46.000  
 22  1 14  4  0  1.0000000  0 10G01G03G04G06G09G17G19G21G22G31
  21387640.850    21387638.474   112393123.872 0  87579126.567 0        47.000  
        47.000                                                  
  20297075.044    20297071.953   106661366.138 0  83112758.412 0        50.000  
        49.000                                                  
  20716964.223    20716959.684   108869123.110 0  84833085.760 0        48.000  
        49.000                                                  
  23840034.827    23840031.610   125279538.736 0  97621377.850 0        43.000  
        40.000                                                  
  23065758.483    23065755.909   121211494.456 0  94450515.613 0        45.000  
        45.000                                                  
  22855520.672    22855515.525   120106766.418 0  93589684.276 0        46.000  
        43.000                                                  
  22683256.321                   119201853.22710                        46.000  
                                                                
  23352015.585                   122715554.228 0                        43.000  
                                                                
  21236117.843                   111597143.930 0                        45.000  
                                                                
  22928792.529    22928786.793   120491348.341 0  93889365.677 0        43.000  
        40.000                                                  
 22  1 14  4  0  0.0000000  0  0
 22  1 14  4  0  1.0000000  0  5E04E09E11E12E19
  24087920.114                   126582409.737 0                        49.000  
                  24087918.148    96991720.082          53.000  
  26223926.725                   137807951.96710                        38.000  
                  26223926.010   105593106.486          41.000  
  22665749.396                   119108872.453 0                        46.000  
                  22665744.572    91265241.832          49.000  
  22800299.422                   119816855.227 0                        45.000  
                  22800296.563    91807723.452          50.000  
  24043980.026                   126352610.728 0                        42.000  
                  24043977.542    96815640.565          46.000  
 22  1 14  4  0  2.0000000  0 10G01G03G04G06G09G17G19G21G22G31
  21388172.025    21388169.612   112395914.656 0  87581301.213 0        47.000  
        47.000                                                  
  20297115.393    20297112.212   106661577.879 0  83112923.405 0        50.000  
        49.000                                                  
  20716677.354    20716672.886   108867615.810 0  84831911.245 0        48.000  
        49.000                                                  
  23839402.710    23839399.547   125276217.263 0  97618789.682 0        43.000  
        41.000                                                  
  23065160.156    23065157.583   121208350.048 0  94448065.434 0        45.000  
        45.000                                                  
  22855775.252    22855770.123   120108104.617 0  93590727.041 0        46.000  
        43.000                                                  
  22683292.578                   119202043.44410                        46.000  
                                                                
  23352587.554                   122718559.558 0                        43.000  
                                                                
  21236401.442                   111598634.055 0                        45.000  
                                                                
  22929095.623    22929089.816   120492940.528 0  93890606.332 0        43.000  
        40.000                                                  
 22  1 14  4  0  1.0000000  0  0
 22  1 14  4  0  2.0000000  0  5E04E09E11E12E19
  24087692.463                   126581212.309 0                        49.000  
                  24087690.283    96990802.570          53.000  
  26223426.356                   137805321.79710                        38.000  
                  26223425.659   105591091.150          41.000  
  22665570.956                   119107934.351 0                        46.000  
                  22665566.114    91264523.033          49.000  
  22800684.911                   119818880.246 0                        45.000  
                  22800681.766    91809275.090          50.000  
  24044283.138                   126354203.591 0                        42.000  
                  24044280.636    96816861.072          46.000  
 22  1 14  4  0  3.0000000  0 10G01G03G04G06G09G17G19G21G22G31
  21388703.253    21388700.733   112398705.833 0  87583476.147 0        47.000  
        47.000                                                  
  20297155.794    20297152.614   106661789.943 0  83113088.649 0        50.000  
        49.000                                                  
  20716390.556    20716386.196   108866108.956 0  84830737.073 0        48.000  
        49.000                                                  
  23838770.701    23838767.431   125272895.952 0  97616201.645 0        43.000  
        41.000                                                  
  23064561.812    23064559.149   121205205.860 0  94445615.411 0        45.000  
        45.000                                                  
  22856029.974    22856024.864   120109443.313 0  93591770.175 0        46.000  
        43.000                                                  
  22683328.869                   119202234.35910                        46.000  
                                                                
  23353159.434                   122721565.073 0                        43.000  
                                                                
  21236685.131                   111600124.452 0                        45.000  
                                                                
  22929398.682    22929392.856   120494533.300 0  93891847.464 0        43.000  
        40.000                                                  
 22  1 14  4  0  2.0000000  0  0
 22  1 14  4  0  3.0000000  0  5E04E09E11E12E19
  24087464.650                   126580015.125 0                        49.000  
                  24087462.488    96989885.254          53.000  
  26222925.934                   137802691.71010                        39.000  
                  26222925.166   105589075.889          41.000  
  22665392.516                   119106996.636 0                        46.000  
                  22665387.548    91263804.524          49.000  
  22801070.346                   119820905.587 0                        45.000  
                  22801067.201    91810826.975          50.000  
  24044586.304                   126355796.621 0                        42.000  
                  24044583.820    96818081.701          46.000  
 22  1 14  4  0  4.0000000  0 10G01G03G04G06G09G17G19G21G22G31
  21389234.392    21389231.747   112401497.233 0  87585651.257 0        47.000  
        47.000                                                  
  20297196.143    20297192.998   106662002.154 0  83113254.011 0        50.000  
        49.000                                                  
  20716103.919    20716099.487   108864602.390 0  84829563.130 0        48.000  
        49.000                                                  
  23838138.691    23838135.475   125269574.623 0  97613613.610 0        43.000  
        41.000                                                  
  23063963.521    23063960.823   121202061.718 0  94443165.426 0        45.000  
        45.000                                                  
  22856284.805    22856279.640   120110782.316 0  93592813.550 0        46.000  
        43.000                                                  
  22683365.269                   119202425.74710                        46.000  
                                                                
  23353731.350                   122724570.603 0                        43.000  
                                                                
  21236968.659                   111601614.920 0                        45.000  
                                                                
  22929701.865    22929695.987   120496126.497 0  93893088.921 0        43.000  
        40.000                                                  
 22  1 14  4  0  3.0000000  0  0
 22  1 14  4  0  4.0000000  0  5E04E09E11E12E19
  24087236.928                   126578818.014 0                        49.000  
                  24087234.640    96988967.980          53.000  
  26222425.637                   137800061.48410                        38.000  
                  26222424.672   105587060.526          41.000  
  22665214.130                   119106059.136 0                        46.000  
                  22665209.216    91263086.173          49.000  
  22801455.673                   119822931.064 0                        45.000  
                  22801452.600    91812378.963          50.000  
  24044889.541                   126357389.639 0                        42.000  
                  24044887.093    96819302.318          46.000  
 22  1 14  4  0  5.0000000  0 10G01G03G04G06G09G17G19G21G22G31
  21389765.691    21389762.993   112404288.897 0  87587826.589 0        47.000  
        47.000                                                  
  20297236.544    20297233.400   106662214.581 0  83113419.539 0        50.000  
        49.000                                                  
  20715817.264    20715812.797   108863096.164 0  84828389.445 0        48.000  
        49.000                                                  
  23837506.592    23837503.608   125266253.350 0  97611025.598 0        43.000  
        40.000                                                  
  23063365.177    23063362.550   121198917.659 0  94440715.510 0        45.000  
        45.000                                                  
  22856539.670    22856534.471   120112121.672 0  93593857.206 0        46.000  
        43.000                                                  
  22683401.829                   119202617.68910                        46.000  
                                                                
  23354303.320                   122727576.179 0                        43.000  
                                                                
  21237252.347                   111603105.529 0                        45.000  
                                                                
  22930005.192    22929999.242   120497720.170 0  93894330.732 0        43.000  
        40.000                                                  
 22  1 14  4  0  4.0000000  0  0
 22  1 14  4  0  5.0000000  0  5E04E09E11E12E19
  24087009.169                   126577621.026 0                        49.000  
                  24087006.757    96988050.812          53.000  
  26221925.144                   137797431.23610                        39.000  
                  26221924.125   105585045.133          41.000  
  22665035.725                   119105121.905 0                        46.000  
                  22665030.936    91262368.035          49.000  
  22801841.233                   119824956.761 0                        45.000  
                  22801838.106    91813931.123          50.000  
  24045192.492                   126358982.695 0                        42.000  
                  24045190.098    96820522.979          46.000  
 22  1 14  4  0  6.0000000  0 10G01G03G04G06G09G17G19G21G22G31
  21390297.205    21390294.489   112407081.247 0  87590002.451 0        47.000  
        47.000                                                  
  20297277.107    20297273.926   106662427.637 0  83113585.561 0        50.000  
        49.000                                                  
  20715530.841    20715526.481   108861590.680 0  84827216.343 0        48.000  
        49.000                                                  
  23836874.583    23836871.599   125262932.522 0  97608437.934 0        43.000  
        41.000                                                  
  23062767.029    23062764.438   121195774.129 0  94438266.010 0        45.000  
        45.000                                                  
  22856794.661    22856789.497   120113461.817 0  93594901.470 0        46.000  
        43.000                                                  
  22683438.603                   119202810.58210                        46.000  
                                                                
  23354875.307                   122730582.243 0                        43.000  
                                                                
  21237536.161                   111604596.722 0                        45.000  
                                                                
  22930308.715    22930302.783   120499314.734 0  93895573.227 0        43.000  
        40.000                                                  
 22  1 14  4  0  5.0000000  0  0
 22  1 14  4  0  6.0000000  0  5E04E09E11E12E19
  24086781.643                   126576424.584 0                        49.000  
                  24086779.177    96987134.057          53.000  
  26221424.579                   137794801.31810                        38.000  
                  26221423.721   105583030.009          42.000  
  22664857.446                   119104185.344 0                        46.000  
                  22664852.568    91261650.415          49.000  
  22802226.829                   119826983.076 0                        45.000  
                  22802223.863    91815483.748          50.000  
  24045495.783                   126360576.212 0                        42.000  
                  24045493.407    96821743.983          46.000  
 22  1 14  4  0  7.0000000  0 10G01G03G04G06G09G17G19G21G22G31
  21390828.684    21390826.003   112409873.935 0  87592178.560 0        47.000  
        47.000                                                  
  20297317.759    20297314.453   106662640.933 0  83113751.763 0        50.000  
        49.000                                                  
  20715244.365    20715240.112   108860085.590 0  84826043.543 0        48.000  
        49.000                                                  
  23836242.591    23836239.750   125259611.792 0  97605850.359 0        43.000  
        41.000                                                  
  23062168.864    23062166.219   121192630.727 0  94435816.610 0        45.000  
        45.000                                                  
  22857049.742    22857044.560   120114802.352 0  93595946.055 0        46.000  
        43.000                                                  
  22683475.538                   119203004.07110                        46.000  
                                                                
  23355447.366                   122733588.430 0                        43.000  
                                                                
  21237820.046                   111606088.082 0                        45.000  
                                                                
  22930612.203    22930606.413   120500909.812 0  93896816.166 0        43.000  
        40.000                                                  
 22  1 14  4  0  6.0000000  0  0
 22  1 14  4  0  7.0000000  0  5E04E09E11E12E19
  24086553.848                   126575228.317 0                        49.000  
                  24086551.490    96986217.440          53.000  
  26220924.121                   137792171.40410                        38.000  
                  26220923.210   105581014.868          41.000  
  22664679.256                   119103249.099 0                        46.000  
                  22664674.485    91260933.030          49.000  
  22802612.460                   119829009.639 0                        45.000  
                  22802609.369    91817036.570          50.000  
  24045798.985                   126362169.823 0                        42.000  
                  24045796.591    96822965.057          46.000  
 22  1 14  4  0  8.0000000  0 10G01G03G04G06G09G17G19G21G22G31
  21391360.180    21391357.535   112412667.031 0  87594355.005 0        47.000  
        47.000                                                  
  20297358.447    20297355.123   106662854.611 0  83113918.268 0        50.000  
        48.000                                                  
  20714958.050    20714953.725   108858580.990 0  84824871.130 0        48.000  
        49.000                                                  
  23835610.689    23835607.776   125256291.267 0  97603262.930 0        43.000  
        41.000                                                  
  23061570.806    23061568.125   121189487.598 0  94433367.424 0        45.000  
        45.000                                                  
  22857304.965    22857299.819   120116143.421 0  93596991.035 0        46.000  
        43.000                                                  
  22683512.599                   119203198.27310                        46.000  
                                                                
  23356019.479                   122736594.828 0                        43.000  
                                                                
  21238103.949                   111607579.733 0                        45.000  
                                                                
  22930915.905    22930910.044   120502505.536 0  93898059.575 0        43.000  
        40.000                                                  
 22  1 14  4  0  7.0000000  0  0
 22  1 14  4  0  8.0000000  0  5E04E09E11E12E19
  24086326.286                   126574032.345 0                        49.000  
                  24086323.874    96985301.046          53.000  
  26220423.735                   137789541.57210                        38.000  
                  26220422.913   105578999.816          42.000  
  22664501.263                   119102313.280 0                        46.000  
                  22664496.402    91260215.967          49.000  
  22802998.342                   119831036.565 0                        45.000  
                  22802995.054    91818589.670          50.000  
  24046102.097                   126363763.630 0                        42.000  
                  24046099.935    96824186.290          46.000  
 22  1 14  4  0  9.0000000  0 10G01G03G04G06G09G17G19G21G22G31
  21391891.819    21391889.014   112415460.676 0  87596531.869 0        47.000  
        47.000                                                  
  20297399.117    20297395.847   106663068.770 0  83114085.136 0        50.000  
        48.000                                                  
  20714671.824    20714667.410   108857076.997 0  84823699.185 0        48.000  
        49.000                                                  
  23834978.858    23834976.017   125252971.047 0  97600675.754 0        43.000  
        40.000                                                  
  23060972.640    23060970.103   121186344.839 0  94430918.518 0        45.000  
        45.000                                                  
  22857560.278    22857555.096   120117485.130 0  93598036.520 0        46.000  
        43.000                                                  
  22683549.731                   119203393.28810                        46.000  
                                                                
  23356591.680                   122739601.584 0                        43.000  
                                                                
  21238387.834                   111609071.806 0                        45.000  
                                                                
  22931219.607    22931213.835   120504101.999 0  93899303.577 0        43.000  
        40.000                                                  
 22  1 14  4  0  8.0000000  0  0
 22  1 14  4  0  9.0000000  0  5E04E09E11E12E19
  24086098.778                   126572836.777 0                        49.000  
                  24086096.437    96984384.957          53.000  
  26219923.492                   137786911.98010                        38.000  
                  26219922.598   105576984.938          42.000  
  22664323.180                   119101378.001 0                        46.000  
                  22664318.391    91259499.325          49.000  
  22803383.991                   119833063.958 0                        45.000  
                  22803380.953    91820143.133          50.000  
  24046405.424                   126365357.761 0                        42.000  
                  24046403.351    96825407.771          46.000  
 22  1 14  4  0 10.0000000  0 10G01G03G04G06G09G17G19G21G22G31
  21392423.512    21392420.653   112418254.884 0  87598709.167 0        47.000  
        47.000                                                  
  20297440.019    20297436.678   106663283.413 0  83114252.390 0        50.000  
        49.000                                                  
  20714385.741    20714381.291   108855573.626 0  84822527.730 0        48.000  
        49.000                                                  
  23834347.081    23834344.168   125249651.150 0  97598088.824 0        43.000  
        41.000                                                  
  23060374.671    23060372.152   121183202.461 0  94428469.917 0        45.000  
        45.000                                                  
  22857815.733    22857810.658   120118827.476 0  93599082.511 0        46.000  
        43.000                                                  
  22683586.988                   119203589.13810                        46.000  
                                                                
  23357163.900                   122742608.660 0                        43.000  
                                                                
  21238671.898                   111610564.313 0                        45.000  
                                                                
  22931523.523    22931517.769   120505699.223 0  93900548.176 0        43.000  
        40.000                                                  
 22  1 14  4  0  9.0000000  0  0
 22  1 14  4  0 10.0000000  0  5E04E09E11E12E19
  24085871.502                   126571641.617 0                        49.000  
                  24085868.965    96983469.187          53.000  
  26219423.284                   137784282.60610                        38.000  
                  26219422.248   105574970.216          42.000  
  22664145.419                   119100443.274 0                        46.000  
                  22664140.523    91258783.105          49.000  
  22803769.962                   119835091.849 0                        45.000  
                  22803766.817    91821696.968          50.000  
  24046708.965                   126366952.205 0                        42.000  
                  24046706.696    96826629.495          46.000  
 22  1 14  4  0 11.0000000  0 10G01G03G04G06G09G17G19G21G22G31
  21392955.258    21392952.489   112421049.413 0  87600886.729 0        47.000  
        47.000                                                  
  20297480.921    20297477.544   106663498.314 0  83114419.850 0        50.000  
        48.000                                                  
  20714099.747    20714095.298   108854070.634 0  84821356.574 0        48.000  
        49.000                                                  
  23833715.357    23833712.391   125246331.350 0  97595501.976 0        43.000  
        40.000                                                  
  23059776.666    23059774.129   121180060.231 0  94426021.432 0        45.000  
        45.000                                                  
  22858071.135    22858066.257   120120170.236 0  93600128.814 0        46.000  
        43.000                                                  
  22683624.298                   119203785.58510                        46.000  
                                                                
  23357736.102                   122745615.850 0                        43.000  
                                                                
  21238955.944                   111612057.003 0                        45.000  
                                                                
  22931827.529    22931821.846   120507296.956 0  93901793.161 0        43.000  
        40.000                                                  
 22  1 14  4  0 10.0000000  0  0
 22  1 14  4  0 11.0000000  0  5E04E09E11E12E19
  24085644.047                   126570446.634 0                        49.000  
                  24085641.510    96982553.555          53.000  
  26218922.880                   137781653.23210                        38.000  
                  26218922.076   105572955.505          42.000  
  22663967.569                   119099508.860 0                        46.000  
                  22663962.744    91258067.135          49.000  
  22804155.808                   119837119.996 0                        45.000  
                  22804152.734    91823251.003          50.000  
  24047012.345                   126368546.773 0                        42.000  
                  24047010.129    96827851.295          46.000  
 22  1 14  4  0 12.0000000  0 10G01G03G04G06G09G17G19G21G22G31
  21393487.023    21393484.360   112423844.043 0  87603064.363 0        47.000  
        47.000                                                  
  20297521.841    20297518.428   106663713.274 0  83114587.354 0        50.000  
        48.000                                                  
  20713813.789    20713809.393   108852567.826 0  84820185.550 0        48.000  
        49.000                                                  
  23833083.580    23833080.686   125243011.429 0  97592915.018 0        43.000  
        40.000                                                  
  23059178.751    23059176.214   121176917.959 0  94423572.893 0        45.000  
        45.000                                                  
  22858326.698    22858321.837   120121513.195 0  93601175.271 0        46.000  
        43.000                                                  
  22683661.787                   119203982.41910                        46.000  
                                                                
  23358308.286                   122748622.965 0                        43.000  
                                                                
  21239239.937                   111613549.654 0                        45.000  
                                                                
  22932131.642    22932125.924   120508895.034 0  93903038.420 0        43.000  
        40.000                                                  
 22  1 14  4  0 11.0000000  0  0
 22  1 14  4  0 12.0000000  0  5E04E09E11E12E19
  24085416.485                   126569251.621 0                        49.000  
                  24085414.251    96981637.893          53.000  
  26218422.386                   137779023.64010                        38.000  
                  26218421.565   105570940.619          42.000  
  22663789.915                   119098574.558 0                        46.000  
                  22663784.929    91257351.232          49.000  
  22804541.904                   119839148.184 0                        45.000  
                  22804538.723    91824805.069          50.000  
  24047315.886                   126370141.196 0                        42.000  
                  24047313.599    96829072.997          46.000  
 22  1 14  4  0 13.0000000  0 10G01G03G04G06G09G17G19G21G22G31
  21394018.966    21394016.214   112426638.962 0  87605242.224 0        47.000  
        47.000                                                  
  20297562.744    20297559.438   106663928.449 0  83114755.022 0        50.000  
        48.000                                                  
  20713527.885    20713523.507   108851065.362 0  84819014.811 0        48.000  
        49.000                                                  
  23832451.821    23832448.980   125239691.582 0  97590328.115 0        43.000  
        41.000                                                  
  23058580.800    23058578.227   121173775.781 0  94421124.447 0        45.000  
        45.000                                                  
  22858582.332    22858577.400   120122856.527 0  93602222.028 0        45.000  
        43.000                                                  
  22683699.366                   119204179.80810                        46.000  
                                                                
  23358880.595                   122751630.146 0                        43.000  
                                                                
  21239524.072                   111615042.481 0                        45.000  
                                                                
  22932435.844    22932430.090   120510493.586 0  93904284.037 0        43.000  
        40.000                                                  
 22  1 14  4  0 12.0000000  0  0
 22  1 14  4  0 13.0000000  0  5E04E09E11E12E19
  24085189.263                   126568056.754 0                        49.000  
                  24085186.761    96980722.351          53.000  
  26217921.839                   137776394.00210                        38.000  
                  26217921.125   105568925.688          42.000  
  22663612.315                   119097640.532 0                        46.000  
                  22663607.258    91256635.552          49.000  
  22804927.642                   119841176.587 0                        45.000  
                  22804924.694    91826359.299          50.000  
  24047619.159                   126371735.690 0                        42.000  
                  24047617.033    96830294.750          46.000  
 22  1 14  4  0 14.0000000  0 10G01G03G04G06G09G17G19G21G22G31
  21394551.087    21394548.228   112429435.004 0  87607420.956 0        47.000  
        47.000                                                  
  20297603.914    20297600.536   106664144.674 0  83114923.518 0        50.000  
        48.000                                                  
  20713242.123    20713237.853   108849564.075 0  84817844.981 0        48.000  
        49.000                                                  
  23831820.151    23831817.453   125236372.607 0  97587741.909 0        43.000  
        41.000                                                  
  23057983.081    23057980.454   121170634.553 0  94418676.735 0        44.000  
        45.000                                                  
  22858838.234    22858833.231   120124201.070 0  93603269.711 0        46.000  
        43.000                                                  
  22683737.141                   119204378.59610                        46.000  
                                                                
  23359453.029                   122754638.235 0                        43.000  
                                                                
  21239808.315                   111616536.297 0                        45.000  
                                                                
  22932740.403    22932734.525   120512093.462 0  93905530.700 0        43.000  
        40.000                                                  
 22  1 14  4  0 13.0000000  0  0
 22  1 14  4  0 14.0000000  0  5E04E09E11E12E19
  24084962.004                   126566862.865 0                        49.000  
                  24084959.485    96979807.550          53.000  
  26217421.489                   137773765.15810                        38.000  
                  26217420.917   105566911.384          42.000  
  22663434.554                   119096707.612 0                        46.000  
                  22663429.729    91255920.713          49.000  
  22805313.917                   119843206.048 0                        45.000  
                  22805310.897    91827914.339          50.000  
  24047922.808                   126373331.071 0                        42.000  
                  24047920.574    96831517.186          46.000  
 22  1 14  4  0 15.0000000  0 10G01G03G04G06G09G17G19G21G22G31
  21395083.245    21395080.403   112432231.583 0  87609600.104 0        47.000  
        47.000                                                  
  20297645.191    20297641.832   106664361.400 0  83115092.382 0        50.000  
        48.000                                                  
  20712956.558    20712952.288   108848063.419 0  84816675.625 0        48.000  
        49.000                                                  
  23831188.588    23831185.908   125233053.957 0  97585155.942 0        43.000  
        41.000                                                  
  23057385.434    23057382.771   121167493.690 0  94416229.309 0        45.000  
        45.000                                                  
  22859094.244    22859089.276   120125546.257 0  93604317.917 0        46.000  
        43.000                                                  
  22683775.130                   119204578.21210                        46.000  
                                                                
  23360025.517                   122757646.675 0                        43.000  
                                                                
  21240092.736                   111618030.504 0                        45.000  
                                                                
  22933044.963    22933039.156   120513694.086 0  93906777.933 0        43.000  
        40.000                                                  
 22  1 14  4  0 14.0000000  0  0
 22  1 14  4  0 15.0000000  0  5E04E09E11E12E19
  24084735.068                   126565669.375 0                        49.000  
                  24084732.423    96978893.056          53.000  
  26216921.103                   137771136.50310                        38.000  
                  26216920.584   105564897.233          42.000  
  22663257.168                   119095775.232 0                        46.000  
                  22663252.254    91255206.296          49.000  
  22805700.209                   119845235.976 0                        45.000  
                  22805697.100    91829469.741          50.000  
  24048226.402                   126374926.759 0                        42.000  
                  24048224.204    96832739.863          46.000  
 22  1 14  4  0 16.0000000  0 10G01G03G04G06G09G17G19G21G22G31
  21395615.491    21395612.525   112435028.162 0  87611779.256 0        47.000  
        47.000                                                  
  20297686.451    20297683.109   106664578.045 0  83115261.198 0        50.000  
        48.000                                                  
  20712671.029    20712666.830   108846562.803 0  84815506.321 0        48.000  
        49.000                                                  
  23830557.026    23830554.381   125229735.066 0  97582569.793 0        43.000  
        41.000                                                  
  23056787.715    23056785.177   121164352.651 0  94413781.748 0        44.000  
        45.000                                                  
  22859350.307    22859345.214   120126891.511 0  93605366.162 0        45.000  
        43.000                                                  
  22683813.120                   119204778.08010                        46.000  
                                                                
  23360597.987                   122760654.896 0                        43.000  
                                                                
  21240377.068                   111619524.587 0                        45.000  
                                                                
  22933349.576    22933343.823   120515294.904 0  93908025.314 0        43.000  
        40.000                                                  
 22  1 14  4  0 15.0000000  0  0
 22  1 14  4  0 16.0000000  0  5E04E09E11E12E19
  24084507.810                   126564475.724 0                        49.000  
                  24084505.415    96977978.442          53.000  
  26216420.734                   137768507.51910                        38.000  
                  26216420.288   105562882.825          42.000  
  22663079.693                   119094842.846 0                        46.000  
                  22663074.868    91254491.869          49.000  
  22806086.395                   119847265.843 0                        45.000  
                  22806083.429    91831025.084          50.000  
  24048529.997                   126376522.225 0                        42.000  
                  24048527.853    96833962.356          46.000  
 22  1 14  4  0 17.0000000  0 10G01G03G04G06G09G17G19G21G22G31
  21396147.720    21396144.682   112437824.985 0  87613958.594 0        47.000  
        47.000                                                  
  20297727.603    20297724.297   106664794.871 0  83115430.154 0        50.000  
        48.000                                                  
  20712385.500    20712381.390   108845062.499 0  84814337.253 0        48.000  
        49.000                                                  
  23829925.606    23829922.854   125226416.196 0  97579983.670 0        43.000  
        41.000                                                  
  23056189.942    23056187.334   121161211.676 0  94411334.233 0        44.000  
        45.000                                                  
  22859606.316    22859601.277   120128237.102 0  93606414.666 0        45.000  
        43.000                                                  
  22683851.270                   119204978.48510                        46.000  
                                                                
  23361170.510                   122763663.154 0                        43.000  
                                                                
  21240661.328                   111621018.782 0                        45.000  
                                                                
  22933654.279    22933648.543   120516896.174 0  93909273.059 0        43.000  
        40.000                                                  
 22  1 14  4  0 16.0000000  0  0
 22  1 14  4  0 17.0000000  0  5E04E09E11E12E19
  24084280.730                   126563282.190 0                        49.000  
                  24084278.175    96977063.911          53.000  
  26215920.241                   137765878.48510                        38.000  
                  26215919.866   105560868.371          42.000  
  22662902.432                   119093910.698 0                        46.000  
                  22662897.482    91253777.632          49.000  
  22806472.777                   119849295.880 0                        45.000  
                  22806469.757    91832580.569          50.000  
  24048833.681                   126378117.702 0                        42.000  
                  24048831.465    96835184.865          46.000  
 22  1 14  4  0 18.0000000  0 10G01G03G04G06G09G17G19G21G22G31
  21396680.146    21396676.983   112440622.644 0  87616138.593 0        47.000  
        47.000                                                  
  20297769.006    20297765.771   106665012.478 0  83115599.723 0        50.000  
        48.000                                                  
  20712100.168    20712096.058   108843563.102 0  84813168.896 0        48.000  
        49.000                                                  
  23829294.293    23829291.398   125223097.931 0  97577398.008 0        43.000  
        41.000                                                  
  23055592.349    23055589.811   121158071.393 0  94408887.266 0        44.000  
        45.000                                                  
  22859862.576    22859857.412   120129583.635 0  93607463.915 0        46.000  
        43.000                                                  
  22683889.689                   119205180.00010                        46.000  
                                                                
  23361743.034                   122766672.029 0                        43.000  
                                                                
  21240945.821                   111622513.695 0                        45.000  
                                                                
  22933959.303    22933953.496   120518498.474 0  93910521.616 0        43.000  
        40.000                                                  
 22  1 14  4  0 17.0000000  0  0
 22  1 14  4  0 18.0000000  0  5E04E09E11E12E19
  24084053.758                   126562089.339 0                        49.000  
                  24084051.149    96976149.916          53.000  
  26215420.105                   137763249.94410                        38.000  
                  26215419.837   105558854.289          41.000  
  22662725.296                   119092979.401 0                        46.000  
                  22662720.311    91253064.034          49.000  
  22806859.141                   119851326.671 0                        45.000  
                  22806856.228    91834136.641          50.000  
  24049137.365                   126379713.790 0                        42.000  
                  24049135.114    96836407.850          46.000  
 22  1 14  4  0 19.0000000  0 10G01G03G04G06G09G17G19G21G22G31
  21397212.517    21397209.337   112443420.429 0  87618318.685 0        47.000  
        47.000                                                  
  20297810.408    20297807.120   106665230.152 0  83115769.334 0        50.000  
        48.000                                                  
  20711814.906    20711810.654   108842063.901 0  84812000.682 0        48.000  
        49.000                                                  
  23828662.748    23828659.871   125219779.574 0  97574812.267 0        43.000  
        41.000                                                  
  23054994.701    23054992.235   121154931.029 0  94406440.241 0        44.000  
        45.000                                                  
  22860118.872    22860113.636   120130930.371 0  93608513.322 0        45.000  
        43.000                                                  
  22683927.982                   119205381.90710                        46.000  
                                                                
  23362315.665                   122769680.836 0                        43.000  
                                                                
  21241230.421                   111624008.588 0                        45.000  
                                                                
  22934264.309    22934258.520   120520101.126 0  93911770.420 0        43.000  
        40.000                                                  
 22  1 14  4  0 18.0000000  0  0
 22  1 14  4  0 19.0000000  0  5E04E09E11E12E19
  24083826.732                   126560896.483 0                        49.000  
                  24083824.176    96975235.909          53.000  
  26214919.861                   137760621.22110                        38.000  
                  26214919.665   105556840.060          42.000  
  22662548.161                   119092048.216 0                        46.000  
                  22662543.032    91252350.526          49.000  
  22807245.630                   119853357.550 0                        45.000  
                  22807242.646    91835692.760          50.000  
  24049441.264                   126381309.789 0                        42.000  
                  24049438.869    96837630.747          46.000  
 22  1 14  4  0 20.0000000  0 10G01G03G04G06G09G17G19G21G22G31
  21397745.068    21397741.923   112446218.978 0  87620499.368 0        48.000  
        47.000                                                  
  20297851.936    20297848.684   106665448.519 0  83115939.495 0        50.000  
        48.000                                                  
  20711529.735    20711525.482   108840565.513 0  84810833.110 0        48.000  
        50.000                                                  
  23828031.328    23828028.595   125216461.731 0  97572226.949 0        43.000  
        41.000                                                  
  23054397.143    23054394.820   121151791.277 0  94403993.663 0        44.000  
        45.000                                                  
  22860375.274    22860369.967   120132277.958 0  93609563.385 0        45.000  
        43.000                                                  
  22683966.597                   119205584.86010                        46.000  
                                                                
  23362888.313                   122772690.204 0                        43.000  
                                                                
  21241515.056                   111625504.124 0                        45.000  
                                                                
  22934569.405    22934563.669   120521704.720 0  93913019.976 0        43.000  
        40.000                                                  
 22  1 14  4  0 19.0000000  0  0
 22  1 14  4  0 20.0000000  0  5E04E09E11E12E19
  24083599.920                   126559704.240 0                        49.000  
                  24083597.258    96974322.375          53.000  
  26214419.672                   137757992.90610                        38.000  
                  26214419.493   105554826.163          42.000  
  22662371.043                   119091117.773 0                        46.000  
                  22662365.968    91251637.591          49.000  
  22807632.333                   119855389.106 0                        45.000  
                  22807629.260    91837249.407          50.000  
  24049745.001                   126382906.302 0                        42.000  
                  24049742.696    96838854.056          46.000  
 22  1 14  4  0 21.0000000  0 10G01G03G04G06G09G17G19G21G22G31
  21398277.672    21398274.545   112449018.022 0  87622680.443 0        48.000  
        47.000                                                  
  20297893.588    20297890.372   106665667.321 0  83116109.985 0        50.000  
        48.000                                                  
  20711244.777    20711240.453   108839067.688 0  84809665.976 0        48.000  
        49.000                                                  
  23827400.034    23827397.264   125213144.176 0  97569641.827 0        44.000  
        41.000                                                  
  23053799.800    23053797.423   121148651.834 0  94401547.355 0        45.000  
        45.000                                                  
  22860631.748    22860626.548   120133626.126 0  93610613.905 0        45.000  
        43.000                                                  
  22684005.337                   119205788.57510                        46.000  
                                                                
  23363461.051                   122775699.851 0                        43.000  
                                                                
  21241799.639                   111627000.003 0                        45.000  
                                                                
  22934874.715    22934868.979   120523309.012 0  93914270.089 0        43.000  
        40.000                                                  
 22  1 14  4  0 20.0000000  0  0
 22  1 14  4  0 21.0000000  0  5E04E09E11E12E19
  24083373.002                   126558512.341 0                        49.000  
                  24083370.553    96973409.103          53.000  
  26213919.661                   137755364.77310                        38.000  
                  26213919.321   105552812.385          42.000  
  22662194.086                   119090187.825 0                        46.000  
                  22662189.029    91250925.030          49.000  
  22808018.894                   119857421.086 0                        45.000  
                  22808015.856    91838806.380          50.000  
  24050048.864                   126384503.091 0                        42.000  
                  24050046.577    96840077.570          46.000  
 22  1 14  4  0 22.0000000  0 10G01G03G04G06G09G17G19G21G22G31
  21398810.401    21398807.274   112451817.219 0  87624861.633 0        48.000  
        47.000                                                  
  20297935.277    20297931.989   106665886.233 0  83116280.562 0        50.000  
        48.000                                                  
  20710959.767    20710955.496   108837570.101 0  84808499.020 0        48.000  
        50.000                                                  
  23826768.739    23826766.023   125209826.550 0  97567056.659 0        44.000  
        41.000                                                  
  23053202.385    23053199.776   121145512.397 0  94399101.038 0        44.000  
        45.000                                                  
  22860888.294    22860883.219   120134974.543 0  93611664.620 0        45.000  
        43.000                                                  
  22684044.095                   119205992.74210                        46.000  
                                                                
  23364033.789                   122778709.453 0                        43.000  
                                                                
  21242084.292                   111628495.938 0                        45.000  
                                                                
  22935180.133    22935174.361   120524913.671 0  93915520.473 0        43.000  
        40.000                                                  
 22  1 14  4  0 21.0000000  0  0
 22  1 14  4  0 22.0000000  0  5E04E09E11E12E19
  24083146.172                   126557320.467 0                        49.000  
                  24083143.635    96972495.854          53.000  
  26213419.739                   137752736.46410                        38.000  
                  26213419.078   105550798.497          42.000  
  22662017.165                   119089258.028 0                        46.000  
                  22662012.036    91250212.588          49.000  
  22808405.544                   119859453.171 0                        45.000  
                  22808402.560    91840363.428          50.000  
  24050352.655                   126386099.807 0                        42.000  
                  24050350.440    96841301.027          46.000  
 22  1 14  4  0 23.0000000  0 10G01G03G04G06G09G17G19G21G22G31
  21399343.148    21399339.950   112454616.591 0  87627042.958 0        48.000  
        47.000                                                  
  20297976.947    20297973.570   106666105.234 0  83116451.214 0        50.000  
        49.000                                                  
  20710674.988    20710670.431   108836072.731 0  84807332.243 0        48.000  
        50.000                                                  
  23826137.409    23826134.728   125206508.863 0  97564471.460 0        44.000  
        41.000                                                  
  23052604.898    23052602.379   121142372.945 0  94396654.714 0        44.000  
        45.000                                                  
  22861144.964    22861139.890   120136323.215 0  93612715.524 0        45.000  
        43.000                                                  
  22684083.049                   119206197.33210                        46.000  
                                                                
  23364606.545                   122781719.003 0                        43.000  
                                                                
  21242368.910                   111629991.894 0                        45.000  
                                                                
  22935485.729    22935479.868   120526518.712 0  93916771.127 0        43.000  
        40.000                                                  
 22  1 14  4  0 22.0000000  0  0
 22  1 14  4  0 23.0000000  0  5E04E09E11E12E19
  24082919.432                   126556128.638 0                        49.000  
                  24082916.895    96971582.623          53.000  
  26212919.639                   137750107.99610                        38.000  
                  26212918.942   105548784.474          42.000  
  22661840.226                   119088328.386 0                        46.000  
                  22661835.240    91249500.267          49.000  
  22808792.122                   119861485.347 0                        45.000  
                  22808789.245    91841920.550          50.000  
  24050656.464                   126387696.469 0                        42.000  
                  24050654.267    96842524.438          46.000  
 22  1 14  4  0 24.0000000  0 10G01G03G04G06G09G17G19G21G22G31
  21399875.806    21399872.786   112457416.396 0  87629224.624 0        48.000  
        47.000                                                  
  20298018.618    20298015.277   106666324.617 0  83116622.164 0        50.000  
        48.000                                                  
  20710390.102    20710385.563   108834575.872 0  84806165.860 0        48.000  
        49.000                                                  
  23825506.078    23825503.434   125203191.381 0  97561886.413 0        44.000  
        41.000                                                  
  23052007.608    23052005.017   121139233.760 0  94394208.596 0        44.000  
        45.000                                                  
  22861401.796    22861396.650   120137672.413 0  93613766.854 0        45.000  
        43.000                                                  
  22684122.111                   119206402.64910                        46.000  
                                                                
  23365179.247                   122784728.814 0                        43.000  
                                                                
  21242653.599                   111631488.166 0                        45.000  
                                                                
  22935791.200    22935785.410   120528124.383 0  93918022.327 0        43.000  
        40.000                                                  
 22  1 14  4  0 23.0000000  0  0
 22  1 14  4  0 24.0000000  0  5E04E09E11E12E19
  24082692.692                   126554937.079 0                        49.000  
                  24082690.119    96970669.622          53.000  
  26212419.521                   137747479.64910                        38.000  
                  26212418.788   105546770.559          42.000  
  22661663.340                   119087399.201 0                        46.000  
                  22661658.462    91248788.297          49.000  
  22809178.969                   119863517.901 0                        45.000  
                  22809176.074    91843477.969          50.000  
  24050960.309                   126389293.338 0                        42.000  
                  24050958.022    96843748.012          46.000  
 22  1 14  4  0 25.0000000  0 10G01G03G04G06G09G17G19G21G22G31
  21400408.767    21400405.658   112460216.719 0  87631406.699 0        48.000  
        47.000                                                  
  20298060.449    20298057.072   106666544.457 0  83116793.468 0        50.000  
        49.000                                                  
  20710105.359    20710100.838   108833079.597 0  84804999.933 0        48.000  
        49.000                                                  
  23824874.766    23824872.228   125199874.198 0  97559301.605 0        44.000  
        41.000                                                  
  23051410.247    23051407.674   121136094.930 0  94391762.759 0        44.000  
        45.000                                                  
  22861658.609    22861653.463   120139022.224 0  93614818.662 0        45.000  
        43.000                                                  
  22684161.352                   119206608.75010                        46.000  
                                                                
  23365752.074                   122787738.921 0                        43.000  
                                                                
  21242938.360                   111632984.805 0                        45.000  
                                                                
  22936096.849    22936091.042   120529730.773 0  93919274.053 0        43.000  
        40.000                                                  
 22  1 14  4  0 24.0000000  0  0
 22  1 14  4  0 25.0000000  0  5E04E09E11E12E19
  24082465.970                   126553745.910 0                        49.000  
                  24082463.450    96969756.906          53.000  
  26211919.188                   137744851.49210                        38.000  
                  26211918.670   105544756.759          41.000  
  22661486.634                   119086470.531 0                        46.000  
                  22661481.577    91248076.720          49.000  
  22809565.726                   119865550.913 0                        45.000  
                  22809562.956    91845035.727          50.000  
  24051264.154                   126390890.505 0                        42.000  
                  24051262.135    96844971.827          46.000  
 22  1 14  4  0 26.0000000  0 10G01G03G04G06G09G17G19G21G22G31
  21400941.836    21400938.655   112463017.870 0  87633589.414 0        48.000  
        47.000                                                  
  20298102.370    20298099.011   106666765.051 0  83116965.364 0        50.000  
        49.000                                                  
  20709820.634    20709816.310   108831584.211 0  84803834.695 0        48.000  
        49.000                                                  
  23824243.667    23824241.166   125196557.611 0  97556717.247 0        44.000  
        41.000                                                  
  23050813.064    23050810.419   121132956.764 0  94389317.439 0        44.000  
        45.000                                                  
  22861915.638    22861910.455   120140372.942 0  93615871.176 0        45.000  
        43.000                                                  
  22684200.824                   119206815.95810                        46.000  
                                                                
  23366325.062                   122790749.639 0                        43.000  
                                                                
  21243223.353                   111634482.145 0                        45.000  
                                                                
  22936402.803    22936396.960   120531338.203 0  93920526.590 0        43.000  
        40.000                                                  
 22  1 14  4  0 25.0000000  0  0
 22  1 14  4  0 26.0000000  0  5E04E09E11E12E19
  24082239.498                   126552555.416 0                        49.000  
                  24082236.961    96968844.709          53.000  
  26211419.266                   137742223.82910                        38.000  
                  26211418.426   105542743.356          41.000  
  22661310.141                   119085542.679 0                        46.000  
                  22661305.049    91247365.764          49.000  
  22809952.590                   119867584.662 0                        45.000  
                  22809950.089    91846594.054          50.000  
  24051568.446                   126392488.262 0                        42.000  
                  24051566.051    96846196.067          46.000  
 22  1 14  4  0 27.0000000  0 10G01G03G04G06G09G17G19G21G22G31
  21401474.905    21401471.778   112465819.277 0  87635772.321 0        48.000  
        47.000                                                  
  20298144.362    20298141.110   106666985.856 0  83117137.411 0        50.000  
        49.000                                                  
  20709536.088    20709531.817   108830089.156 0  84802669.715 0        48.000  
        49.000                                                  
  23823612.605    23823610.032   125193241.065 0  97554132.916 0        44.000  
        41.000                                                  
  23050215.899    23050213.272   121129818.671 0  94386872.153 0        44.000  
        45.000                                                  
  22862172.701    22862167.644   120141724.035 0  93616923.953 0        45.000  
        43.000                                                  
  22684240.297                   119207023.70210                        46.000  
                                                                
  23366898.015                   122793760.413 0                        43.000  
                                                                
  21243508.328                   111635979.627 0                        45.000  
                                                                
  22936708.863    22936702.913   120532946.081 0  93921779.480 0        43.000  
        40.000                                                  
 22  1 14  4  0 26.0000000  0  0
 22  1 14  4  0 27.0000000  0  5E04E09E11E12E19
  24082013.026                   126551365.048 0                        49.000  
                  24082010.417    96967932.607          53.000  
  26210918.880                   137739596.09510                        38.000  
                  26210918.380   105540729.893          41.000  
  22661133.577                   119084615.085 0                        46.000  
                  22661128.646    91246655.001          49.000  
  22810339.597                   119869618.617 0                        45.000  
                  22810337.096    91848152.536          50.000  
  24051872.612                   126394086.072 0                        42.000  
                  24051870.146    96847420.356          46.000  
 22  1 14  4  0 28.0000000  0 10G01G03G04G06G09G17G19G21G22G31
  21402008.313    21402005.132   112468622.039 0  87637956.301 0        48.000  
        47.000                                                  
  20298186.640    20298183.442   106667207.950 0  83117310.471 0        50.000  
        49.000                                                  
  20709251.881    20709247.539   108828595.516 0  84801505.846 0        48.000  
        49.000                                                  
  23822981.811    23822979.023   125189925.641 0  97551549.468 0        44.000  
        41.000                                                  
  23049619.002    23049616.411   121126681.763 0  94384427.821 0        45.000  
        45.000                                                  
  22862430.105    22862424.958   120143076.552 0  93617977.864 0        45.000  
        43.000                                                  
  22684280.163                   119207233.06610                        45.000  
                                                                
  23367471.128                   122796772.333 0                        43.000  
                                                                
  21243793.446                   111637478.320 0                        45.000  
                                                                
  22937015.174    22937009.170   120534555.538 0  93923033.607 0        43.000  
        40.000                                                  
 22  1 14  4  0 27.0000000  0  0
 22  1 14  4  0 28.0000000  0  5E04E09E11E12E19
  24081786.750                   126550175.890 0                        49.000  
                  24081784.159    96967021.437          53.000  
  26210418.976                   137736969.38510                        38.000  
                  26210418.619   105538717.233          41.000  
  22660957.210                   119083688.829 0                        46.000  
                  22660952.368    91245945.286          49.000  
  22810727.052                   119871653.862 0                        45.000  
                  22810724.335    91849712.012          50.000  
  24052176.600                   126395684.965 0                        42.000  
                  24052174.474    96848645.495          46.000  
 22  1 14  4  0 29.0000000  0 10G01G03G04G06G09G17G19G21G22G31
  21402541.542    21402538.398   112471424.238 0  87640139.830 0        48.000  
        47.000                                                  
  20298228.758    20298225.559   106667429.425 0  83117483.051 0        50.000  
        49.000                                                  
  20708967.549    20708963.171   108827101.368 0  84800341.571 0        48.000  
        49.000                                                  
  23822350.784    23822348.068   125186609.409 0  97548965.389 0        44.000  
        41.000                                                  
  23049021.927    23049019.318   121123544.119 0  94381982.910 0        45.000  
        45.000                                                  
  22862687.365    22862682.254   120144428.584 0  93619031.394 0        45.000  
        43.000                                                  
  22684319.939                   119207442.15710                        46.000  
                                                                
  23368044.116                   122799783.462 0                        43.000  
                                                                
  21244078.511                   111638976.321 0                        45.000  
                                                                
  22937321.396    22937315.535   120536164.616 0  93924287.430 0        43.000  
        40.000                                                  
 22  1 14  4  0 28.0000000  0  0
 22  1 14  4  0 29.0000000  0  5E04E09E11E12E19
  24081560.278                   126548986.032 0                        49.000  
                  24081557.687    96966109.722          53.000  
  26209918.929                   137734341.81210                        38.000  
                  26209918.661   105536703.876          41.000  
  22660780.896                   119082762.013 0                        46.000  
                  22660776.054    91245235.119          49.000  
  22811114.273                   119873688.468 0                        45.000  
                  22811111.557    91851270.993          50.000  
  24052480.892                   126397283.098 0                        42.000  
                  24052478.587    96849870.034          46.000  
 22  1 14  4  0 30.0000000  0 10G01G03G04G06G09G17G19G21G22G31
  21403074.701    21403071.645   112474226.345 0  87642323.293 0        48.000  
        47.000                                                  
  20298270.893    20298267.659   106667650.729 0  83117655.493 0        50.000  
        49.000                                                  
  20708683.164    20708678.893   108825607.200 0  84799177.286 0        48.000  
        49.000                                                  
  23821719.668    23821717.041   125183292.877 0  97546381.077 0        44.000  
        41.000                                                  
  23048424.851    23048422.225   121120406.210 0  94379537.782 0        45.000  
        45.000                                                  
  22862944.447    22862939.533   120145780.623 0  93620084.926 0        45.000  
        43.000                                                  
  22684359.841                   119207651.42510                        46.000  
                                                                
  23368617.104                   122802794.306 0                        43.000  
                                                                
  21244363.504                   111640474.104 0                        45.000  
                                                                
  22937627.546    22937621.720   120537773.794 0  93925541.342 0        43.000  
        41.000                                                  
 22  1 14  4  0 29.0000000  0  0
 22  1 14  4  0 30.0000000  0  5E04E09E11E12E19
  24081333.753                   126547795.917 0                        49.000  
                  24081331.198    96965197.818          53.000  
  26209418.561                   137731713.79410                        38.000  
                  26209418.543   105534690.206          41.000  
  22660604.529                   119081835.085 0                        46.000  
                  22660599.597    91244524.881          49.000  
  22811501.281                   119875722.906 0                        45.000  
                  22811498.690    91852829.844          50.000  
  24052785.040                   126398880.897 0                        42.000  
                  24052782.574    96851094.326          46.000  
 22  1 14  4  0 31.0000000  0 10G01G03G04G06G09G17G19G21G22G31
  21403608.037    21403604.892   112477028.934 0  87644507.119 0        48.000  
        47.000                                                  
  20298313.135    20298309.740   106667872.471 0  83117828.281 0        50.000  
        49.000                                                  
  20708398.993    20708394.722   108824113.592 0  84798013.431 0        48.000  
        49.000                                                  
  23821088.588    23821085.979   125179976.610 0  97543796.977 0        44.000  
        41.000                                                  
  23047827.776    23047825.113   121117268.630 0  94377092.910 0        45.000  
        45.000                                                  
  22863201.707    22863196.936   120147133.236 0  93621138.915 0        45.000  
        43.000                                                  
  22684399.867                   119207861.44610                        46.000  
                                                                
  23369190.039                   122805805.422 0                        43.000  
                                                                
  21244648.693                   111641972.234 0                        45.000  
                                                                
  22937933.892    22937928.031   120539383.680 0  93926795.805 0        43.000  
        40.000                                                  
 22  1 14  4  0 30.0000000  0  0
 22  1 14  4  0 31.0000000  0  5E04E09E11E12E19
  24081107.549                   126546606.174 0                        49.000  
                  24081104.833    96964286.199          53.000  
  26208918.443                   137729085.93310                        38.000  
                  26208918.443   105532676.653          41.000  
  22660428.287                   119080908.665 0                        46.000  
                  22660423.355    91243815.017          49.000  
  22811888.699                   119877757.782 0                        45.000  
                  22811885.822    91854389.032          50.000  
  24053089.153                   126400478.965 0                        42.000  
                  24053086.777    96852318.808          46.000  
 22  1 14  4  0 32.0000000  0 10G01G03G04G06G09G17G19G21G22G31
  21404141.499    21404138.461   112479832.480 0  87646691.712 0        48.000  
        47.000                                                  
  20298355.521    20298352.179   106668095.107 0  83118001.767 0        50.000  
        49.000                                                  
  20708114.982    20708110.676   108822621.006 0  84796850.379 0        48.000  
        49.000                                                  
  23820457.615    23820455.059   125176661.059 0  97541213.445 0        44.000  
        41.000                                                  
  23047230.915    23047228.324   121114131.828 0  94374648.640 0        45.000  
        45.000                                                  
  22863459.307    22863454.464   120148486.885 0  93622193.711 0        45.000  
        43.000                                                  
  22684440.055                   119208072.71210                        46.000  
                                                                
  23369763.205                   122808817.314 0                        43.000  
                                                                
  21244933.919                   111643471.203 0                        45.000  
                                                                
  22938240.453    22938234.556   120540994.707 0  93928051.143 0        43.000  
        41.000                                                  
 22  1 14  4  0 31.0000000  0  0
 22  1 14  4  0 32.0000000  0  5E04E09E11E12E19
  24080881.291                   126545417.235 0                        49.000  
                  24080878.557    96963375.192          53.000  
  26208418.342                   137726458.71910                        38.000  
                  26208418.485   105530663.597          41.000  
  22660252.241                   119079983.193 0                        46.000  
                  22660247.149    91243105.900          49.000  
  22812276.064                   119879793.538 0                        45.000  
                  22812273.240    91855948.900          50.000  
  24053393.427                   126402077.758 0                        42.000  
                  24053390.961    96853543.869          46.000  
 22  1 14  4  0 33.0000000  0 10G01G03G04G06G09G17G19G21G22G31
  21404675.229    21404672.066   112482636.897 0  87648876.974 0        48.000  
        47.000                                                  
  20298398.120    20298394.815   106668318.542 0  83118175.872 0        50.000  
        49.000                                                  
  20707831.115    20707826.844   108821129.340 0  84795688.045 0        48.000  
        49.000                                                  
  23819826.784    23819824.247   125173346.157 0  97538630.394 0        44.000  
        41.000                                                  
  23046634.161    23046631.552   121110995.713 0  94372204.918 0        45.000  
        45.000                                                  
  22863716.978    22863712.296   120149841.506 0  93623249.260 0        45.000  
        43.000                                                  
  22684480.510                   119208285.11910                        46.000  
                                                                
  23370336.479                   122811829.842 0                        43.000  
                                                                
  21245219.376                   111644970.909 0                        45.000  
                                                                
  22938547.353    22938541.278   120542606.819 0  93929307.328 0        43.000  
        41.000                                                  
 22  1 14  4  0 32.0000000  0  0
 22  1 14  4  0 33.0000000  0  5E04E09E11E12E19
  24080655.230                   126544229.007 0                        49.000  
                  24080652.443    96962464.733          53.000  
  26207918.278                   137723832.03010                        38.000  
                  26207918.689   105528650.937          41.000  
  22660076.142                   119079058.583 0                        46.000  
                  22660071.210    91242397.427          49.000  
  22812663.464                   119881830.089 0                        45.000  
                  22812660.748    91857509.378          50.000  
  24053697.790                   126403677.191 0                        42.000  
                  24053695.396    96854769.404          46.000  
 22  1 14  4  0 34.0000000  0 10G01G03G04G06G09G17G19G21G22G31
  21405208.869    21405205.885   112485441.434 0  87651062.316 0        48.000  
        47.000                                                  
  20298440.631    20298437.379   106668542.059 0  83118350.036 0        50.000  
        49.000                                                  
  20707547.355    20707543.013   108819637.878 0  84794525.866 0        48.000  
        49.000                                                  
  23819195.901    23819193.471   125170031.148 0  97536047.276 0        44.000  
        41.000                                                  
  23046037.371    23046034.852   121107859.562 0  94369761.164 0        45.000  
        45.000                                                  
  22863974.828    22863970.236   120151196.338 0  93624304.959 0        45.000  
        43.000                                                  
  22684521.037                   119208497.91310                        46.000  
                                                                
  23370909.682                   122814842.300 0                        43.000  
                                                                
  21245504.745                   111646470.606 0                        45.000  
                                                                
  22938854.200    22938848.250   120544219.240 0  93930563.776 0        43.000  
        41.000                                                  
 22  1 14  4  0 33.0000000  0  0
 22  1 14  4  0 34.0000000  0  5E04E09E11E12E19
  24080429.080                   126543040.784 0                        49.000  
                  24080426.364    96961554.268          53.000  
  26207418.428                   137721205.12610                        38.000  
                  26207418.892   105526638.121          41.000  
  22659900.204                   119078134.091 0                        46.000  
                  22659895.326    91241689.052          49.000  
  22813051.186                   119883866.705 0                        45.000  
                  22813048.345    91859069.893          50.000  
  24054002.314                   126405276.518 0                        42.000  
                  24053999.759    96855994.867          46.000  
 22  1 14  4  0 35.0000000  0 10G01G03G04G06G09G17G19G21G22G31
  21405742.581    21405739.615   112488246.265 0  87653247.910 0        48.000  
        47.000                                                  
  20298483.338    20298479.871   106668765.799 0  83118524.377 0        50.000  
        49.000                                                  
  20707263.631    20707259.253   108818146.773 0  84793363.978 0        48.000  
        49.000                                                  
  23818565.035    23818562.712   125166716.222 0  97533464.219 0        44.000  
        41.000                                                  
  23045440.653    23045437.973   121104723.535 0  94367317.511 0        45.000  
        45.000                                                  
  22864232.749    22864228.193   120152551.540 0  93625360.974 0        45.000  
        43.000                                                  
  22684561.618                   119208711.28610                        46.000  
                                                                
  23371482.902                   122817854.857 0                        42.000  
                                                                
  21245790.238                   111647970.476 0                        45.000  
                                                                
  22939161.101    22939155.115   120545832.165 0  93931820.601 0        43.000  
        41.000                                                  
 22  1 14  4  0 34.0000000  0  0
 22  1 14  4  0 35.0000000  0  5E04E09E11E12E19
  24080202.965                   126541852.705 0                        49.000  
                  24080200.196    96960643.935          53.000  
  26206918.560                   137718578.22010                        38.000  
                  26206918.881   105524625.303          41.000  
  22659724.426                   119077209.899 0                        46.000  
                  22659719.423    91240980.904          49.000  
  22813438.783                   119885903.543 0                        45.000  
                  22813435.942    91860630.595          50.000  
  24054306.534                   126406875.919 0                        42.000  
                  24054304.014    96857220.379          46.000  
 22  1 14  4  0 36.0000000  0 10G01G03G04G06G09G17G19G21G22G31
  21406276.311    21406273.273   112491051.099 0  87655433.500 0        47.000  
        47.000                                                  
  20298525.866    20298522.435   106668989.460 0  83118698.667 0        50.000  
        49.000                                                  
  20706979.960    20706975.510   108816655.739 0  84792202.121 0        48.000  
        49.000                                                  
  23817934.205    23817931.900   125163401.067 0  97530880.965 0        44.000  
        41.000                                                  
  23044843.828    23044841.165   121101587.331 0  94364873.712 0        45.000  
        45.000                                                  
  22864490.599    22864486.061   120153906.815 0  93626417.035 0        45.000  
        43.000                                                  
  22684602.305                   119208924.96110                        46.000  
                                                                
  23372056.123                   122820867.174 0                        42.000  
                                                                
  21246075.696                   111649470.202 0                        45.000  
                                                                
  22939468.091    22939462.105   120547445.302 0  93933077.584 0        43.000  
        41.000                                                  
 22  1 14  4  0 35.0000000  0  0
 22  1 14  4  0 36.0000000  0  5E04E09E11E12E19
  24079976.797                   126540664.479 0                        49.000  
                  24079974.153    96959733.472          53.000  
  26206418.709                   137715950.98410                        38.000  
                  26206418.995   105522612.209          41.000  
  22659548.327                   119076285.682 0                        46.000  
                  22659543.610    91240272.743          49.000  
  22813826.398                   119887940.312 0                        45.000  
                  22813823.521    91862191.233          50.000  
  24054610.951                   126408475.099 0                        42.000  
                  24054608.485    96858445.721          46.000  
 22  1 14  4  0 37.0000000  0 10G01G03G04G06G09G17G19G21G22G31
  21406810.113    21406807.093   112493856.335 0  87657619.386 0        47.000  
        47.000                                                  
  20298568.555    20298565.017   106669213.467 0  83118873.213 0        50.000  
        49.000                                                  
  20706696.218    20706691.822   108815165.156 0  84791040.629 0        48.000  
        49.000                                                  
  23817303.482    23817301.105   125160086.080 0  97528297.853 0        44.000  
        41.000                                                  
  23044247.163    23044244.393   121098451.357 0  94362430.097 0        45.000  
        45.000                                                  
  22864748.646    22864743.982   120155262.583 0  93627473.482 0        45.000  
        43.000                                                  
  22684642.957                   119209139.26610                        45.000  
                                                                
  23372629.486                   122823879.700 0                        42.000  
                                                                
  21246361.153                   111650970.207 0                        45.000  
                                                                
  22939775.277    22939769.255   120549059.020 0  93934335.015 0        43.000  
        41.000                                                  
 22  1 14  4  0 36.0000000  0  0
 22  1 14  4  0 37.0000000  0  5E04E09E11E12E19
  24079750.736                   126539476.521 0                        49.000  
                  24079748.038    96958823.218          53.000  
  26205918.806                   137713323.79910                        38.000  
                  26205919.056   105520599.176          41.000  
  22659372.549                   119075361.865 0                        46.000  
                  22659367.761    91239564.883          49.000  
  22814214.048                   119889977.421 0                        45.000  
                  22814211.118    91863752.130          50.000  
  24054915.296                   126410074.426 0                        42.000  
                  24054912.705    96859671.186          46.000  
 22  1 14  4  0 38.0000000  0 10G01G03G04G06G09G17G19G21G22G31
  21407344.057    21407341.108   112496662.633 0  87659806.114 0        47.000  
        47.000                                                  
  20298611.298    20298607.921   106669438.498 0  83119048.567 0        50.000  
        49.000                                                  
  20706412.779    20706408.276   108813675.715 0  84789880.030 0        48.000  
        49.000                                                  
  23816672.848    23816670.382   125156771.937 0  97525715.407 0        44.000  
        41.000                                                  
  23043650.713    23043647.854   121095316.286 0  94359987.187 0        45.000  
        45.000                                                  
  22865006.943    22865002.207   120156619.510 0  93628530.828 0        45.000  
        43.000                                                  
  22684683.949                   119209354.93610                        45.000  
                                                                
  23373202.885                   122826893.085 0                        42.000  
                                                                
  21246646.700                   111652471.145 0                        45.000  
                                                                
  22940082.588    22940076.549   120550674.023 0  93935593.461 0        43.000  
        41.000                                                  
 22  1 14  4  0 37.0000000  0  0
 22  1 14  4  0 38.0000000  0  5E04E09E11E12E19
  24079524.907                   126538289.484 0                        49.000  
                  24079522.156    96957913.674          53.000  
  26205418.991                   137710697.40910                        38.000  
                  26205419.188   105518586.733          41.000  
  22659196.843                   119074439.119 0                        46.000  
                  22659192.162    91238857.853          49.000  
  22814601.896                   119892015.536 0                        45.000  
                  22814598.983    91865313.803          50.000  
  24055219.748                   126411674.610 0                        42.000  
                  24055217.175    96860897.299          46.000  
 22  1 14  4  0 39.0000000  0 10G01G03G04G06G09G17G19G21G22G31
  21407878.180    21407875.214   112499469.504 0  87661993.286 0        47.000  
        47.000                                                  
  20298654.130    20298650.788   106669664.019 0  83119224.293 0        50.000  
        49.000                                                  
  20706129.448    20706124.963   108812186.902 0  84788719.918 0        48.000  
        49.000                                                  
  23816042.233    23816039.767   125153458.138 0  97523133.216 0        44.000  
        41.000                                                  
  23043054.138    23043051.314   121092181.611 0  94357544.586 0        45.000  
        45.000                                                  
  22865265.293    22865260.486   120157977.088 0  93629588.672 0        45.000  
        43.000                                                  
  22684725.155                   119209571.45210                        46.000  
                                                                
  23373776.284                   122829906.825 0                        42.000  
                                                                
  21246932.408                   111653972.502 0                        45.000  
                                                                
  22940390.096    22940384.057   120552289.795 0  93936852.502 0        43.000  
        41.000                                                  
 22  1 14  4  0 38.0000000  0  0
 22  1 14  4  0 39.0000000  0  5E04E09E11E12E19
  24079299.079                   126537102.866 0                        49.000  
                  24079296.327    96957004.448          53.000  
  26204919.391                   137708071.21010                        38.000  
                  26204919.409   105516574.469          42.000  
  22659021.423                   119073516.948 0                        46.000  
                  22659016.795    91238151.245          49.000  
  22814989.921                   119894054.132 0                        45.000  
                  22814987.044    91866875.844          50.000  
  24055524.397                   126413275.132 0                        42.000  
                  24055521.860    96862123.668          46.000  
 22  1 14  4  0 40.0000000  0 10G01G03G04G06G09G17G19G21G22G31
  21408412.338    21408409.354   112502276.336 0  87664180.421 0        47.000  
        47.000                                                  
  20298697.087    20298693.728   106669889.458 0  83119399.960 0        50.000  
        49.000                                                  
  20705846.063    20705841.721   108810698.125 0  84787559.834 0        48.000  
        49.000                                                  
  23815411.581    23815409.115   125150144.083 0  97520550.839 0        44.000  
        41.000                                                  
  23042457.634    23042454.775   121089046.725 0  94355101.822 0        45.000  
        45.000                                                  
  22865523.572    22865518.837   120159334.728 0  93630646.576 0        45.000  
        43.000                                                  
  22684766.379                   119209788.22810                        45.000  
                                                                
  23374349.665                   122832920.336 0                        42.000  
                                                                
  21247218.134                   111655473.716 0                        45.000  
                                                                
  22940697.622    22940691.529   120553905.731 0  93938111.684 0        43.000  
        41.000                                                  
 22  1 14  4  0 39.0000000  0  0
 22  1 14  4  0 40.0000000  0  5E04E09E11E12E19
  24079073.214                   126535916.087 0                        49.000  
                  24079070.534    96956095.093          53.000  
  26204419.845                   137705444.67010                        38.000  
                  26204419.702   105514561.903          42.000  
  22658846.021                   119072594.739 0                        46.000  
                  22658841.196    91237444.617          49.000  
  22815378.037                   119896092.638 0                        45.000  
                  22815374.838    91868437.814          50.000  
  24055828.850                   126414875.383 0                        42.000  
                  24055826.330    96863349.839          46.000  
 22  1 14  4  0 41.0000000  0 10G01G03G04G06G09G17G19G21G22G31
  21408946.533    21408943.549   112505083.573 0  87666367.874 0        47.000  
        46.000                                                  
  20298740.133    20298736.667   106670115.234 0  83119575.883 0        50.000  
        49.000                                                  
  20705562.857    20705558.515   108809209.828 0  84786400.120 0        48.000  
        49.000                                                  
  23814780.983    23814778.500   125146830.205 0  97517968.602 0        44.000  
        41.000                                                  
  23041861.112    23041858.361   121085912.103 0  94352659.244 0        45.000  
        45.000                                                  
  22865781.958    22865777.241   120160692.862 0  93631704.866 0        45.000  
        43.000                                                  
  22684807.728                   119210005.66210                        45.000  
                                                                
  23374923.190                   122835934.050 0                        42.000  
                                                                
  21247503.699                   111656975.197 0                        45.000  
                                                                
  22941005.309    22940999.305   120555522.269 0  93939371.319 0        43.000  
        41.000                                                  
 22  1 14  4  0 40.0000000  0  0
 22  1 14  4  0 41.0000000  0  5E04E09E11E12E19
  24078847.296                   126534729.563 0                        49.000  
                  24078844.741    96955185.936          53.000  
  26203919.923                   137702818.20110                        38.000  
                  26203919.870   105512549.420          41.000  
  22658670.511                   119071672.935 0                        46.000  
                  22658665.776    91236738.298          49.000  
  22815765.848                   119898131.484 0                        45.000  
                  22815762.810    91870000.044          50.000  
  24056133.427                   126416475.835 0                        42.000  
                  24056131.051    96864576.150          46.000  
 22  1 14  4  0 42.0000000  0 10G01G03G04G06G09G17G19G21G22G31
  21409480.888    21409477.743   112507891.153 0  87668555.608 0        47.000  
        47.000                                                  
  20298783.216    20298779.678   106670341.298 0  83119752.046 0        50.000  
        49.000                                                  
  20705279.704    20705275.434   108807721.939 0  84785240.731 0        48.000  
        49.000                                                  
  23814150.439    23814147.830   125143516.450 0  97515386.460 0        44.000  
        41.000                                                  
  23041264.698    23041261.910   121082777.637 0  94350216.816 0        45.000  
        45.000                                                  
  22866040.433    22866035.734   120162051.432 0  93632763.501 0        45.000  
        43.000                                                  
  22684849.220                   119210223.73010                        45.000  
                                                                
  23375496.481                   122838947.899 0                        42.000  
                                                                
  21247789.514                   111658476.901 0                        45.000  
                                                                
  22941313.103    22941307.063   120557139.370 0  93940631.398 0        43.000  
        41.000                                                  
 22  1 14  4  0 41.0000000  0  0
 22  1 14  4  0 42.0000000  0  5E04E09E11E12E19
  24078621.825                   126533543.248 0                        49.000  
                  24078618.984    96954276.946          53.000  
  26203420.091                   137700191.74310                        38.000  
                  26203420.002   105510536.947          41.000  
  22658495.180                   119070751.456 0                        46.000  
                  22658490.517    91236032.234          49.000  
  22816153.874                   119900170.594 0                        45.000  
                  22816150.800    91871562.495          50.000  
  24056438.148                   126418076.377 0                        42.000  
                  24056435.574    96865802.553          46.000  
 22  1 14  4  0 43.0000000  0 10G01G03G04G06G09G17G19G21G22G31
  21410015.351    21410012.259   112510699.661 0  87670744.038 0        47.000  
        46.000                                                  
  20298826.441    20298822.796   106670568.213 0  83119928.862 0        50.000  
        48.000                                                  
  20704996.748    20704992.603   108806235.028 0  84784082.099 0        48.000  
        49.000                                                  
  23813520.020    23813517.304   125140203.390 0  97512804.862 0        44.000  
        41.000                                                  
  23040668.355    23040665.514   121079643.913 0  94347774.951 0        45.000  
        45.000                                                  
  22866299.141    22866294.459   120163411.009 0  93633822.903 0        45.000  
        43.000                                                  
  22684890.926                   119210443.01510                        45.000  
                                                                
  23376070.041                   122841962.434 0                        42.000  
                                                                
  21248075.418                   111659979.389 0                        45.000  
                                                                
  22941621.111    22941614.964   120558757.580 0  93941892.346 0        43.000  
        41.000                                                  
 22  1 14  4  0 42.0000000  0  0
 22  1 14  4  0 43.0000000  0  5E04E09E11E12E19
  24078396.068                   126532357.710 0                        49.000  
                  24078393.405    96953368.545          53.000  
  26202920.437                   137697565.89610                        38.000  
                  26202920.223   105508524.927          41.000  
  22658320.118                   119069830.896 0                        46.000  
                  22658315.311    91235326.870          49.000  
  22816541.989                   119902210.579 0                        45.000  
                  22816539.041    91873125.589          50.000  
  24056742.868                   126419677.623 0                        42.000  
                  24056740.134    96867029.475          47.000  
 22  1 14  4  0 44.0000000  0 10G01G03G04G06G09G17G19G21G22G31
  21410549.974    21410546.829   112513508.809 0  87672932.995 0        47.000  
        46.000                                                  
  20298869.702    20298866.074   106670795.736 0  83120106.146 0        50.000  
        48.000                                                  
  20704714.007    20704709.718   108804748.859 0  84782924.038 0        48.000  
        49.000                                                  
  23812889.690    23812886.867   125136890.753 0  97510223.575 0        44.000  
        41.000                                                  
  23040072.173    23040069.243   121076510.694 0  94345333.482 0        45.000  
        45.000                                                  
  22866558.045    22866553.292   120164771.340 0  93634882.885 0        45.000  
        43.000                                                  
  22684932.739                   119210663.21910                        46.000  
                                                                
  23376643.798                   122844977.436 0                        42.000  
                                                                
  21248361.430                   111661482.410 0                        45.000  
                                                                
  22941929.209    22941923.080   120560376.656 0  93943153.957 0        43.000  
        40.000                                                  
 22  1 14  4  0 43.0000000  0  0
 22  1 14  4  0 44.0000000  0  5E04E09E11E12E19
  24078170.543                   126531172.692 0                        49.000  
                  24078167.934    96952460.546          53.000  
  26202420.801                   137694940.37510                        38.000  
                  26202420.587   105506513.166          41.000  
  22658145.001                   119068910.997 0                        46.000  
                  22658140.230    91234622.003          49.000  
  22816930.426                   119904251.144 0                        45.000  
                  22816927.317    91874689.132          50.000  
  24057047.714                   126421279.301 0                        42.000  
                  24057044.908    96868256.737          47.000  
 22  1 14  4  0 45.0000000  0 10G01G03G04G06G09G17G19G21G22G31
  21411084.544    21411081.327   112516317.953 0  87675121.944 0        47.000  
        47.000                                                  
  20298912.873    20298909.317   106671023.179 0  83120283.383 0        50.000  
        48.000                                                  
  20704431.230    20704426.887   108803262.740 0  84781766.025 0        48.000  
        50.000                                                  
  23812259.289    23812256.394   125133577.904 0  97507642.137 0        44.000  
        41.000                                                  
  23039475.937    23039473.007   121073377.293 0  94342891.866 0        45.000  
        45.000                                                  
  22866816.878    22866812.161   120166131.753 0  93635942.956 0        45.000  
        43.000                                                  
  22684974.821                   119210883.69910                        46.000  
                                                                
  23377217.465                   122847992.235 0                        42.000  
                                                                
  21248647.423                   111662985.297 0                        45.000  
                                                                
  22942237.414    22942231.321   120561995.938 0  93944415.728 0        43.000  
        41.000                                                  
 22  1 14  4  0 44.0000000  0  0
 22  1 14  4  0 45.0000000  0  5E04E09E11E12E19
  24077945.107                   126529987.527 0                        49.000  
                  24077942.373    96951552.428          53.000  
  26201920.951                   137692314.53610                        38.000  
                  26201920.826   105504501.158          41.000  
  22657969.920                   119067991.097 0                        46.000  
                  22657965.149    91233917.149          49.000  
  22817318.684                   119906291.642 0                        45.000  
                  22817315.646    91876252.633          50.000  
  24057352.363                   126422880.755 0                        42.000  
                  24057349.700    96869483.823          47.000  
 22  1 14  4  0 46.0000000  0 10G01G03G04G06G09G17G19G21G22G31
  21411619.095    21411615.897   112519127.165 0  87677310.945 0        47.000  
        47.000                                                  
  20298956.206    20298952.668   106671250.640 0  83120460.626 0        50.000  
        48.000                                                  
  20704148.470    20704144.074   108801776.744 0  84780608.111 0        48.000  
        50.000                                                  
  23811628.798    23811625.957   125130264.880 0  97505060.564 0        44.000  
        41.000                                                  
  23038879.737    23038876.628   121070243.778 0  94340450.179 0        45.000  
        45.000                                                  
  22867075.711    22867071.119   120167492.313 0  93637003.128 0        45.000  
        43.000                                                  
  22685016.760                   119211104.49610                        46.000  
                                                                
  23377791.025                   122851006.879 0                        42.000  
                                                                
  21248933.381                   111664488.110 0                        45.000  
                                                                
  22942545.619    22942539.543   120563615.466 0  93945677.704 0        43.000  
        40.000                                                  
 22  1 14  4  0 45.0000000  0  0
 22  1 14  4  0 46.0000000  0  5E04E09E11E12E19
  24077719.493                   126528802.274 0                        49.000  
                  24077716.866    96950644.252          53.000  
  26201421.190                   137689688.40510                        38.000  
                  26201421.155   105502488.927          41.000  
  22657794.965                   119067071.253 0                        46.000  
                  22657790.212    91233212.332          49.000  
  22817706.960                   119908332.123 0                        45.000  
                  22817703.940    91877816.120          50.000  
  24057656.922                   126424482.025 0                        42.000  
                  24057654.492    96870710.777          47.000  
 22  1 14  4  0 47.0000000  0 10G01G03G04G06G09G17G19G21G22G31
  21412153.719    21412150.592   112521936.970 0  87679500.396 0        47.000  
        46.000                                                  
  20298999.502    20298996.071   106671478.629 0  83120638.273 0        50.000  
        48.000                                                  
  20703865.818    20703861.458   108800291.423 0  84779450.709 0        48.000  
        50.000                                                  
  23810998.451    23810995.538   125126952.237 0  97502479.281 0        44.000  
        41.000                                                  
  23038283.555    23038280.428   121067110.693 0  94338008.806 0        45.000  
        45.000                                                  
  22867334.669    22867330.219   120168853.554 0  93638063.842 0        45.000  
        43.000                                                  
  22685058.877                   119211326.19310                        46.000  
                                                                
  23378364.817                   122854021.914 0                        42.000  
                                                                
  21249219.339                   111665991.387 0                        45.000  
                                                                
  22942853.895    22942847.909   120565235.798 0  93946940.303 0        43.000  
        40.000                                                  
 22  1 14  4  0 46.0000000  0  0
 22  1 14  4  0 47.0000000  0  5E04E09E11E12E19
  24077494.111                   126527617.490 0                        49.000  
                  24077491.395    96949736.428          53.000  
  26200921.590                   137687062.57810                        37.000  
                  26200921.519   105500476.917          41.000  
  22657620.063                   119066152.005 0                        46.000  
                  22657615.238    91232507.973          49.000  
  22818095.290                   119910373.140 0                        45.000  
                  22818092.288    91879380.008          50.000  
  24057961.839                   126426083.682 0                        42.000  
                  24057959.248    96871938.003          46.000  
 22  1 14  4  0 48.0000000  0 10G01G03G04G06G09G17G19G21G22G31
  21412688.557    21412685.465   112524747.717 0  87681690.588 0        47.000  
        47.000                                                  
  20299043.031    20299039.618   106671707.490 0  83120816.603 0        50.000  
        48.000                                                  
  20703583.380    20703579.074   108798807.094 0  84778294.093 0        48.000  
        50.000                                                  
  23810368.139    23810365.298   125123640.295 0  97499898.543 0        44.000  
        41.000                                                  
  23037687.427    23037684.407   121063978.378 0  94335568.050 0        45.000  
        45.000                                                  
  22867593.931    22867589.392   120170215.819 0  93639125.343 0        45.000  
        43.000                                                  
  22685101.262                   119211549.05610                        46.000  
                                                                
  23378938.627                   122857037.670 0                        42.000  
                                                                
  21249505.583                   111667495.480 0                        45.000  
                                                                
  22943162.458    22943156.489   120566857.262 0  93948203.780 0        43.000  
        40.000                                                  
 22  1 14  4  0 47.0000000  0  0
 22  1 14  4  0 48.0000000  0  5E04E09E11E12E19
  24077268.800                   126526433.485 0                        49.000  
                  24077266.084    96948829.203          53.000  
  26200421.937                   137684437.34710                        38.000  
                  26200421.973   105498465.374          41.000  
  22657445.357                   119065233.681 0                        46.000  
                  22657440.533    91231804.324          49.000  
  22818483.887                   119912415.020 0                        45.000  
                  22818480.903    91880944.574          50.000  
  24058266.899                   126427686.035 0                        42.000  
                  24058264.290    96873165.782          47.000  
 22  1 14  4  0 49.0000000  0 10G01G03G04G06G09G17G19G21G22G31
  21413223.501    21413220.339   112527558.728 0  87683880.986 0        47.000  
        47.000                                                  
  20299086.614    20299083.254   106671936.570 0  83120995.112 0        50.000  
        48.000                                                  
  20703301.014    20703296.565   108797323.096 0  84777137.739 0        48.000  
        50.000                                                  
  23809737.880    23809735.021   125120328.406 0  97497317.857 0        44.000  
        41.000                                                  
  23037091.316    23037088.439   121060846.160 0  94333127.360 0        45.000  
        45.000                                                  
  22867853.228    22867848.707   120171578.453 0  93640187.134 0        45.000  
        43.000                                                  
  22685143.773                   119211772.48810                        46.000  
                                                                
  23379512.455                   122860053.499 0                        42.000  
                                                                
  21249791.827                   111668999.716 0                        45.000  
                                                                
  22943471.109    22943465.195   120568479.211 0  93949467.634 0        43.000  
        40.000                                                  
 22  1 14  4  0 48.0000000  0  0
 22  1 14  4  0 49.0000000  0  5E04E09E11E12E19
  24077043.454                   126525249.617 0                        49.000  
                  24077040.738    96947922.081          53.000  
  26199922.426                   137681812.03410                        38.000  
                  26199922.247   105496453.775          41.000  
  22657270.581                   119064315.624 0                        46.000  
                  22657265.684    91231100.885          49.000  
  22818872.574                   119914457.109 0                        45.000  
                  22818869.429    91882509.287          50.000  
  24058571.870                   126429288.423 0                        42.000  
                  24058569.154    96874393.590          47.000  
 22  1 14  4  0 50.0000000  0 10G01G03G04G06G09G17G19G21G22G31
  21413758.429    21413755.301   112530369.997 0  87686071.588 0        47.000  
        46.000                                                  
  20299130.232    20299126.837   106672165.833 0  83121173.758 0        50.000  
        48.000                                                  
  20703018.630    20703014.252   108795839.442 0  84775981.631 0        48.000  
        50.000                                                  
  23809107.640    23809104.763   125117016.558 0  97494737.192 0        44.000  
        41.000                                                  
  23036495.206    23036492.293   121057714.047 0  94330686.741 0        45.000  
        45.000                                                  
  22868112.561    22868107.969   120172941.422 0  93641249.190 0        45.000  
        43.000                                                  
  22685186.408                   119211996.47710                        46.000  
                                                                
  23380086.319                   122863069.387 0                        42.000  
                                                                
  21250078.071                   111670504.073 0                        45.000  
                                                                
  22943779.886    22943773.900   120570101.612 0  93950731.844 0        43.000  
        41.000                                                  
 22  1 14  4  0 49.0000000  0  0
 22  1 14  4  0 50.0000000  0  5E04E09E11E12E19
  24076818.036                   126524065.863 0                        49.000  
                  24076815.499    96947015.047          53.000  
  26199422.826                   137679186.68310                        37.000  
                  26199422.594   105494442.149          41.000  
  22657095.875                   119063397.834 0                        46.000  
                  22657091.104    91230397.639          49.000  
  22819261.136                   119916499.388 0                        45.000  
                  22819258.295    91884074.148          50.000  
  24058876.823                   126430890.846 0                        42.000  
                  24058874.106    96875621.427          47.000  
 22  1 14  4  0 51.0000000  0 10G01G03G04G06G09G17G19G21G22G31
  21414293.338    21414290.318   112533181.421 0  87688262.304 0        47.000  
        47.000                                                  
  20299173.940    20299170.437   106672395.192 0  83121352.487 0        50.000  
        48.000                                                  
  20702736.281    20702731.939   108794355.999 0  84774825.713 0        48.000  
        50.000                                                  
  23808477.400    23808474.469   125113704.646 0  97492156.476 0        44.000  
        41.000                                                  
  23035899.077    23035896.325   121054581.899 0  94328246.122 0        45.000  
        45.000                                                  
  22868371.948    22868367.427   120174304.641 0  93642311.433 0        45.000  
        43.000                                                  
  22685229.186                   119212220.88310                        46.000  
                                                                
  23380660.218                   122866085.208 0                        42.000  
                                                                
  21250364.297                   111672008.453 0                        45.000  
                                                                
  22944088.663    22944082.641   120571724.380 0  93951996.350 0        43.000  
        40.000                                                  
 22  1 14  4  0 50.0000000  0  0
 22  1 14  4  0 51.0000000  0  5E04E09E11E12E19
  24076592.940                   126522882.130 0                        49.000  
                  24076590.171    96946108.035          53.000  
  26198923.244                   137676561.16110                        38.000  
                  26198923.119   105492430.385          42.000  
  22656921.366                   119062480.185 0                        46.000  
                  22656916.452    91229694.509          49.000  
  22819649.716                   119918541.752 0                        45.000  
                  22819646.857    91885639.083          50.000  
  24059181.722                   126432493.210 0                        42.000  
                  24059179.006    96876849.211          47.000  
 22  1 14  4  0 52.0000000  0 10G01G03G04G06G09G17G19G21G22G31
  21414828.479    21414825.477   112535993.565 0  87690453.591 0        47.000  
        46.000                                                  
  20299217.683    20299214.199   106672625.232 0  83121531.739 0        50.000  
        48.000                                                  
  20702454.183    20702449.752   108792873.349 0  84773670.403 0        48.000  
        50.000                                                  
  23807847.213    23807844.247   125110393.215 0  97489576.133 0        44.000  
        41.000                                                  
  23035303.074    23035300.411   121051450.320 0  94325805.931 0        45.000  
        45.000                                                  
  22868631.460    22868626.939   120175668.664 0  93643374.315 0        45.000  
        43.000                                                  
  22685272.072                   119212446.27210                        45.000  
                                                                
  23381234.260                   122869101.560 0                        42.000  
                                                                
  21250650.666                   111673513.440 0                        45.000  
                                                                
  22944397.654    22944391.596   120573348.069 0  93953261.551 0        43.000  
        40.000                                                  
 22  1 14  4  0 51.0000000  0  0
 22  1 14  4  0 52.0000000  0  5E04E09E11E12E19
  24076367.880                   126521698.975 0                        49.000  
                  24076365.182    96945201.462          53.000  
  26198423.805                   137673936.04210                        38.000  
                  26198423.662   105490418.928          41.000  
  22656746.768                   119061563.282 0                        46.000  
                  22656741.997    91228991.942          49.000  
  22820038.546                   119920584.783 0                        45.000  
                  22820035.562    91887204.520          50.000  
  24059486.764                   126434096.068 0                        42.000  
                  24059484.030    96878077.370          47.000  
 22  1 14  4  0 53.0000000  0 10G01G03G04G06G09G17G19G21G22G31
  21415363.799    21415360.797   112538806.448 0  87692645.453 0        47.000  
        46.000                                                  
  20299261.534    20299258.085   106672855.930 0  83121711.501 0        50.000  
        48.000                                                  
  20702172.192    20702167.743   108791391.496 0  84772515.708 0        48.000  
        50.000                                                  
  23807217.133    23807214.221   125107082.306 0  97486996.209 0        44.000  
        41.000                                                  
  23034707.195    23034704.658   121048319.281 0  94323366.156 0        45.000  
        45.000                                                  
  22868891.168    22868886.629   120177033.517 0  93644437.830 0        45.000  
        43.000                                                  
  22685315.154                   119212672.68310                        46.000  
                                                                
  23381808.303                   122872118.440 0                        42.000  
                                                                
  21250937.142                   111675019.012 0                        45.000  
                                                                
  22944706.859    22944700.712   120574972.682 0  93954527.497 0        43.000  
        40.000                                                  
 22  1 14  4  0 52.0000000  0  0
 22  1 14  4  0 53.0000000  0  5E04E09E11E12E19
  24076142.820                   126520516.404 0                        49.000  
                  24076140.139    96944295.336          53.000  
  26197924.544                   137671311.31310                        38.000  
                  26197924.098   105488407.770          42.000  
  22656572.509                   119060647.097 0                        46.000  
                  22656567.702    91228289.931          49.000  
  22820427.286                   119922628.471 0                        45.000  
                  22820424.481    91888770.460          50.000  
  24059791.842                   126435699.415 0                        42.000  
                  24059789.125    96879305.911          47.000  
 22  1 14  4  0 54.0000000  0 10G01G03G04G06G09G17G19G21G22G31
  21415899.048    21415896.064   112541619.657 0  87694837.557 0        47.000  
        47.000                                                  
  20299305.420    20299302.043   106673086.895 0  83121891.473 0        50.000  
        48.000                                                  
  20701890.344    20701885.823   108789910.046 0  84771361.331 0        48.000  
        50.000                                                  
  23806587.161    23806584.248   125103771.497 0  97484416.355 0        44.000  
        41.000                                                  
  23034111.460    23034108.780   121045188.433 0  94320926.527 0        45.000  
        45.000                                                  
  22869150.966    22869146.427   120178398.783 0  93645501.670 0        45.000  
        43.000                                                  
  22685358.237                   119212899.70910                        46.000  
                                                                
  23382382.417                   122875135.423 0                        42.000  
                                                                
  21251223.761                   111676524.789 0                        45.000  
                                                                
  22945016.011    22945009.918   120576597.844 0  93955793.857 0        43.000  
        40.000                                                  
 22  1 14  4  0 53.0000000  0  0
 22  1 14  4  0 54.0000000  0  5E04E09E11E12E19
  24075917.813                   126519334.027 0                        49.000  
                  24075915.097    96943389.361          53.000  
  26197425.034                   137668686.57810                        38.000  
                  26197424.712   105486396.620          42.000  
  22656398.215                   119059731.256 0                        46.000  
                  22656393.444    91227588.178          49.000  
  22820816.438                   119924672.420 0                        45.000  
                  22820813.400    91890336.608          50.000  
  24060096.937                   126437302.871 0                        42.000  
                  24060094.364    96880534.537          47.000  
 22  1 14  4  0 55.0000000  0 10G01G03G04G06G09G17G19G21G22G31
  21416434.333    21416431.438   112544432.883 0  87697029.690 0        47.000  
        47.000                                                  
  20299349.342    20299346.001   106673317.836 0  83122071.421 0        50.000  
        48.000                                                  
  20701608.335    20701603.975   108788428.675 0  84770207.023 0        48.000  
        50.000                                                  
  23805957.135    23805954.222   125100460.491 0  97481836.349 0        44.000  
        41.000                                                  
  23033515.635    23033512.973   121042057.417 0  94318486.789 0        45.000  
        45.000                                                  
  22869410.746    22869406.278   120179764.165 0  93646565.612 0        45.000  
        43.000                                                  
  22685401.408                   119213127.01110                        46.000  
                                                                
  23382956.566                   122878152.226 0                        42.000  
                                                                
  21251510.220                   111678030.452 0                        44.000  
                                                                
  22945325.306    22945319.266   120578223.232 0  93957060.395 0        43.000  
        40.000                                                  
 22  1 14  4  0 54.0000000  0  0
 22  1 14  4  0 55.0000000  0  5E04E09E11E12E19
  24075692.913                   126518151.532 0                        49.000  
                  24075690.108    96942483.291          53.000  
  26196925.541                   137666061.58510                        38.000  
                  26196925.058   105484385.231          42.000  
  22656223.956                   119058815.420 0                        46.000  
                  22656219.185    91226886.438          49.000  
  22821205.268                   119926716.322 0                        45.000  
                  22821202.284    91891902.710          50.000  
  24060402.122                   126438906.124 0                        42.000  
                  24060399.460    96881763.002          47.000  
 22  1 14  4  0 56.0000000  0 10G01G03G04G06G09G17G19G21G22G31
  21416969.742    21416966.847   112547246.599 0  87699222.185 0        47.000  
        47.000                                                  
  20299393.479    20299390.048   106673549.185 0  83122251.695 0        50.000  
        48.000                                                  
  20701326.594    20701322.109   108786947.855 0  84769053.137 0        48.000  
        50.000                                                  
  23805327.162    23805324.303   125097149.744 0  97479256.548 0        44.000  
        42.000                                                  
  23032919.864    23032917.255   121038926.731 0  94316047.286 0        45.000  
        45.000                                                  
  22869670.722    22869666.237   120181130.115 0  93647629.989 0        45.000  
        42.000                                                  
  22685444.866                   119213355.08810                        46.000  
                                                                
  23383530.644                   122881169.326 0                        42.000  
                                                                
  21251796.821                   111679536.466 0                        44.000  
                                                                
  22945634.637    22945628.722   120579849.295 0  93958327.444 0        43.000  
        40.000                                                  
 22  1 14  4  0 55.0000000  0  0
 22  1 14  4  0 56.0000000  0  5E04E09E11E12E19
  24075467.710                   126516969.390 0                        49.000  
                  24075465.083    96941577.489          53.000  
  26196426.262                   137663436.71210                        38.000  
                  26196425.762   105482373.984          42.000  
  22656049.501                   119057900.060 0                        46.000  
                  22656045.034    91226185.054          49.000  
  22821594.187                   119928760.646 0                        45.000  
                  22821591.364    91893469.140          50.000  
  24060707.236                   126440509.636 0                        42.000  
                  24060704.484    96882991.665          47.000  
 22  1 14  4  0 57.0000000  0 10G01G03G04G06G09G17G19G21G22G31
  21417505.295    21417502.400   112550061.029 0  87701415.249 0        47.000  
        47.000                                                  
  20299437.615    20299434.273   106673781.197 0  83122432.490 0        50.000  
        48.000                                                  
  20701044.960    20701040.422   108785467.831 0  84767899.874 0        48.000  
        50.000                                                  
  23804697.208    23804694.384   125093839.495 0  97476677.140 0        44.000  
        42.000                                                  
  23032324.290    23032321.735   121035796.587 0  94313608.212 0        45.000  
        45.000                                                  
  22869930.788    22869926.213   120182496.873 0  93648695.002 0        45.000  
        42.000                                                  
  22685488.466                   119213584.15410                        46.000  
                                                                
  23384104.812                   122884186.914 0                        42.000  
                                                                
  21252083.511                   111681043.071 0                        44.000  
                                                                
  22945944.307    22945938.285   120581476.276 0  93959595.210 0        43.000  
        40.000                                                  
 22  1 14  4  0 56.0000000  0  0
 22  1 14  4  0 57.0000000  0  5E04E09E11E12E19
  24075242.936                   126515787.807 0                        49.000  
                  24075240.202    96940672.128          53.000  
  26195926.788                   137660812.26410                        38.000  
                  26195926.412   105480363.026          42.000  
  22655875.832                   119056985.407 0                        46.000  
                  22655870.846    91225484.220          49.000  
  22821983.375                   119930805.619 0                        45.000  
                  22821980.587    91895036.065          50.000  
  24061012.510                   126442113.632 0                        42.000  
                  24061009.848    96884220.698          47.000  
 22  1 14  4  0 58.0000000  0 10G01G03G04G06G09G17G19G21G22G31
  21418040.954    21418038.095   112552875.981 0  87703608.716 0        47.000  
        47.000                                                  
  20299481.823    20299478.446   106674013.673 0  83122613.634 0        50.000  
        48.000                                                  
  20700763.362    20700758.877   108783988.394 0  84766747.059 0        48.000  
        50.000                                                  
  23804067.343    23804064.484   125090529.543 0  97474097.954 0        44.000  
        42.000                                                  
  23031728.697    23031726.071   121032666.813 0  94311169.427 0        45.000  
        45.000                                                  
  22870191.032    22870186.386   120183864.243 0  93649760.477 0        45.000  
        43.000                                                  
  22685532.192                   119213814.03910                        46.000  
                                                                
  23384679.104                   122887204.824 0                        42.000  
                                                                
  21252370.291                   111682550.077 0                        44.000  
                                                                
  22946254.049    22946248.063   120583104.000 0  93960863.573 0        43.000  
        40.000                                                  
 22  1 14  4  0 57.0000000  0  0
 22  1 14  4  0 58.0000000  0  5E04E09E11E12E19
  24075018.233                   126514606.624 0                        49.000  
                  24075015.534    96939767.063          53.000  
  26195427.420                   137658187.99010                        38.000  
                  26195427.009   105478352.216          42.000  
  22655701.841                   119056071.282 0                        46.000  
                  22655696.874    91224783.785          49.000  
  22822372.544                   119932851.056 0                        45.000  
                  22822369.846    91896603.348          50.000  
  24061317.677                   126443717.933 0                        42.000  
                  24061315.069    96885449.968          47.000  
 22  1 14  4  0 59.0000000  0 10G01G03G04G06G09G17G19G21G22G31
  21418576.685    21418573.880   112555691.305 0  87705802.482 0        47.000  
        47.000                                                  
  20299526.156    20299522.761   106674246.471 0  83122795.037 0        49.000  
        48.000                                                  
  20700481.872    20700477.530   108782509.396 0  84765594.600 0        48.000  
        50.000                                                  
  23803437.549    23803434.690   125087219.749 0  97471518.899 0        44.000  
        41.000                                                  
  23031133.176    23031130.478   121029537.238 0  94308730.796 0        45.000  
        45.000                                                  
  22870451.295    22870446.631   120185232.084 0  93650826.319 0        45.000  
        43.000                                                  
  22685576.096                   119214044.55210                        46.000  
                                                                
  23385253.468                   122890222.904 0                        42.000  
                                                                
  21252657.178                   111684057.333 0                        44.000  
                                                                
  22946563.898    22946557.911   120584732.288 0  93962132.371 0        43.000  
        40.000                                                  
 22  1 14  4  0 58.0000000  0  0
 22  1 14  4  0 59.0000000  0  5E04E09E11E12E19
  24074793.530                   126513425.665 0                        49.000  
                  24074790.760    96938862.172          53.000  
  26194927.838                   137655563.78310                        38.000  
                  26194927.623   105476341.452          42.000  
  22655527.976                   119055157.539 0                        46.000  
                  22655523.079    91224083.644          49.000  
  22822761.874                   119934896.792 0                        45.000  
                  22822759.105    91898170.862          50.000  
  24061623.095                   126445322.361 0                        42.000  
                  24061620.432    96886679.348          47.000  
 22  1 14  4  1  0.0000000  0 10G01G03G04G06G09G17G19G21G22G31
  21419112.488    21419109.683   112558506.891 0  87707996.436 0        47.000  
        47.000                                                  
  20299570.561    20299567.112   106674479.484 0  83122976.606 0        50.000  
        48.000                                                  
  20700200.560    20700196.128   108781030.737 0  84764442.402 0        48.000  
        50.000                                                  
  23802807.666    23802804.860   125083910.008 0  97468939.880 0        44.000  
        41.000                                                  
  23030537.727    23030535.082   121026407.763 0  94306292.246 0        45.000  
        45.000                                                  
  22870711.575    22870706.982   120186600.282 0  93651892.441 0        45.000  
        42.000                                                  
  22685620.179                   119214275.62210                        46.000  
                                                                
  23385827.868                   122893241.046 0                        42.000  
                                                                
  21252943.976                   111685564.727 0                        44.000  
                                                                
  22946873.907    22946867.814   120586361.053 0  93963401.550 0        43.000  
        40.000                                                  
 22  1 14  4  0 59.0000000  0  0
 22  1 14  4  1  0.0000000  0  5E04E09E11E12E19
  24074568.773                   126512244.848 0                        49.000  
                  24074566.003    96937957.391          53.000  
  26194428.541                   137652939.50910                        38.000  
                  26194428.184   105474330.658          42.000  
  22655354.038                   119054244.063 0                        46.000  
                  22655349.250    91223383.714          49.000  
  22823151.276                   119936942.728 0                        45.000  
                  22823148.471    91899738.534          50.000  
  24061928.405                   126446926.858 0                        42.000  
                  24061925.778    96887908.761          47.000  
 22  1 14  4  1  1.0000000  0 10G01G03G04G06G09G17G19G21G22G31
  21419648.309    21419645.485   112561322.479 0  87710190.406 0        47.000  
        47.000                                                  
  20299614.804    20299611.356   106674712.415 0  83123158.108 0        50.000  
        48.000                                                  
  20699919.140    20699914.745   108779552.133 0  84763290.237 0        48.000  
        50.000                                                  
  23802177.729    23802175.031   125080600.024 0  97466360.669 0        44.000  
        41.000                                                  
  23029942.224    23029939.490   121023278.095 0  94303853.546 0        45.000  
        45.000                                                  
  22870971.962    22870967.370   120187968.539 0  93652958.625 0        45.000  
        42.000                                                  
  22685664.154                   119214506.94510                        46.000  
                                                                
  23386402.214                   122896258.979 0                        42.000  
                                                                
  21253230.721                   111687071.948 0                        44.000  
                                                                
  22947183.953    22947177.806   120587990.015 0  93964670.855 0        43.000  
        40.000                                                  
 22  1 14  4  1  0.0000000  0  0
 22  1 14  4  1  1.0000000  0  5E04E09E11E12E19
  24074344.267                   126511063.862 0                        49.000  
                  24074341.229    96937052.479          53.000  
  26193929.263                   137650314.89410                        37.000  
                  26193928.745   105472319.587          42.000  
  22655180.298                   119053330.581 0                        46.000  
                  22655175.438    91222683.767          49.000  
  22823540.731                   119938988.593 0                        45.000  
                  22823537.747    91901306.127          50.000  
  24062233.554                   126448531.101 0                        42.000  
                  24062230.999    96889137.982          47.000  
 22  1 14  4  1  2.0000000  0 10G01G03G04G06G09G17G19G21G22G31
  21420184.236    21420181.306   112564138.772 0  87712384.926 0        47.000  
        47.000                                                  
  20299659.173    20299655.760   106674946.003 0  83123340.127 0        50.000  
        48.000                                                  
  20699637.954    20699633.629   108778074.321 0  84762138.697 0        48.000  
        50.000                                                  
  23801547.882    23801545.148   125077290.535 0  97463781.854 0        44.000  
        41.000                                                  
  23029346.721    23029344.058   121020148.999 0  94301415.289 0        45.000  
        45.000                                                  
  22871232.475    22871227.811   120189337.624 0  93654025.448 0        45.000  
        43.000                                                  
  22685708.344                   119214739.26810                        46.000  
                                                                
  23386976.560                   122899277.406 0                        42.000  
                                                                
  21253517.626                   111688579.791 0                        44.000  
                                                                
  22947494.016    22947487.994   120589619.881 0  93965940.895 0        43.000  
        40.000                                                  
 22  1 14  4  1  1.0000000  0  0
 22  1 14  4  1  2.0000000  0  5E04E09E11E12E19
  24074119.635                   126509883.460 0                        49.000  
                  24074116.597    96936148.013          53.000  
  26193429.735                   137647690.68410                        37.000  
                  26193429.395   105470308.831          42.000  
  22655006.557                   119052417.809 0                        46.000  
                  22655001.626    91221984.372          49.000  
  22823930.079                   119941035.104 0                        45.000  
                  22823927.131    91902874.242          50.000  
  24062539.079                   126450135.839 0                        42.000  
                  24062536.363    96890367.582          47.000  
 22  1 14  4  1  3.0000000  0 10G01G03G04G06G09G17G19G21G22G31
  21420720.271    21420717.359   112566955.740 0  87714579.966 0        47.000  
        47.000                                                  
  20299703.774    20299700.254   106675180.189 0  83123522.612 0        50.000  
        48.000                                                  
  20699356.784    20699352.478   108776597.234 0  84760987.716 0        48.000  
        50.000                                                  
  23800918.303    23800915.533   125073981.493 0  97461203.370 0        44.000  
        42.000                                                  
  23028751.343    23028748.609   121017020.389 0  94298977.414 0        45.000  
        45.000                                                  
  22871493.219    22871488.538   120190707.451 0  93655092.848 0        45.000  
        43.000                                                  
  22685752.731                   119214972.53610                        46.000  
                                                                
  23387551.031                   122902296.281 0                        42.000  
                                                                
  21253804.584                   111690088.159 0                        44.000  
                                                                
  22947804.329    22947798.361   120591250.619 0  93967211.597 0        43.000  
        40.000                                                  
 22  1 14  4  1  2.0000000  0  0
 22  1 14  4  1  3.0000000  0  5E04E09E11E12E19
  24073894.932                   126508703.582 0                        49.000  
                  24073892.109    96935243.951          53.000  
  26192930.438                   137645066.80610                        37.000  
                  26192930.027   105468298.329          42.000  
  22654833.013                   119051505.703 0                        46.000  
                  22654828.117    91221285.484          49.000  
  22824319.588                   119943082.213 0                        45.000  
                  22824316.747    91904442.804          50.000  
  24062844.550                   126451741.012 0                        42.000  
                  24062841.869    96891597.517          47.000  
 22  1 14  4  1  4.0000000  0 10G01G03G04G06G09G17G19G21G22G31
  21421256.449    21421253.590   112569773.154 0  87716775.358 0        47.000  
        47.000                                                  
  20299748.429    20299744.873   106675414.775 0  83123705.413 0        50.000  
        48.000                                                  
  20699075.830    20699071.452   108775120.672 0  84759837.153 0        48.000  
        50.000                                                  
  23800288.688    23800286.007   125070672.679 0  97458625.069 0        43.000  
        42.000                                                  
  23028155.965    23028153.410   121013892.056 0  94296539.754 0        45.000  
        45.000                                                  
  22871754.054    22871749.372   120192077.817 0  93656160.662 0        45.000  
        42.000                                                  
  22685797.225                   119215206.54910                        46.000  
                                                                
  23388125.521                   122905315.427 0                        42.000  
                                                                
  21254091.686                   111691596.841 0                        44.000  
                                                                
  22948114.839    22948108.710   120592882.017 0  93968482.793 0        43.000  
        40.000                                                  
 22  1 14  4  1  3.0000000  0  0
 22  1 14  4  1  4.0000000  0  5E04E09E11E12E19
  24073670.497                   126507524.010 0                        49.000  
                  24073667.656    96934340.125          53.000  
  26192431.196                   137642443.06010                        37.000  
                  26192430.767   105466287.915          42.000  
  22654659.577                   119050594.032 0                        46.000  
                  22654654.609    91220586.935          49.000  
  22824709.491                   119945129.713 0                        45.000  
                  22824706.310    91906011.660          50.000  
  24063150.128                   126453346.404 0                        43.000  
                  24063147.197    96892827.630          47.000  
 22  1 14  4  1  5.0000000  0 10G01G03G04G06G09G17G19G21G22G31
  21421792.609    21421789.893   112572591.152 0  87718971.191 0        47.000  
        47.000                                                  
  20299793.209    20299789.635   106675649.883 0  83123888.609 0        50.000  
        48.000                                                  
  20698795.090    20698790.569   108773644.756 0  84758687.088 0        48.000  
        49.000                                                  
  23799659.162    23799656.410   125067364.218 0  97456047.056 0        44.000  
        42.000                                                  
  23027560.819    23027558.175   121010764.151 0  94294102.430 0        45.000  
        45.000                                                  
  22872014.923    22872010.242   120193448.850 0  93657229.004 0        45.000  
        43.000                                                  
  22685841.915                   119215441.39310                        46.000  
                                                                
  23388700.224                   122908334.936 0                        42.000  
                                                                
  21254378.895                   111693105.993 0                        44.000  
                                                                
  22948425.385    22948419.363   120594514.204 0  93969754.643 0        43.000  
        40.000                                                  
 22  1 14  4  1  4.0000000  0  0
 22  1 14  4  1  5.0000000  0  5E04E09E11E12E19
  24073446.062                   126506344.884 0                        49.000  
                  24073443.293    96933436.644          53.000  
  26191931.721                   137639819.56410                        37.000  
                  26191931.578   105464277.710          42.000  
  22654486.158                   119049682.959 0                        46.000  
                  22654481.190    91219888.840          49.000  
  22825099.053                   119947177.723 0                        45.000  
                  22825096.087    91907580.913          50.000  
  24063455.492                   126454952.146 0                        43.000  
                  24063452.776    96894058.010          47.000  
 22  1 14  4  1  6.0000000  0 10G01G03G04G06G09G17G19G21G22G31
  21422328.930    21422326.143   112575409.419 0  87721167.240 0        47.000  
        47.000                                                  
  20299837.845    20299834.379   106675885.217 0  83124071.980 0        50.000  
        48.000                                                  
  20698514.260    20698509.739   108772169.186 0  84757537.298 0        48.000  
        49.000                                                  
  23799029.600    23799026.831   125064055.830 0  97453469.087 0        43.000  
        42.000                                                  
  23026965.548    23026962.993   121007636.364 0  94291665.186 0        45.000  
        45.000                                                  
  22872275.936    22872271.237   120194820.271 0  93658297.636 0        45.000  
        43.000                                                  
  22685886.731                   119215676.80910                        46.000  
                                                                
  23389274.892                   122911354.513 0                        42.000  
                                                                
  21254666.157                   111694615.300 0                        44.000  
                                                                
  22948735.931    22948729.998   120596146.864 0  93971026.839 0        43.000  
        40.000                                                  
 22  1 14  4  1  5.0000000  0  0
 22  1 14  4  1  6.0000000  0  5E04E09E11E12E19
  24073221.770                   126505165.899 0                        49.000  
                  24073218.911    96932533.261          53.000  
  26191432.478                   137637196.03810                        37.000  
                  26191432.282   105462267.483          42.000  
  22654312.846                   119048772.162 0                        46.000  
                  22654307.914    91219190.959          49.000  
  22825488.937                   119949225.938 0                        45.000  
                  22825485.864    91909150.336          50.000  
  24063761.284                   126456557.964 0                        43.000  
                  24063758.443    96895288.433          47.000  
 22  1 14  4  1  7.0000000  0 10G01G03G04G06G09G17G19G21G22G31
  21422865.215    21422862.481   112578227.966 0  87723363.510 0        47.000  
        47.000                                                  
  20299882.572    20299879.319   106676120.765 0  83124255.524 0        50.000  
        48.000                                                  
  20698233.556    20698229.035   108770693.969 0  84756387.774 0        48.000  
        49.000                                                  
  23798400.075    23798397.234   125060747.491 0  97450891.156 0        43.000  
        42.000                                                  
  23026370.367    23026367.812   121004508.661 0  94289228.015 0        45.000  
        45.000                                                  
  22872536.967    22872532.214   120196192.037 0  93659366.541 0        45.000  
        43.000                                                  
  22685931.671                   119215912.76310                        46.000  
                                                                
  23389849.613                   122914374.154 0                        42.000  
                                                                
  21254953.419                   111696124.742 0                        44.000  
                                                                
  22949046.780    22949040.812   120597779.999 0  93972299.402 0        43.000  
        40.000                                                  
 22  1 14  4  1  6.0000000  0  0
 22  1 14  4  1  7.0000000  0  5E04E09E11E12E19
  24072997.407                   126503987.058 0                        49.000  
                  24072994.673    96931629.991          53.000  
  26190933.146                   137634572.45910                        37.000  
                  26190933.128   105460257.190          42.000  
  22654139.481                   119047861.641 0                        46.000  
                  22654134.621    91218493.282          49.000  
  22825878.625                   119951274.377 0                        45.000  
                  22825875.677    91910719.905          50.000  
  24064066.862                   126458163.815 0                        43.000  
                  24064064.146    96896518.893          47.000  
 22  1 14  4  1  8.0000000  0 10G01G03G04G06G09G17G19G21G22G31
  21423401.679    21423399.034   112581047.214 0  87725560.333 0        47.000  
        47.000                                                  
  20299927.566    20299924.260   106676356.956 0  83124439.569 0        50.000  
        48.000                                                  
  20697952.976    20697948.402   108769219.520 0  84755238.848 0        48.000  
        49.000                                                  
  23797770.442    23797767.869   125057439.643 0  97448313.622 0        43.000  
        41.000                                                  
  23025775.329    23025772.720   121001381.528 0  94286791.286 0        45.000  
        45.000                                                  
  22872798.123    22872793.477   120197564.599 0  93660436.065 0        45.000  
        43.000                                                  
  22685976.755                   119216149.70510                        46.000  
                                                                
  23390424.353                   122917394.309 0                        42.000  
                                                                
  21255240.592                   111697634.765 0                        44.000  
                                                                
  22949357.630    22949351.662   120599414.043 0  93973572.695 0        43.000  
        40.000                                                  
 22  1 14  4  1  7.0000000  0  0
 22  1 14  4  1  8.0000000  0  5E04E09E11E12E19
  24072773.204                   126502808.766 0                        49.000  
                  24072770.506    96930727.141          53.000  
  26190434.011                   137631949.25010                        37.000  
                  26190433.957   105458247.210          42.000  
  22653966.348                   119046951.830 0                        46.000  
                  22653961.523    91217796.159          49.000  
  22826268.634                   119953323.453 0                        45.000  
                  22826265.614    91912289.983          50.000  
  24064372.583                   126459770.150 0                        43.000  
                  24064369.778    96897749.709          47.000  
 22  1 14  4  1  9.0000000  0 10G01G03G04G06G09G17G19G21G22G31
  21423938.179    21423935.570   112583866.579 0  87727757.236 0        47.000  
        47.000                                                  
  20299972.560    20299969.254   106676593.202 0  83124623.661 0        50.000  
        48.000                                                  
  20697672.450    20697667.876   108767745.247 0  84754090.064 0        48.000  
        49.000                                                  
  23797141.041    23797138.397   125054131.669 0  97445735.975 0        43.000  
        41.000                                                  
  23025180.272    23025177.663   120998254.319 0  94284354.495 0        45.000  
        45.000                                                  
  22873059.368    22873054.740   120198937.366 0  93661505.754 0        45.000  
        43.000                                                  
  22686021.910                   119216387.04910                        46.000  
                                                                
  23390999.092                   122920414.349 0                        42.000  
                                                                
  21255527.909                   111699144.768 0                        44.000  
                                                                
  22949668.658    22949662.690   120601048.411 0  93974846.226 0        43.000  
        40.000                                                  
 22  1 14  4  1  8.0000000  0  0
 22  1 14  4  1  9.0000000  0  5E04E09E11E12E19
  24072548.984                   126501630.455 0                        49.000  
                  24072546.250    96929824.284          53.000  
  26189934.679                   137629325.84110                        37.000  
                  26189934.643   105456237.054          42.000  
  22653793.251                   119046042.136 0                        46.000  
                  22653788.462    91217099.112          49.000  
  22826658.483                   119955372.563 0                        45.000  
                  22826655.534    91913860.083          50.000  
  24064678.180                   126461376.367 0                        43.000  
                  24064675.463    96898980.454          47.000  
 22  1 14  4  1 10.0000000  0 10G01G03G04G06G09G17G19G21G22G31
  21424474.642    21424472.212   112586686.123 0  87729954.275 0        47.000  
        47.000                                                  
  20300017.590    20300014.284   106676829.569 0  83124807.834 0        50.000  
        49.000                                                  
  20697391.925    20697387.439   108766271.221 0  84752941.472 0        48.000  
        49.000                                                  
  23796511.569    23796508.942   125050823.665 0  97443158.307 0        43.000  
        41.000                                                  
  23024585.270    23024582.482   120995127.121 0  94281917.729 0        45.000  
        45.000                                                  
  22873320.666    22873316.038   120200310.404 0  93662575.650 0        45.000  
        43.000                                                  
  22686067.297                   119216624.84510                        46.000  
                                                                
  23391573.867                   122923434.366 0                        42.000  
                                                                
  21255815.332                   111700654.829 0                        44.000  
                                                                
  22949979.829    22949973.807   120602683.148 0  93976120.040 0        43.000  
        40.000                                                  
 22  1 14  4  1  9.0000000  0  0
 22  1 14  4  1 10.0000000  0  5E04E09E11E12E19
  24072324.710                   126500452.195 0                        49.000  
                  24072321.994    96928921.455          53.000  
  26189435.329                   137626702.29210                        37.000  
                  26189435.383   105454226.804          42.000  
  22653620.297                   119045132.604 0                        46.000  
                  22653615.436    91216402.202          49.000  
  22827048.635                   119957421.800 0                        45.000  
                  22827045.436    91915430.266          50.000  
  24064983.722                   126462982.525 0                        43.000  
                  24064980.988    96900211.151          47.000  
 22  1 14  4  1 11.0000000  0 10G01G03G04G06G09G17G19G21G22G31
  21425011.321    21425008.783   112589506.331 0  87732151.846 0        47.000  
        47.000                                                  
  20300062.763    20300059.314   106677066.538 0  83124992.496 0        50.000  
        48.000                                                  
  20697111.613    20697107.021   108764797.937 0  84751793.459 0        48.000  
        49.000                                                  
  23795882.026    23795879.488   125047516.119 0  97440581.005 0        43.000  
        42.000                                                  
  23023990.267    23023987.354   120992000.437 0  94279481.345 0        45.000  
        45.000                                                  
  22873582.126    22873577.373   120201684.186 0  93663646.133 0        45.000  
        43.000                                                  
  22686112.738                   119216863.58810                        46.000  
                                                                
  23392148.517                   122926454.847 0                        42.000  
                                                                
  21256102.826                   111702165.410 0                        44.000  
                                                                
  22950291.126    22950284.961   120604318.760 0  93977394.564 0        43.000  
        40.000                                                  
 22  1 14  4  1 10.0000000  0  0
 22  1 14  4  1 11.0000000  0  5E04E09E11E12E19
  24072100.704                   126499274.440 0                        49.000  
                  24072097.952    96928019.023          53.000  
  26188936.229                   137624079.07410                        37.000  
                  26188936.176   105452216.811          42.000  
  22653447.503                   119044223.752 0                        46.000  
                  22653442.428    91215705.805          49.000  
  22827438.644                   119959471.624 0                        45.000  
                  22827435.481    91917000.917          50.000  
  24065289.568                   126464589.133 0                        43.000  
                  24065286.745    96901442.191          47.000  
 22  1 14  4  1 12.0000000  0 10G01G03G04G06G09G17G19G21G22G31
  21425548.017    21425545.569   112592327.104 0  87734349.844 0        47.000  
        47.000                                                  
  20300108.007    20300104.523   106677304.017 0  83125177.540 0        50.000  
        48.000                                                  
  20696831.284    20696826.799   108763325.284 0  84750645.935 0        48.000  
        49.000                                                  
  23795252.571    23795250.231   125044208.908 0  97438003.942 0        43.000  
        42.000                                                  
  23023395.300    23023392.548   120988874.143 0  94277045.272 0        45.000  
        45.000                                                  
  22873843.782    22873838.993   120203058.635 0  93664717.132 0        45.000  
        43.000                                                  
  22686158.376                   119217103.18610                        46.000  
                                                                
  23392723.417                   122929475.688 0                        42.000  
                                                                
  21256390.464                   111703676.442 0                        44.000  
                                                                
  22950602.583    22950596.328   120605955.152 0  93978669.647 0        43.000  
        40.000                                                  
 22  1 14  4  1 11.0000000  0  0
 22  1 14  4  1 12.0000000  0  5E04E09E11E12E19
  24071876.680                   126498097.124 0                        49.000  
                  24071873.892    96927116.918          53.000  
  26188437.219                   137621456.09610                        37.000  
                  26188436.987   105450206.981          42.000  
  22653274.567                   119043315.452 0                        46.000  
                  22653269.545    91215009.833          49.000  
  22827828.850                   119961521.961 0                        45.000  
                  22827825.669    91918571.943          50.000  
  24065595.343                   126466196.081 0                        43.000  
                  24065592.591    96902673.482          47.000  
 22  1 14  4  1 13.0000000  0 10G01G03G04G06G09G17G19G21G22G31
  21426085.017    21426082.443   112595148.700 0  87736548.502 0        47.000  
        47.000                                                  
  20300153.305    20300149.874   106677542.270 0  83125363.190 0        50.000  
        48.000                                                  
  20696551.241    20696546.738   108761853.520 0  84749499.115 0        48.000  
        49.000                                                  
  23794623.242    23794621.044   125040902.307 0  97435427.383 0        43.000  
        42.000                                                  
  23022800.494    23022797.724   120985748.501 0  94274609.713 0        45.000  
        45.000                                                  
  22874105.510    22874100.774   120204433.982 0  93665788.837 0        45.000  
        42.000                                                  
  22686204.174                   119217343.84910                        46.000  
                                                                
  23393298.406                   122932497.146 0                        42.000  
                                                                
  21256678.138                   111705188.158 0                        44.000  
                                                                
  22950914.075    22950907.857   120607592.548 0  93979945.563 0        42.000  
        39.000                                                  
 22  1 14  4  1 12.0000000  0  0
 22  1 14  4  1 13.0000000  0  5E04E09E11E12E19
  24071652.638                   126496920.484 0                        49.000  
                  24071649.940    96926215.345          53.000  
  26187938.101                   137618833.61810                        37.000  
                  26187938.048   105448197.563          42.000  
  22653101.720                   119042407.989 0                        46.000  
                  22653096.895    91214314.512          49.000  
  22828219.056                   119963573.044 0                        45.000  
                  22828215.982    91920143.559          50.000  
  24065901.261                   126467803.616 0                        43.000  
                  24065898.419    96903905.236          47.000  
 22  1 14  4  1 14.0000000  0 10G01G03G04G06G09G17G19G21G22G31
  21426621.838    21426619.408   112597970.184 0  87738747.060 0        47.000  
        47.000                                                  
  20300198.621    20300195.244   106677780.351 0  83125548.710 0        50.000  
        48.000                                                  
  20696271.144    20696266.659   108760381.724 0  84748352.258 0        48.000  
        49.000                                                  
  23793993.931    23793991.787   125037595.374 0  97432850.562 0        43.000  
        42.000                                                  
  23022205.580    23022202.936   120982622.586 0  94272173.937 0        45.000  
        45.000                                                  
  22874367.273    22874362.395   120205809.311 0  93666860.511 0        45.000  
        42.000                                                  
  22686249.883                   119217584.68510                        46.000  
                                                                
  23393873.253                   122935518.284 0                        42.000  
                                                                
  21256965.811                   111706699.652 0                        44.000  
                                                                
  22951225.658    22951219.386   120609230.046 0  93981221.536 0        43.000  
        40.000                                                  
 22  1 14  4  1 13.0000000  0  0
 22  1 14  4  1 14.0000000  0  5E04E09E11E12E19
  24071428.703                   126495743.611 0                        49.000  
                  24071425.987    96925313.581          53.000  
  26187438.984                   137616210.73210                        37.000  
                  26187439.037   105446187.819          42.000  
  22652929.087                   119041500.414 0                        46.000  
                  22652924.191    91213619.102          49.000  
  22828609.190                   119965623.956 0                        45.000  
                  22828606.260    91921715.044          50.000  
  24066207.160                   126469410.837 0                        43.000  
                  24066204.337    96905136.736          47.000  
 22  1 14  4  1 15.0000000  0 10G01G03G04G06G09G17G19G21G22G31
  21427158.891    21427156.336   112600792.020 0  87740945.891 0        47.000  
        47.000                                                  
  20300243.990    20300240.613   106678018.710 0  83125734.449 0        50.000  
        48.000                                                  
  20695991.154    20695986.597   108758910.345 0  84747205.727 0        47.000  
        49.000                                                  
  23793364.709    23793362.404   125034288.565 0  97430273.825 0        43.000  
        42.000                                                  
  23021610.756    23021608.058   120979496.858 0  94269738.299 0        45.000  
        45.000                                                  
  22874629.090    22874624.158   120207185.068 0  93667932.525 0        45.000  
        42.000                                                  
  22686295.824                   119217826.17810                        46.000  
                                                                
  23394448.135                   122938539.574 0                        42.000  
                                                                
  21257253.538                   111708211.368 0                        44.000  
                                                                
  22951537.454    22951531.111   120610868.111 0  93982497.943 0        43.000  
        40.000                                                  
 22  1 14  4  1 14.0000000  0  0
 22  1 14  4  1 15.0000000  0  5E04E09E11E12E19
  24071204.715                   126494566.930 0                        49.000  
                  24071202.142    96924411.970          53.000  
  26186939.795                   137613587.85110                        37.000  
                  26186939.830   105444178.075          42.000  
  22652756.544                   119040593.208 0                        46.000  
                  22652751.487    91212923.964          49.000  
  22828999.468                   119967675.144 0                        45.000  
                  22828996.627    91923286.736          50.000  
  24066512.989                   126471018.172 0                        43.000  
                  24066510.165    96906368.326          47.000  
 22  1 14  4  1 16.0000000  0 10G01G03G04G06G09G17G19G21G22G31
  21427695.998    21427693.515   112603614.369 0  87743145.125 0        47.000  
        47.000                                                  
  20300289.503    20300286.018   106678257.539 0  83125920.552 0        50.000  
        48.000                                                  
  20695711.361    20695706.661   108757439.550 0  84746059.664 0        47.000  
        49.000                                                  
  23792735.541    23792733.218   125030982.072 0  97427697.330 0        43.000  
        41.000                                                  
  23021016.039    23021013.377   120976371.491 0  94267302.950 0        45.000  
        45.000                                                  
  22874891.050    22874886.082   120208561.430 0  93669005.010 0        45.000  
        43.000                                                  
  22686341.926                   119218068.46710                        46.000  
                                                                
  23395023.071                   122941561.170 0                        42.000  
                                                                
  21257541.211                   111709723.489 0                        44.000  
                                                                
  22951849.269    22951842.925   120612506.880 0  93983774.913 0        43.000  
        40.000                                                  
 22  1 14  4  1 15.0000000  0  0
 22  1 14  4  1 16.0000000  0  5E04E09E11E12E19
  24070981.066                   126493390.647 0                        49.000  
                  24070978.189    96923510.661          53.000  
  26186440.677                   137610965.16710                        37.000  
                  26186440.802   105442168.480          42.000  
  22652583.840                   119039686.520 0                        46.000  
                  22652578.926    91212229.224          49.000  
  22829389.906                   119969726.802 0                        45.000  
                  22829387.100    91924858.774          50.000  
  24066818.978                   126472625.792 0                        43.000  
                  24066816.101    96907600.146          47.000  
 22  1 14  4  1 17.0000000  0 10G01G03G04G06G09G17G19G21G22G31
  21428233.088    21428230.657   112606437.279 0  87745344.790 0        47.000  
        47.000                                                  
  20300334.979    20300331.584   106678496.870 0  83126107.039 0        50.000  
        48.000                                                  
  20695431.532    20695426.922   108755969.394 0  84744914.074 0        47.000  
        49.000                                                  
  23792106.498    23792104.085   125027675.894 0  97425121.094 0        43.000  
        41.000                                                  
  23020421.466    23020418.606   120973246.506 0  94264867.885 0        45.000  
        45.000                                                  
  22875153.206    22875148.060   120209938.429 0  93670078.001 0        45.000  
        42.000                                                  
  22686388.207                   119218311.58310                        45.000  
                                                                
  23395598.185                   122944583.130 0                        42.000  
                                                                
  21257829.063                   111711236.001 0                        44.000  
                                                                
  22952161.333    22952154.900   120614146.421 0  93985052.461 0        43.000  
        40.000                                                  
 22  1 14  4  1 16.0000000  0  0
 22  1 14  4  1 17.0000000  0  5E04E09E11E12E19
  24070757.293                   126492214.773 0                        49.000  
                  24070754.559    96922609.662          53.000  
  26185941.667                   137608342.70710                        37.000  
                  26185941.738   105440159.073          42.000  
  22652411.439                   119038780.368 0                        46.000  
                  22652406.632    91211534.900          49.000  
  22829780.541                   119971778.944 0                        45.000  
                  22829777.431    91926431.190          50.000  
  24067124.842                   126474233.738 0                        43.000  
                  24067122.162    96908832.203          47.000  
 22  1 14  4  1 18.0000000  0 10G01G03G04G06G09G17G19G21G22G31
  21428770.213    21428767.907   112609260.547 0  87747544.746 0        47.000  
        47.000                                                  
  20300380.563    20300377.222   106678736.491 0  83126293.752 0        50.000  
        48.000                                                  
  20695151.846    20695147.200   108754499.646 0  84743768.821 0        47.000  
        49.000                                                  
  23791477.437    23791474.899   125024369.862 0  97422544.947 0        43.000  
        41.000                                                  
  23019826.820    23019823.890   120970121.709 0  94262432.999 0        45.000  
        45.000                                                  
  22875415.238    22875410.127   120211315.873 0  93671151.327 0        45.000  
        42.000                                                  
  22686434.595                   119218555.31010                        46.000  
                                                                
  23396173.192                   122947605.212 0                        42.000  
                                                                
  21258117.023                   111712748.765 0                        44.000  
                                                                
  22952473.380    22952467.054   120615786.502 0  93986330.439 0        43.000  
        40.000                                                  
 22  1 14  4  1 17.0000000  0  0
 22  1 14  4  1 18.0000000  0  5E04E09E11E12E19
  24070533.537                   126491039.110 0                        49.000  
                  24070530.767    96921708.833          53.000  
  26185442.603                   137605720.28410                        37.000  
                  26185442.799   105438149.695          42.000  
  22652239.110                   119037874.574 0                        46.000  
                  22652234.179    91210840.848          49.000  
  22830170.997                   119973831.365 0                        45.000  
                  22830168.048    91928003.826          50.000  
  24067430.920                   126475841.821 0                        43.000  
                  24067428.026    96910064.369          47.000  
 22  1 14  4  1 19.0000000  0 10G01G03G04G06G09G17G19G21G22G31
  21429307.409    21429305.300   112612084.302 0  87749745.066 0        47.000  
        47.000                                                  
  20300426.326    20300422.931   106678976.547 0  83126480.822 0        49.000  
        48.000                                                  
  20694872.339    20694867.657   108753030.467 0  84742624.006 0        47.000  
        49.000                                                  
  23790848.340    23790845.749   125021064.100 0  97419969.036 0        43.000  
        41.000                                                  
  23019232.246    23019229.244   120966997.249 0  94259998.339 0        45.000  
        45.000                                                  
  22875677.430    22875672.391   120212693.896 0  93672225.111 0        45.000  
        42.000                                                  
  22686481.144                   119218799.82310                        46.000  
                                                                
  23396748.307                   122950627.600 0                        42.000  
                                                                
  21258404.928                   111714261.887 0                        44.000  
                                                                
  22952785.516    22952779.208   120617427.284 0  93987608.991 0        42.000  
        40.000                                                  
 22  1 14  4  1 18.0000000  0  0
 22  1 14  4  1 19.0000000  0  5E04E09E11E12E19
  24070309.709                   126489863.801 0                        49.000  
                  24070307.190    96920808.277          53.000  
  26184943.521                   137603098.04310                        37.000  
                  26184943.646   105436140.439          42.000  
  22652066.835                   119036969.279 0                        46.000  
                  22652061.814    91210147.187          49.000  
  22830561.667                   119975884.214 0                        45.000  
                  22830558.790    91929576.791          50.000  
  24067736.981                   126477450.166 0                        43.000  
                  24067734.193    96911296.737          47.000  
 22  1 14  4  1 20.0000000  0 10G01G03G04G06G09G17G19G21G22G31
  21429844.802    21429842.747   112614908.747 0  87751945.939 0        47.000  
        47.000                                                  
  20300472.124    20300468.801   106679217.251 0  83126668.377 0        50.000  
        48.000                                                  
  20694592.903    20694588.203   108751562.049 0  84741479.789 0        47.000  
        49.000                                                  
  23790219.422    23790216.848   125017758.823 0  97417393.499 0        43.000  
        42.000                                                  
  23018637.815    23018634.760   120963873.300 0  94257564.111 0        45.000  
        45.000                                                  
  22875939.854    22875934.815   120214072.706 0  93673299.506 0        45.000  
        42.000                                                  
  22686527.889                   119219045.30110                        46.000  
                                                                
  23397323.547                   122953650.452 0                        42.000  
                                                                
  21258692.870                   111715775.566 0                        44.000  
                                                                
  22953097.956    22953091.612   120619068.961 0  93988888.216 0        43.000  
        40.000                                                  
 22  1 14  4  1 19.0000000  0  0
 22  1 14  4  1 20.0000000  0  5E04E09E11E12E19
  24070086.347                   126488689.051 0                        49.000  
                  24070083.559    96919908.139          53.000  
  26184444.511                   137600476.19310                        37.000  
                  26184444.743   105434131.475          42.000  
  22651894.596                   119036064.671 0                        46.000  
                  22651889.771    91209454.044          49.000  
  22830952.337                   119977937.688 0                        45.000  
                  22830949.478    91931150.235          50.000  
  24068043.256                   126479058.957 0                        43.000  
                  24068040.361    96912529.458          47.000  
 22  1 14  4  1 21.0000000  0 10G01G03G04G06G09G17G19G21G22G31
  21430382.284    21430380.301   112617733.427 0  87754146.988 0        47.000  
        47.000                                                  
  20300517.869    20300514.581   106679458.116 0  83126856.064 0        50.000  
        48.000                                                  
  20694313.539    20694308.857   108750093.941 0  84740335.806 0        47.000  
        49.000                                                  
  23789590.468    23789587.770   125014453.560 0  97414817.963 0        43.000  
        41.000                                                  
  23018043.331    23018040.257   120960749.424 0  94255129.920 0        45.000  
        45.000                                                  
  22876202.332    22876197.222   120215451.841 0  93674374.166 0        45.000  
        42.000                                                  
  22686574.670                   119219291.29910                        46.000  
                                                                
  23397898.786                   122956673.374 0                        42.000  
                                                                
  21258980.829                   111717289.366 0                        44.000  
                                                                
  22953410.467    22953403.927   120620711.081 0  93990167.799 0        43.000  
        40.000                                                  
 22  1 14  4  1 20.0000000  0  0
 22  1 14  4  1 21.0000000  0  5E04E09E11E12E19
  24069862.805                   126487514.391 0                        49.000  
                  24069860.017    96919008.075          53.000  
  26183945.465                   137597854.21010                        37.000  
                  26183945.751   105432122.440          42.000  
  22651722.410                   119035160.318 0                        46.000  
                  22651717.692    91208761.098          49.000  
  22831343.240                   119979991.338 0                        45.000  
                  22831340.328    91932723.815          50.000  
  24068349.245                   126480667.801 0                        43.000  
                  24068346.476    96913762.200          47.000  
 22  1 14  4  1 22.0000000  0 10G01G03G04G06G09G17G19G21G22G31
  21430919.856    21430917.926   112620558.323 0  87756348.208 0        47.000  
        47.000                                                  
  20300563.739    20300560.469   106679699.140 0  83127043.866 0        50.000  
        48.000                                                  
  20694034.156    20694029.528   108748626.101 0  84739192.035 0        47.000  
        49.000                                                  
  23788961.478    23788958.869   125011148.270 0  97412242.422 0        43.000  
        41.000                                                  
  23017448.936    23017445.737   120957625.613 0  94252695.772 0        45.000  
        45.000                                                  
  22876464.918    22876459.718   120216831.269 0  93675449.029 0        45.000  
        42.000                                                  
  22686621.594                   119219537.78610                        46.000  
                                                                
  23398474.097                   122959696.255 0                        42.000  
                                                                
  21259268.985                   111718803.236 0                        44.000  
                                                                
  22953722.996    22953716.403   120622353.615 0  93991447.671 0        43.000  
        40.000                                                  
 22  1 14  4  1 21.0000000  0  0
 22  1 14  4  1 22.0000000  0  5E04E09E11E12E19
  24069639.371                   126486339.799 0                        49.000  
                  24069636.512    96918108.060          53.000  
  26183446.526                   137595232.15710                        37.000  
                  26183446.705   105430113.312          42.000  
  22651550.367                   119034256.164 0                        46.000  
                  22651545.560    91208068.298          49.000  
  22831734.179                   119982045.135 0                        45.000  
                  22831731.052    91934297.490          50.000  
  24068655.413                   126482276.588 0                        43.000  
                  24068652.590    96914994.909          47.000  
 22  1 14  4  1 23.0000000  0 10G01G03G04G06G09G17G19G21G22G31
  21431457.589    21431455.462   112623383.634 0  87758549.742 0        47.000  
        47.000                                                  
  20300609.644    20300606.356   106679940.534 0  83127231.967 0        50.000  
        48.000                                                  
  20693754.882    20693750.218   108747158.762 0  84738048.649 0        47.000  
        49.000                                                  
  23788332.453    23788329.862   125007843.201 0  97409667.046 0        43.000  
        41.000                                                  
  23016854.505    23016851.270   120954502.045 0  94250261.823 0        45.000  
        45.000                                                  
  22876727.574    22876722.339   120218211.220 0  93676524.322 0        45.000  
        42.000                                                  
  22686668.590                   119219784.96110                        46.000  
                                                                
  23399049.408                   122962719.359 0                        42.000  
                                                                
  21259557.052                   111720317.412 0                        44.000  
                                                                
  22954035.722    22954029.004   120623996.766 0  93992728.057 0        43.000  
        40.000                                                  
 22  1 14  4  1 22.0000000  0  0
 22  1 14  4  1 23.0000000  0  5E04E09E11E12E19
  24069415.829                   126485165.503 0                        49.000  
                  24069413.113    96917208.271          53.000  
  26182947.533                   137592610.15410                        37.000  
                  26182947.837   105428104.262          42.000  
  22651378.485                   119033352.442 0                        46.000  
                  22651373.624    91207375.843          49.000  
  22832125.010                   119984099.267 0                        45.000  
                  22832122.008    91935871.449          50.000  
  24068961.599                   126483885.579 0                        43.000  
                  24068958.722    96916227.786          47.000  
 22  1 14  4  1 24.0000000  0 10G01G03G04G06G09G17G19G21G22G31
  21431995.196    21431993.266   112626209.508 0  87760751.717 0        47.000  
        47.000                                                  
  20300655.746    20300652.441   106680182.420 0  83127420.450 0        50.000  
        49.000                                                  
  20693475.696    20693471.121   108745692.052 0  84736905.753 0        47.000  
        49.000                                                  
  23787703.481    23787700.979   125004538.475 0  97407091.930 0        43.000  
        41.000                                                  
  23016260.110    23016256.875   120951378.874 0  94247828.183 0        45.000  
        45.000                                                  
  22876990.231    22876985.049   120219591.819 0  93677600.112 0        45.000  
        42.000                                                  
  22686715.943                   119220033.01610                        46.000  
                                                                
  23399624.719                   122965742.830 0                        42.000  
                                                                
  21259845.172                   111721832.039 0                        44.000  
                                                                
  22954348.466    22954341.783   120625640.685 0  93994009.026 0        43.000  
        40.000                                                  
 22  1 14  4  1 23.0000000  0  0
 22  1 14  4  1 24.0000000  0  5E04E09E11E12E19
  24069192.431                   126483991.621 0                        49.000  
                  24069189.679    96916308.805          53.000  
  26182448.487                   137589988.43610                        37.000  
                  26182448.952   105426095.393          42.000  
  22651206.710                   119032449.281 0                        46.000  
                  22651201.796    91206683.805          49.000  
  22832515.895                   119986153.906 0                        45.000  
                  22832512.893    91937445.776          50.000  
  24069267.838                   126485494.915 0                        43.000  
                  24069264.997    96917460.900          47.000  
 22  1 14  4  1 25.0000000  0 10G01G03G04G06G09G17G19G21G22G31
  21432532.911    21432531.177   112629035.792 0  87762954.017 0        47.000  
        47.000                                                  
  20300701.795    20300698.596   106680424.659 0  83127609.216 0        50.000  
        48.000                                                  
  20693196.671    20693192.025   108744225.816 0  84735763.239 0        47.000  
        49.000                                                  
  23787074.634    23787072.043   125001233.931 0  97404516.963 0        43.000  
        41.000                                                  
  23015665.804    23015662.730   120948255.934 0  94245394.733 0        45.000  
        45.000                                                  
  22877252.995    22877247.813   120220972.908 0  93678676.287 0        45.000  
        42.000                                                  
  22686763.278                   119220281.72810                        46.000  
                                                                
  23400200.102                   122968766.482 0                        42.000  
                                                                
  21260133.435                   111723346.910 0                        44.000  
                                                                
  22954661.335    22954654.741   120627285.217 0  93995290.495 0        43.000  
        40.000                                                  
 22  1 14  4  1 24.0000000  0  0
 22  1 14  4  1 25.0000000  0  5E04E09E11E12E19
  24068969.104                   126482818.009 0                        49.000  
                  24068966.423    96915409.555          53.000  
  26181949.674                   137587366.77310                        37.000  
                  26181949.852   105424086.586          42.000  
  22651034.845                   119031546.518 0                        46.000  
                  22651029.985    91205992.085          49.000  
  22832906.976                   119988208.903 0                        45.000  
                  22832903.992    91939020.382          50.000  
  24069574.256                   126487104.431 0                        43.000  
                  24069571.254    96918694.170          47.000  
 22  1 14  4  1 26.0000000  0 10G01G03G04G06G09G17G19G21G22G31
  21433070.804    21433069.089   112631862.634 0  87765156.758 0        47.000  
        47.000                                                  
  20300747.933    20300744.806   106680667.399 0  83127798.363 0        50.000  
        49.000                                                  
  20692917.771    20692913.251   108742760.227 0  84734621.221 0        47.000  
        49.000                                                  
  23786445.895    23786443.179   124997929.742 0  97401942.273 0        43.000  
        41.000                                                  
  23015071.623    23015068.478   120945133.419 0  94242961.602 0        45.000  
        45.000                                                  
  22877516.027    22877510.756   120222354.661 0  93679752.978 0        45.000  
        42.000                                                  
  22686810.863                   119220531.29410                        46.000  
                                                                
  23400775.609                   122971790.502 0                        42.000  
                                                                
  21260421.877                   111724862.256 0                        44.000  
                                                                
  22954974.293    22954967.770   120628930.518 0  93996572.553 0        42.000  
        40.000                                                  
 22  1 14  4  1 25.0000000  0  0
 22  1 14  4  1 26.0000000  0  5E04E09E11E12E19
  24068745.759                   126481644.828 0                        49.000  
                  24068743.168    96914510.617          53.000  
  26181450.860                   137584745.36310                        37.000  
                  26181451.021   105422077.996          42.000  
  22650863.106                   119030644.316 0                        46.000  
                  22650858.246    91205300.794          49.000  
  22833298.165                   119990264.393 0                        45.000  
                  22833295.234    91940595.363          50.000  
  24069880.460                   126488714.290 0                        43.000  
                  24069877.654    96919927.700          47.000  
 22  1 14  4  1 27.0000000  0 10G01G03G04G06G09G17G19G21G22G31
  21433608.822    21433607.071   112634690.028 0  87767359.915 0        47.000  
        47.000                                                  
  20300794.195    20300791.051   106680910.639 0  83127987.895 0        50.000  
        49.000                                                  
  20692638.907    20692634.458   108741295.247 0  84733479.679 0        47.000  
        49.000                                                  
  23785817.138    23785814.547   124994625.891 0  97399367.831 0        43.000  
        41.000                                                  
  23014477.442    23014474.333   120942011.281 0  94240528.771 0        45.000  
        45.000                                                  
  22877779.149    22877773.770   120223737.053 0  93680830.160 0        45.000  
        42.000                                                  
  22686858.538                   119220781.67910                        46.000  
                                                                
  23401351.117                   122974814.871 0                        42.000  
                                                                
  21260710.283                   111726377.987 0                        44.000  
                                                                
  22955287.465    22955281.014   120630576.591 0  93997855.198 0        42.000  
        40.000                                                  
 22  1 14  4  1 26.0000000  0  0
 22  1 14  4  1 27.0000000  0  5E04E09E11E12E19
  24068522.664                   126480472.067 0                        49.000  
                  24068520.073    96913612.006          53.000  
  26180951.975                   137582124.17610                        37.000  
                  26180952.189   105420069.551          42.000  
  22650691.385                   119029742.680 0                        46.000  
                  22650686.739    91204609.921          49.000  
  22833689.157                   119992320.356 0                        45.000  
                  22833686.441    91942170.716          50.000  
  24070186.931                   126490324.480 0                        43.000  
                  24070184.090    96921161.469          47.000  
 22  1 14  4  1 28.0000000  0 10G01G03G04G06G09G17G19G21G22G31
  21434146.805    21434145.090   112637517.595 0  87769563.212 0        47.000  
        47.000                                                  
  20300840.458    20300837.278   106681154.013 0  83128177.540 0        50.000  
        49.000                                                  
  20692360.186    20692355.701   108739830.529 0  84732338.340 0        47.000  
        49.000                                                  
  23785188.470    23785185.807   124991322.001 0  97396793.374 0        43.000  
        42.000                                                  
  23013883.244    23013880.117   120938889.148 0  94238095.929 0        45.000  
        45.000                                                  
  22878042.216    22878036.873   120225119.718 0  93681907.552 0        45.000  
        43.000                                                  
  22686906.373                   119221032.51510                        46.000  
                                                                
  23401926.535                   122977839.198 0                        42.000  
                                                                
  21260998.760                   111727893.782 0                        44.000  
                                                                
  22955600.924    22955594.223   120632223.037 0  93999138.145 0        42.000  
        40.000                                                  
 22  1 14  4  1 27.0000000  0  0
 22  1 14  4  1 28.0000000  0  5E04E09E11E12E19
  24068299.444                   126479299.335 0                        49.000  
                  24068296.853    96912713.422          53.000  
  26180453.196                   137579502.90110                        36.000  
                  26180453.465   105418061.015          42.000  
  22650520.003                   119028841.238 0                        46.000  
                  22650515.214    91203919.199          49.000  
  22834080.417                   119994376.445 0                        45.000  
                  22834077.558    91943746.158          50.000  
  24070493.278                   126491934.598 0                        43.000  
                  24070490.437    96922395.202          47.000  
 22  1 14  4  1 29.0000000  0 10G01G03G04G06G09G17G19G21G22G31
  21434684.966    21434683.197   112640345.673 0  87771766.909 0        47.000  
        47.000                                                  
  20300886.811    20300883.684   106681397.825 0  83128367.525 0        50.000  
        48.000                                                  
  20692081.626    20692077.052   108738366.377 0  84731197.442 0        47.000  
        49.000                                                  
  23784559.873    23784557.121   124988018.408 0  97394219.153 0        43.000  
        42.000                                                  
  23013289.099    23013285.954   120935767.370 0  94235663.368 0        45.000  
        45.000                                                  
  22878305.409    22878300.084   120226502.970 0  93682985.422 0        45.000  
        42.000                                                  
  22686954.190                   119221284.16210                        46.000  
                                                                
  23402502.168                   122980863.834 0                        42.000  
                                                                
  21261287.273                   111729409.964 0                        44.000  
                                                                
  22955914.257    22955907.699   120633870.187 0  94000421.648 0        43.000  
        40.000                                                  
 22  1 14  4  1 28.0000000  0  0
