     2.11           OBSERVATION DATA    M (Mixed)           RINEX VERSION / TYPE
RTCM3TORINEX on                         2022-01-01 03:59    PGM / RUN BY / DATE
RTCM3TORINEX                                                MARKER NAME
                                                            OBSERVER / AGENCY
                                                            REC # / TYPE / VERS
                                                            ANT # / TYPE
         .0000         .0000         .0000                  APPROX POSITION XYZ
         .0000         .0000         .0000                  ANTENNA: DELTA H/E/N
     1     1                                                WAVELENGTH FACT L1/2
     9    C1    C2    L1    L2    S1    S2    C7    L7    S7# / TYPES OF OBSERV
  2022     1     1     3    59   20.0000000     GPS         TIME OF FIRST OBS
                                                            END OF HEADER
 22  1  1  3 59 20.0000000  0  6E04E07E11E12E19E26
  28664997.369                   150634848.31710                        38.000  
                  28664995.422   115421506.446          40.000  
  27344755.776                   143697380.065 0                        39.000  
                  27344755.954   110106159.889          45.000  
  27165553.313                   142755646.730 0                        33.000  
                  27165551.079   109383955.442          38.000  
  22798678.434                   119808194.475 0                        45.000  
                  22798674.646    91800915.274          50.000  
  23739119.555                   124749813.161 0                        45.000  
                  23739117.768    95587522.539          49.000  
  27140011.796                   142621882.642 0                        27.000  
                  27140012.814   109282114.603          41.000  
 22  1  1  3 59 21.0000000  0  9G01G03G04G09G17G19G21G31G32
  20159818.290    20159815.770   105940806.087 0  82550978.355 0        49.000  
        49.000                                                  
  20515512.610    20515509.483   107810344.033 0  84007051.214 0        50.000  
        49.000                                                  
  22112711.105    22112707.192   116202823.747 0  90547656.142 0        46.000  
        46.000                                                  
  25222152.415    25222148.913   132542628.419 0 103279970.361 0        39.000  
        37.000                                                  
  22590521.203    22590515.109   118713458.912 0  92504958.527 0        46.000  
        43.000                                                  
  23262154.823                   122244036.60310                        42.000  
                                                                
  21758330.747                   114341553.707 0                        48.000  
                                                                
  22619944.175    22619938.779   118868741.486 0  92624996.464 0        44.000  
        41.000                                                  
  24584884.929    24584883.052   129194200.266 0 100670720.165 0        40.000  
        37.000                                                  
 22  1  1  3 59 20.0000000  0  0
 22  1  1  3 59 21.0000000  0  6E04E07E11E12E19E26
  28664453.722                   150631990.55210                        38.000  
                  28664451.560   115419316.719          40.000  
  27345267.330                   143700067.069 0                        39.000  
                  27345267.277   110108218.747          45.000  
  27164993.405                   142752702.516 0                        33.000  
                  27164990.814   109381699.522          38.000  
  22798387.294                   119806665.959 0                        45.000  
                  22798383.667    91799744.074          50.000  
  23738841.799                   124748353.184 0                        45.000  
                  23738840.048    95586403.849          49.000  
  27140569.667                   142624813.690 0                        27.000  
                  27140570.578   109284360.488          41.000  
 22  1  1  3 59 22.0000000  0  9G01G03G04G09G17G19G21G31G32
  20160031.610    20160029.144   105941927.164 0  82551851.913 0        49.000  
        49.000                                                  
  20515335.564    20515332.455   107809413.419 0  84006326.056 0        50.000  
        49.000                                                  
  22112150.661    22112146.640   116199878.544 0  90545361.162 0        46.000  
        46.000                                                  
  25221448.090    25221444.552   132538927.002 0 103277086.138 0        38.000  
        37.000                                                  
  22590417.062    22590410.933   118712911.711 0  92504532.112 0        46.000  
        43.000                                                  
  23261770.157                   122242015.69610                        42.000  
                                                                
  21758708.409                   114343538.617 0                        48.000  
                                                                
  22619827.276    22619821.879   118868127.097 0  92624517.708 0        44.000  
        41.000                                                  
  24585526.766    24585524.711   129197572.226 0 100673347.676 0        40.000  
        37.000                                                  
 22  1  1  3 59 21.0000000  0  0
 22  1  1  3 59 22.0000000  0  6E04E07E11E12E19E26
  28663909.861                   150629132.52810                        38.000  
                  28663907.752   115417126.813          40.000  
  27345778.527                   143702753.829 0                        39.000  
                  27345778.456   110110277.438          45.000  
  27164433.264                   142749758.119 0                        33.000  
                  27164430.459   109379443.376          38.000  
  22798096.636                   119805137.478 0                        45.000  
                  22798092.866    91798572.898          50.000  
  23738563.918                   124746893.241 0                        45.000  
                  23738562.167    95585285.191          49.000  
  27141127.770                   142627744.576 0                        28.000  
                  27141128.360   109286606.252          41.000  
 22  1  1  3 59 23.0000000  0  9G01G03G04G09G17G19G21G31G32
  20160245.074    20160242.590   105943049.035 0  82552726.103 0        49.000  
        49.000                                                  
  20515158.679    20515155.426   107808483.381 0  84005601.344 0        50.000  
        49.000                                                  
  22111590.306    22111586.286   116196933.910 0  90543066.665 0        46.000  
        46.000                                                  
  25220743.783    25220740.316   132535225.897 0 103274202.153 0        38.000  
        37.000                                                  
  22590313.207    22590307.042   118712365.346 0  92504106.393 0        46.000  
        43.000                                                  
  23261385.830                   122239995.59510                        43.000  
                                                                
  21759086.214                   114345524.133 0                        48.000  
                                                                
  22619710.484    22619705.070   118867513.592 0  92624039.664 0        44.000  
        41.000                                                  
  24586168.425    24586166.477   129200944.535 0 100675975.444 0        40.000  
        37.000                                                  
 22  1  1  3 59 22.0000000  0  0
 22  1  1  3 59 23.0000000  0  6E04E07E11E12E19E26
  28663365.928                   150626274.81910                        37.000  
                  28663364.123   115414937.151          40.000  
  27346289.956                   143705440.877 0                        39.000  
                  27346289.849   110112336.351          45.000  
  27163873.035                   142746813.902 0                        33.000  
                  27163870.283   109377187.422          38.000  
  22797805.872                   119803609.529 0                        45.000  
                  22797802.137    91797402.140          50.000  
  23738286.216                   124745433.851 0                        45.000  
                  23738284.536    95584166.957          49.000  
  27141685.158                   142630675.852 0                        27.000  
                  27141686.105   109288852.306          41.000  
 22  1  1  3 59 24.0000000  0  9G01G03G04G09G17G19G21G31G32
  20160458.644    20160456.178   105944171.304 0  82553600.595 0        49.000  
        49.000                                                  
  20514981.668    20514978.452   107807553.513 0  84004876.781 0        50.000  
        49.000                                                  
  22111030.130    22111025.985   116193989.491 0  90540772.303 0        46.000  
        46.000                                                  
  25220039.386    25220036.044   132531524.689 0 103271318.113 0        38.000  
        37.000                                                  
  22590209.299    22590203.170   118711819.427 0  92503680.995 0        46.000  
        43.000                                                  
  23261001.467                   122237975.95510                        42.000  
                                                                
  21759464.126                   114347509.859 0                        48.000  
                                                                
  22619593.817    22619588.474   118866900.592 0  92623562.003 0        44.000  
        41.000                                                  
  24586810.209    24586808.100   129204316.750 0 100678603.147 0        40.000  
        37.000                                                  
 22  1  1  3 59 23.0000000  0  0
 22  1  1  3 59 24.0000000  0  6E04E07E11E12E19E26
  28662822.102                   150623417.03610                        37.000  
                  28662820.261   115412747.405          40.000  
  27346801.296                   143708127.816 0                        39.000  
                  27346801.118   110114395.171          45.000  
  27163312.609                   142743869.541 0                        34.000  
                  27163310.089   109374931.354          38.000  
  22797515.053                   119802081.746 0                        45.000  
                  22797511.372    91796231.506          50.000  
  23738008.638                   124743974.629 0                        45.000  
                  23738006.887    95583048.850          49.000  
  27142242.886                   142633607.178 0                        27.000  
                  27142243.869   109291098.342          41.000  
 22  1  1  3 59 25.0000000  0  9G01G03G04G09G17G19G21G31G32
  20160672.322    20160669.874   105945294.458 0  82554475.781 0        49.000  
        49.000                                                  
  20514804.836    20514801.584   107806624.291 0  84004152.714 0        50.000  
        49.000                                                  
  22110469.936    22110465.880   116191045.743 0  90538478.467 0        46.000  
        46.000                                                  
  25219335.257    25219331.790   132527823.865 0 103268434.343 0        38.000  
        37.000                                                  
  22590105.623    22590099.529   118711274.426 0  92503256.322 0        46.000  
        43.000                                                  
  23260617.301                   122235957.19510                        42.000  
                                                                
  21759842.199                   114349496.258 0                        48.000  
                                                                
  22619477.400    22619471.950   118866288.574 0  92623085.102 0        44.000  
        41.000                                                  
  24587451.992    24587449.848   129207689.403 0 100681231.186 0        40.000  
        37.000                                                  
 22  1  1  3 59 24.0000000  0  0
 22  1  1  3 59 25.0000000  0  6E04E07E11E12E19E26
  28662278.204                   150620559.62510                        37.000  
                  28662276.346   115410557.959          40.000  
  27347312.601                   143710815.128 0                        39.000  
                  27347312.458   110116454.275          45.000  
  27162752.397                   142740925.485 0                        34.000  
                  27162749.949   109372675.507          38.000  
  22797224.414                   119800554.609 0                        45.000  
                  22797220.733    91795061.351          50.000  
  23737731.061                   124742516.035 0                        45.000  
                  23737729.256    95581931.226          49.000  
  27142801.311                   142636538.848 0                        28.000  
                  27142801.758   109293344.711          41.000  
 22  1  1  3 59 26.0000000  0  9G01G03G04G09G17G19G21G31G32
  20160886.250    20160883.820   105946418.313 0  82555351.512 0        49.000  
        50.000                                                  
  20514628.076    20514624.788   107805695.570 0  84003429.033 0        50.000  
        49.000                                                  
  22109909.885    22109905.865   116188102.485 0  90536185.017 0        46.000  
        46.000                                                  
  25218631.092    25218627.572   132524123.253 0 103265550.751 0        38.000  
        37.000                                                  
  22590002.018    22589995.961   118710730.180 0  92502832.236 0        46.000  
        43.000                                                  
  23260233.206                   122233939.23710                        42.000  
                                                                
  21760220.361                   114351483.179 0                        48.000  
                                                                
  22619361.198    22619355.641   118865677.367 0  92622608.830 0        44.000  
        41.000                                                  
  24588093.848    24588091.757   129211062.305 0 100683859.435 0        40.000  
        37.000                                                  
 22  1  1  3 59 25.0000000  0  0
 22  1  1  3 59 26.0000000  0  6E04E07E11E12E19E26
  28661734.557                   150617702.42610                        37.000  
                  28661732.806   115408368.681          40.000  
  27347824.030                   143713502.640 0                        39.000  
                  27347823.833   110118513.542          45.000  
  27162192.328                   142737981.568 0                        34.000  
                  27162189.612   109370419.801          38.000  
  22796933.971                   119799027.924 0                        45.000  
                  22796930.272    91793891.556          50.000  
  23737453.591                   124741057.929 0                        45.000  
                  23737451.714    95580813.975          49.000  
  27143359.361                   142639470.834 0                        28.000  
                  27143359.647   109295591.314          41.000  
 22  1  1  3 59 27.0000000  0  9G01G03G04G09G17G19G21G31G32
  20161100.196    20161097.783   105947542.512 0  82556227.516 0        49.000  
        50.000                                                  
  20514451.333    20514448.135   107804766.955 0  84002705.432 0        50.000  
        49.000                                                  
  22109349.888    22109345.814   116185159.368 0  90533891.686 0        46.000  
        46.000                                                  
  25217926.856    25217923.354   132520422.515 0 103262667.050 0        38.000  
        37.000                                                  
  22589898.414    22589892.553   118710186.336 0  92502408.450 0        46.000  
        43.000                                                  
  23259849.308                   122231921.61310                        42.000  
                                                                
  21760598.469                   114353470.240 0                        48.000  
                                                                
  22619244.978    22619239.367   118865066.603 0  92622132.914 0        44.000  
        41.000                                                  
  24588735.649    24588733.648   129214435.072 0 100686487.549 0        40.000  
        37.000                                                  
 22  1  1  3 59 26.0000000  0  0
 22  1  1  3 59 27.0000000  0  6E04E07E11E12E19E26
  28661190.767                   150614845.05110                        37.000  
                  28661188.998   115406179.282          40.000  
  27348335.370                   143716189.976 0                        39.000  
                  27348335.245   110120572.665          45.000  
  27161631.938                   142735037.433 0                        34.000  
                  27161629.204   109368163.927          38.000  
  22796643.599                   119797501.336 0                        45.000  
                  22796639.721    91792721.835          50.000  
  23737176.353                   124739599.913 0                        45.000  
                  23737174.280    95579696.797          49.000  
  27143917.518                   142642402.741 0                        28.000  
                  27143917.696   109297837.836          41.000  
 22  1  1  3 59 28.0000000  0  9G01G03G04G09G17G19G21G31G32
  20161314.177    20161311.765   105948666.852 0  82557103.620 0        50.000  
        49.000                                                  
  20514274.502    20514271.410   107803838.270 0  84001981.777 0        50.000  
        49.000                                                  
  22108789.784    22108785.674   116182216.178 0  90531598.303 0        46.000  
        46.000                                                  
  25217222.513    25217219.136   132516721.412 0 103259783.065 0        38.000  
        37.000                                                  
  22589794.898    22589789.091   118709642.653 0  92501984.808 0        46.000  
        43.000                                                  
  23259465.303                   122229904.22010                        42.000  
                                                                
  21760976.596                   114355457.255 0                        48.000  
                                                                
  22619128.651    22619123.165   118864456.076 0  92621657.190 0        44.000  
        41.000                                                  
  24589377.398    24589375.325   129217807.540 0 100689115.441 0        40.000  
        37.000                                                  
 22  1  1  3 59 27.0000000  0  0
 22  1  1  3 59 28.0000000  0  6E04E07E11E12E19E26
  28660646.959                   150611987.35910                        37.000  
                  28660645.154   115403989.613          40.000  
  27348846.692                   143718876.953 0                        39.000  
                  27348846.478   110122631.522          45.000  
  27161071.565                   142732092.940 0                        34.000  
                  27161068.992   109365907.733          38.000  
  22796352.977                   119795974.657 0                        45.000  
                  22796349.153    91791552.037          50.000  
  23736898.990                   124738141.803 0                        45.000  
                  23736896.774    95578579.550          49.000  
  27144475.674                   142645334.423 0                        27.000  
                  27144475.621   109300084.162          41.000  
 22  1  1  3 59 29.0000000  0  9G01G03G04G09G17G19G21G31G32
  20161528.391    20161525.854   105949792.063 0  82557980.411 0        50.000  
        49.000                                                  
  20514097.920    20514094.936   107802910.203 0  84001258.610 0        50.000  
        49.000                                                  
  22108229.965    22108225.641   116179273.669 0  90529305.422 0        46.000  
        46.000                                                  
  25216518.313    25216514.989   132513020.662 0 103256899.368 0        38.000  
        37.000                                                  
  22589691.669    22589685.736   118709099.883 0  92501561.872 0        46.000  
        43.000                                                  
  23259081.494                   122227887.67610                        42.000  
                                                                
  21761354.865                   114357444.930 0                        48.000  
                                                                
  22619012.663    22619007.070   118863846.515 0  92621182.187 0        44.000  
        41.000                                                  
  24590019.217    24590017.091   129221180.374 0 100691743.617 0        40.000  
        37.000                                                  
 22  1  1  3 59 28.0000000  0  0
 22  1  1  3 59 29.0000000  0  6E04E07E11E12E19E26
  28660103.401                   150609130.02810                        37.000  
                  28660101.454   115401800.204          40.000  
  27349358.014                   143721564.277 0                        39.000  
                  27349357.835   110124690.647          45.000  
  27160511.747                   142729148.716 0                        35.000  
                  27160508.780   109363651.765          39.000  
  22796062.516                   119794448.589 0                        45.000  
                  22796058.782    91790382.709          50.000  
  23736621.484                   124736684.324 0                        45.000  
                  23736619.554    95577462.776          49.000  
  27145033.849                   142648266.476 0                        27.000  
                  27145033.581   109302330.826          41.000  
 22  1  1  3 59 30.0000000  0  9G01G03G04G09G17G19G21G31G32
  20161742.694    20161740.139   105950918.023 0  82558857.779 0        50.000  
        50.000                                                  
  20513921.445    20513918.497   107801982.677 0  84000535.860 0        50.000  
        49.000                                                  
  22107670.111    22107665.876   116176331.702 0  90527012.985 0        46.000  
        46.000                                                  
  25215814.202    25215810.860   132509320.173 0 103254015.884 0        38.000  
        37.000                                                  
  22589588.636    22589582.543   118708557.922 0  92501139.570 0        46.000  
        43.000                                                  
  23258697.900                   122225871.94510                        42.000  
                                                                
  21761733.206                   114359433.172 0                        48.000  
                                                                
  22618896.800    22618891.225   118863237.813 0  92620707.899 0        44.000  
        41.000                                                  
  24590661.055    24590658.982   129224553.520 0 100694372.042 0        40.000  
        37.000                                                  
 22  1  1  3 59 29.0000000  0  0
 22  1  1  3 59 30.0000000  0  6E04E07E11E12E19E26
  28659559.701                   150606272.94010                        37.000  
                  28659557.735   115399611.021          40.000  
  27349869.551                   143724251.856 0                        39.000  
                  27349869.354   110126749.946          45.000  
  27159951.231                   142726204.690 0                        35.000  
                  27159948.640   109361395.946          39.000  
  22795772.252                   119792923.025 0                        45.000  
                  22795768.589    91789213.778          50.000  
  23736344.210                   124735227.356 0                        45.000  
                  23736342.209    95576346.400          49.000  
  27145591.827                   142651198.965 0                        27.000  
                  27145591.631   109304577.732          41.000  
 22  1  1  3 59 31.0000000  0  9G01G03G04G09G17G19G21G31G32
  20161957.158    20161954.603   105952044.602 0  82559735.628 0        50.000  
        49.000                                                  
  20513744.935    20513742.094   107801055.535 0  83999813.417 0        50.000  
        49.000                                                  
  22107110.381    22107106.057   116173390.153 0  90524720.859 0        46.000  
        46.000                                                  
  25215110.073    25215106.785   132505619.798 0 103251132.473 0        38.000  
        37.000                                                  
  22589485.693    22589479.582   118708016.613 0  92500717.759 0        46.000  
        43.000                                                  
  23258314.377                   122223856.88010                        43.000  
                                                                
  21762111.636                   114361421.836 0                        47.000  
                                                                
  22618781.170    22618775.505   118862629.837 0  92620234.135 0        45.000  
        41.000                                                  
  24591303.017    24591300.891   129227926.818 0 100697000.613 0        40.000  
        37.000                                                  
 22  1  1  3 59 30.0000000  0  0
 22  1  1  3 59 31.0000000  0  6E04E07E11E12E19E26
  28659015.857                   150603415.97910                        37.000  
                  28659014.142   115397421.923          40.000  
  27350381.230                   143726939.541 0                        39.000  
                  27350380.855   110128809.340          45.000  
  27159391.395                   142723260.716 0                        35.000  
                  27159388.393   109359140.180          39.000  
  22795481.952                   119791397.845 0                        45.000  
                  22795478.199    91788045.136          50.000  
  23736067.026                   124733770.772 0                        45.000  
                  23736065.132    95575230.314          49.000  
  27146149.912                   142654131.523 0                        26.000  
                  27146149.680   109306824.802          41.000  
 22  1  1  3 59 32.0000000  0  9G01G03G04G09G17G19G21G31G32
  20162171.569    20162168.978   105953171.260 0  82560613.546 0        50.000  
        49.000                                                  
  20513568.443    20513565.637   107800128.255 0  83999090.863 0        50.000  
        49.000                                                  
  22106550.616    22106546.310   116170448.468 0  90522428.656 0        46.000  
        46.000                                                  
  25214405.801    25214402.531   132501919.036 0 103248248.773 0        38.000  
        37.000                                                  
  22589382.821    22589376.549   118707475.434 0  92500296.056 0        46.000  
        43.000                                                  
  23257930.926                   122221841.91710                        43.000  
                                                                
  21762490.066                   114363410.397 0                        47.000  
                                                                
  22618665.557    22618659.803   118862022.033 0  92619760.520 0        45.000  
        41.000                                                  
  24591944.980    24591942.782   129231299.726 0 100699628.842 0        40.000  
        37.000                                                  
 22  1  1  3 59 31.0000000  0  0
 22  1  1  3 59 32.0000000  0  6E04E07E11E12E19E26
  28658471.977                   150600558.62410                        37.000  
                  28658470.226   115395232.508          40.000  
  27350892.713                   143729626.792 0                        39.000  
                  27350892.195   110130868.416          45.000  
  27158831.522                   142720316.273 0                        35.000  
                  27158828.163   109356884.044          39.000  
  22795191.651                   119789872.504 0                        45.000  
                  22795188.024    91786876.366          50.000  
  23735789.931                   124732314.026 0                        45.000  
                  23735787.876    95574114.111          49.000  
  27146707.658                   142657063.762 0                        26.000  
                  27146707.748   109309071.596          41.000  
 22  1  1  3 59 33.0000000  0  9G01G03G04G09G17G19G21G31G32
  20162386.122    20162383.495   105954298.704 0  82561492.074 0        50.000  
        49.000                                                  
  20513392.022    20513389.252   107799201.515 0  83998368.730 0        50.000  
        49.000                                                  
  22105990.923    22105986.509   116167507.355 0  90520136.875 0        46.000  
        46.000                                                  
  25213701.708    25213698.348   132498218.553 0 103245365.257 0        38.000  
        37.000                                                  
  22589279.967    22589273.677   118706935.075 0  92499875.007 0        46.000  
        43.000                                                  
  23257547.617                   122219827.79710                        42.000  
                                                                
  21762868.532                   114365399.522 0                        47.000  
                                                                
  22618550.105    22618544.387   118861415.113 0  92619287.602 0        45.000  
        41.000                                                  
  24592586.746    24592584.655   129234672.944 0 100702257.319 0        40.000  
        37.000                                                  
 22  1  1  3 59 32.0000000  0  0
 22  1  1  3 59 33.0000000  0  6E04E07E11E12E19E26
  28657928.348                   150597701.51610                        37.000  
                  28657926.758   115393043.302          40.000  
  27351403.856                   143732314.309 0                        39.000  
                  27351403.624   110132927.674          45.000  
  27158271.346                   142717372.053 0                        35.000  
                  27158267.844   109354628.088          39.000  
  22794901.691                   119788347.691 0                        45.000  
                  22794897.938    91785708.007          50.000  
  23735512.961                   124730857.833 0                        45.000  
                  23735510.763    95572998.322          49.000  
  27147265.994                   142659996.423 0                        26.000  
                  27147265.851   109311318.657          41.000  
 22  1  1  3 59 34.0000000  0  9G01G03G04G09G17G19G21G31G32
  20162600.872    20162598.281   105955427.073 0  82562371.320 0        50.000  
        49.000                                                  
  20513215.869    20513213.117   107798275.497 0  83997647.158 0        50.000  
        49.000                                                  
  22105431.354    22105427.119   116164566.997 0  90517845.682 0        46.000  
        46.000                                                  
  25212997.650    25212994.327   132494518.504 0 103242482.125 0        38.000  
        37.000                                                  
  22589177.452    22589170.966   118706395.686 0  92499454.706 0        46.000  
        43.000                                                  
  23257164.559                   122217814.60410                        42.000  
                                                                
  21763247.177                   114367389.397 0                        48.000  
                                                                
  22618434.779    22618428.989   118860809.229 0  92618815.489 0        45.000  
        41.000                                                  
  24593228.744    24593226.689   129238046.650 0 100704886.195 0        40.000  
        37.000                                                  
 22  1  1  3 59 33.0000000  0  0
 22  1  1  3 59 34.0000000  0  6E04E07E11E12E19E26
  28657384.755                   150594844.87810                        37.000  
                  28657383.057   115390854.440          41.000  
  27351915.447                   143735002.267 0                        39.000  
                  27351915.143   110134987.273          45.000  
  27157711.403                   142714428.223 0                        36.000  
                  27157707.722   109352372.404          39.000  
  22794611.587                   119786823.574 0                        45.000  
                  22794607.853    91784540.173          50.000  
  23735235.902                   124729402.329 0                        45.000  
                  23735233.775    95571883.066          49.000  
  27147824.276                   142662929.537 0                        26.000  
                  27147823.936   109313566.124          41.000  
 22  1  1  3 59 35.0000000  0  9G01G03G04G09G17G19G21G31G32
  20162815.533    20162813.031   105956555.542 0  82563250.642 0        50.000  
        49.000                                                  
  20513039.663    20513036.786   107797349.356 0  83996925.483 0        50.000  
        49.000                                                  
  22104871.732    22104867.479   116161626.509 0  90515554.389 0        46.000  
        46.000                                                  
  25212293.450    25212290.234   132490818.062 0 103239598.652 0        38.000  
        37.000                                                  
  22589074.866    22589068.272   118705856.443 0  92499034.512 0        46.000  
        43.000                                                  
  23256781.429                   122215801.57210                        42.000  
                                                                
  21763625.804                   114369379.168 0                        47.000  
                                                                
  22618319.541    22618313.770   118860203.538 0  92618343.524 0        45.000  
        41.000                                                  
  24593870.581    24593868.580   129241419.972 0 100707514.753 0        40.000  
        37.000                                                  
 22  1  1  3 59 34.0000000  0  0
 22  1  1  3 59 35.0000000  0  6E04E07E11E12E19E26
  28656841.143                   150591987.80210                        37.000  
                  28656839.410   115388665.259          41.000  
  27352426.894                   143737689.790 0                        39.000  
                  27352426.554   110137046.555          45.000  
  27157151.244                   142711483.927 0                        35.000  
                  27157147.438   109350116.393          39.000  
  22794321.555                   119785299.313 0                        45.000  
                  22794317.731    91783372.221          50.000  
  23734958.878                   124727946.672 0                        45.000  
                  23734956.788    95570767.701          49.000  
  27148382.629                   142665862.333 0                        26.000  
                  27148381.950   109315813.331          41.000  
 22  1  1  3 59 36.0000000  0  9G01G03G04G09G17G19G21G31G32
  20163030.461    20163027.888   105957684.764 0  82564130.560 0        50.000  
        49.000                                                  
  20512863.617    20512860.669   107796423.731 0  83996204.219 0        50.000  
        49.000                                                  
  22104312.325    22104308.090   116158686.565 0  90513263.534 0        46.000  
        46.000                                                  
  25211589.303    25211586.158   132487117.884 0 103236715.392 0        38.000  
        38.000                                                  
  22588972.423    22588965.829   118705318.004 0  92498614.942 0        46.000  
        43.000                                                  
  23256398.478                   122213789.35410                        43.000  
                                                                
  21764004.573                   114371369.498 0                        47.000  
                                                                
  22618204.447    22618198.657   118859598.710 0  92617872.228 0        45.000  
        41.000                                                  
  24594512.651    24594510.489   129244793.590 0 100710143.528 0        40.000  
        37.000                                                  
 22  1  1  3 59 35.0000000  0  0
 22  1  1  3 59 36.0000000  0  6E04E07E11E12E19E26
  28656297.496                   150589131.01410                        38.000  
                  28656295.781   115386476.295          41.000  
  27352938.484                   143740377.569 0                        39.000  
                  27352938.001   110139106.022          45.000  
  27156590.979                   142708539.812 0                        36.000  
                  27156587.262   109347860.529          39.000  
  22794031.666                   119783775.542 0                        45.000  
                  22794027.753    91782204.672          50.000  
  23734681.891                   124726491.547 0                        45.000  
                  23734679.818    95569652.728          49.000  
  27148940.518                   142668795.502 0                        26.000  
                  27148940.089   109318060.788          41.000  
 22  1  1  3 59 37.0000000  0  9G01G03G04G09G17G19G21G31G32
  20163245.515    20163242.906   105958814.550 0  82565010.911 0        50.000  
        49.000                                                  
  20512687.446    20512684.498   107795498.441 0  83995483.213 0        49.000  
        49.000                                                  
  22103752.917    22103748.789   116155746.993 0  90510972.954 0        46.000  
        46.000                                                  
  25210885.192    25210882.137   132483417.761 0 103233832.186 0        38.000  
        38.000                                                  
  22588869.998    22588863.529   118704780.157 0  92498195.839 0        46.000  
        43.000                                                  
  23256015.688                   122211777.71610                        43.000  
                                                                
  21764383.271                   114373360.208 0                        47.000  
                                                                
  22618089.442    22618083.652   118858994.536 0  92617401.438 0        45.000  
        41.000                                                  
  24595154.774    24595152.433   129248167.305 0 100712772.394 0        40.000  
        37.000                                                  
 22  1  1  3 59 36.0000000  0  0
 22  1  1  3 59 37.0000000  0  6E04E07E11E12E19E26
  28655753.992                   150586274.27810                        38.000  
                  28655752.116   115384287.366          41.000  
  27353449.824                   143743065.400 0                        39.000  
                  27353449.627   110141165.516          45.000  
  27156030.803                   142705595.704 0                        36.000  
                  27156026.890   109345604.633          40.000  
  22793741.795                   119782252.111 0                        45.000  
                  22793737.846    91781037.352          50.000  
  23734405.082                   124725036.735 0                        45.000  
                  23734402.991    95568538.003          49.000  
  27149499.318                   142671728.686 0                        27.000  
                  27149498.353   109320308.358          41.000  
 22  1  1  3 59 38.0010000  0  9G01G03G04G09G17G19G21G31G32
  20163460.944    20163458.174   105959946.250 0  82565892.754 0        50.000  
        49.000                                                  
  20512511.329    20512508.309   107794572.807 0  83994761.945 0        50.000  
        49.000                                                  
  22103193.081    22103188.881   116152805.064 0  90508680.549 0        46.000  
        46.000                                                  
  25210180.456    25210177.436   132479714.264 0 103230946.329 0        38.000  
        38.000                                                  
  22588767.715    22588761.229   118704242.616 0  92497776.980 0        46.000  
        43.000                                                  
  23255632.701                   122209764.91010                        43.000  
                                                                
  21764762.595                   114375353.493 0                        47.000  
                                                                
  22617974.437    22617968.826   118858390.650 0  92616930.885 0        45.000  
        41.000                                                  
  24595797.434    24595795.200   129251544.726 0 100715404.160 0        40.000  
        37.000                                                  
 22  1  1  3 59 37.0000000  0  0
 22  1  1  3 59 38.0010000  0  6E04E07E11E12E19E26
  28655210.005                   150583414.99010                        38.000  
                  28655207.932   115382096.476          41.000  
  27353961.807                   143745756.202 0                        39.000  
                  27353961.575   110143227.308          45.000  
  27155469.805                   142702648.889 0                        36.000  
                  27155466.196   109343346.687          40.000  
  22793451.620                   119780727.686 0                        45.000  
                  22793447.778    91779869.300          50.000  
  23734128.058                   124723581.029 0                        45.000  
                  23734125.896    95567422.591          49.000  
  27150058.958                   142674665.344 0                        26.000  
                  27150057.189   109322558.453          41.000  
 22  1  1  3 59 39.0010000  0  9G01G03G04G09G17G19G21G31G32
  20163676.158    20163673.478   105961077.441 0  82566774.198 0        50.000  
        49.000                                                  
  20512335.409    20512332.407   107793648.480 0  83994041.685 0        50.000  
        49.000                                                  
  22102633.869    22102629.724   116149866.487 0  90506390.747 0        46.000  
        46.000                                                  
  25209476.488    25209473.486   132476014.565 0 103228063.448 0        38.000  
        37.000                                                  
  22588665.612    22588659.161   118703706.278 0  92497359.045 0        46.000  
        43.000                                                  
  23255250.090                   122207754.76610                        43.000  
                                                                
  21765141.615                   114377345.215 0                        48.000  
                                                                
  22617859.753    22617854.196   118857788.097 0  92616461.371 0        45.000  
        41.000                                                  
  24596439.539    24596437.180   129254918.922 0 100718033.413 0        40.000  
        37.000                                                  
 22  1  1  3 59 38.0000000  0  0
 22  1  1  3 59 39.0010000  0  6E04E07E11E12E19E26
  28654666.572                   150580558.67710                        38.000  
                  28654664.482   115379907.884          41.000  
  27354473.308                   143748444.417 0                        39.000  
                  27354473.165   110145287.103          45.000  
  27154909.593                   142699705.071 0                        36.000  
                  27154906.020   109341091.043          40.000  
  22793161.945                   119779205.177 0                        45.000  
                  22793158.049    91778702.690          50.000  
  23733851.464                   124722127.153 0                        45.000  
                  23733849.373    95566308.581          49.000  
  27150617.401                   142677599.100 0                        26.000  
                  27150615.453   109324806.456          40.000  
 22  1  1  3 59 40.0010000  0  9G01G03G04G09G17G19G21G31G32
  20163891.409    20163888.764   105962208.862 0  82567655.822 0        50.000  
        49.000                                                  
  20512159.542    20512156.504   107792724.158 0  83993321.430 0        49.000  
        49.000                                                  
  22102074.641    22102070.477   116146927.931 0  90504100.958 0        46.000  
        46.000                                                  
  25208772.484    25208769.482   132472314.601 0 103225180.355 0        38.000  
        37.000                                                  
  22588563.669    22588557.165   118703170.199 0  92496941.332 0        46.000  
        43.000                                                  
  23254867.621                   122205744.88010                        43.000  
                                                                
  21765520.635                   114379336.978 0                        48.000  
                                                                
  22617745.213    22617739.566   118857185.857 0  92615992.089 0        45.000  
        41.000                                                  
  24597081.680    24597079.179   129258292.871 0 100720662.457 0        40.000  
        37.000                                                  
 22  1  1  3 59 39.0000000  0  0
 22  1  1  3 59 40.0010000  0  6E04E07E11E12E19E26
  28654123.265                   150577702.07910                        38.000  
                  28654120.870   115377719.053          41.000  
  27354984.719                   143751132.346 0                        39.000  
                  27354984.612   110147346.693          45.000  
  27154349.346                   142696760.910 0                        35.000  
                  27154345.754   109338835.138          40.000  
  22792872.217                   119777682.635 0                        45.000  
                  22792868.375    91777536.074          50.000  
  23733574.762                   124720673.260 0                        45.000  
                  23733572.671    95565194.570          49.000  
  27151176.201                   142680532.785 0                        26.000  
                  27151173.663   109327054.298          41.000  
 22  1  1  3 59 41.0010000  0  9G01G03G04G09G17G19G21G31G32
  20164106.730    20164104.122   105963340.582 0  82568537.689 0        50.000  
        49.000                                                  
  20511983.729    20511980.673   107791799.909 0  83992601.236 0        50.000  
        49.000                                                  
  22101515.394    22101511.337   116143989.471 0  90501811.246 0        46.000  
        46.000                                                  
  25208068.445    25208065.389   132468614.440 0 103222297.115 0        38.000  
        38.000                                                  
  22588461.726    22588455.258   118702634.483 0  92496523.880 0        46.000  
        43.000                                                  
  23254485.278                   122203735.35510                        43.000  
                                                                
  21765899.655                   114381328.852 0                        47.000  
                                                                
  22617630.726    22617625.044   118856584.040 0  92615523.129 0        45.000  
        41.000                                                  
  24597723.607    24597721.195   129261666.657 0 100723291.392 0        40.000  
        37.000                                                  
 22  1  1  3 59 40.0000000  0  0
 22  1  1  3 59 41.0010000  0  6E04E07E11E12E19E26
  28653579.475                   150574845.32310                        38.000  
                  28653577.045   115375530.104          41.000  
  27355496.345                   143753820.083 0                        39.000  
                  27355496.095   110149406.120          45.000  
  27153788.973                   142693816.546 0                        36.000  
                  27153785.400   109336579.045          40.000  
  22792582.470                   119776160.158 0                        45.000  
                  22792578.593    91776369.501          50.000  
  23733298.274                   124719219.444 0                        45.000  
                  23733295.898    95564080.597          49.000  
                                                                                
                  27151731.927   109329302.049          40.000  
 22  1  1  3 59 42.0010000  0  9G01G03G04G09G17G19G21G31G32
  20164322.320    20164319.622   105964473.308 0  82569420.333 0        50.000  
        49.000                                                  
  20511807.987    20511804.895   107790876.435 0  83991881.653 0        50.000  
        49.000                                                  
  22100956.433    22100952.359   116141051.827 0  90499522.171 0        46.000  
        46.000                                                  
  25207364.459    25207361.421   132464914.787 0 103219414.276 0        38.000  
        38.000                                                  
  22588360.016    22588353.458   118702099.809 0  92496107.251 0        46.000  
        43.000                                                  
  23254102.988                   122201726.86310                        42.000  
                                                                
  21766278.835                   114383321.536 0                        47.000  
                                                                
  22617516.490    22617510.754   118855983.320 0  92615055.043 0        45.000  
        41.000                                                  
  24598365.695    24598363.211   129265041.005 0 100725920.755 0        40.000  
        37.000                                                  
 22  1  1  3 59 41.0000000  0  0
 22  1  1  3 59 42.0010000  0  6E04E07E11E12E19E26
  28653035.845                   150571989.06310                        37.000  
                  28653033.558   115373341.541          41.000  
  27356008.025                   143756508.317 0                        39.000  
                  27356007.667   110151465.933          45.000  
  27153228.762                   142690872.584 0                        35.000  
                  27153225.134   109334323.302          40.000  
  22792292.885                   119774638.450 0                        45.000  
                  22792289.168    91775203.510          50.000  
  23733021.716                   124717766.402 0                        45.000  
                  23733019.535    95562967.228          49.000  
                                                                                
                  27152290.245   109331550.251          40.000  
 22  1  1  3 59 43.0010000  0  9G01G03G04G09G17G19G21G31G32
  20164537.946    20164535.265   105965606.845 0  82570303.612 0        50.000  
        49.000                                                  
  20511632.227    20511629.332   107789953.548 0  83991162.518 0        50.000  
        49.000                                                  
  22100397.526    22100393.523   116138114.775 0  90497233.569 0        46.000  
        46.000                                                  
  25206660.526    25206657.453   132461215.484 0 103216531.706 0        38.000  
        38.000                                                  
  22588258.430    22588251.890   118701565.983 0  92495691.282 0        46.000  
        43.000                                                  
  23253720.966                   122199719.21010                        42.000  
                                                                
  21766658.177                   114385314.831 0                        48.000  
                                                                
  22617402.289    22617396.624   118855383.498 0  92614587.658 0        45.000  
        41.000                                                  
  24599007.747    24599005.352   129268415.674 0 100728550.365 0        40.000  
        37.000                                                  
 22  1  1  3 59 42.0000000  0  0
 22  1  1  3 59 43.0010000  0  6E04E07E11E12E19E26
  28652492.270                   150569133.10910                        37.000  
                  28652490.197   115371153.214          41.000  
  27356519.793                   143759196.829 0                        39.000  
                  27356519.222   110153525.971          45.000  
  27152668.461                   142687928.916 0                        35.000  
                  27152664.851   109332067.739          40.000  
  22792003.335                   119773117.297 0                        45.000  
                  22791999.511    91774037.956          50.000  
  23732745.317                   124716313.911 0                        45.000  
                  23732743.030    95561854.283          49.000  
                                                                                
                  27152848.652   109333798.758          40.000  
 22  1  1  3 59 44.0010000  0  9G01G03G04G09G17G19G21G31G32
  20164753.839    20164750.980   105966740.821 0  82571187.221 0        50.000  
        49.000                                                  
  20511456.557    20511453.680   107789030.890 0  83990443.561 0        50.000  
        49.000                                                  
  22099838.582    22099834.705   116135177.980 0  90494945.156 0        46.000  
        46.000                                                  
  25205956.576    25205953.556   132457516.122 0 103213649.061 0        38.000  
        38.000                                                  
  22588156.934    22588150.376   118701032.653 0  92495275.700 0        46.000  
        43.000                                                  
  23253339.051                   122197712.07410                        42.000  
                                                                
  21767037.572                   114387308.392 0                        48.000  
                                                                
  22617288.338    22617282.566   118854784.243 0  92614120.699 0        45.000  
        41.000                                                  
  24599649.977    24599647.547   129271790.363 0 100731179.985 0        40.000  
        37.000                                                  
 22  1  1  3 59 43.0000000  0  0
 22  1  1  3 59 44.0010000  0  6E04E07E11E12E19E26
  28651948.926                   150566277.11310                        37.000  
                  28651946.657   115368964.851          41.000  
  27357031.241                   143761885.306 0                        39.000  
                  27357030.758   110155585.970          45.000  
  27152108.374                   142684985.077 0                        35.000  
                  27152104.729   109329812.093          40.000  
  22791713.875                   119771596.366 0                        45.000  
                  22791710.194    91772872.563          50.000  
  23732468.866                   124714861.647 0                        45.000  
                  23732466.775    95560741.511          49.000  
                                                                                
                  27153406.952   109336047.272          40.000  
 22  1  1  3 59 45.0010000  0  9G01G03G04G09G17G19G21G31G32
  20164969.679    20164966.784   105967875.150 0  82572071.116 0        50.000  
        49.000                                                  
  20511280.993    20511278.117   107788108.335 0  83989724.691 0        50.000  
        49.000                                                  
  22099279.711    22099275.923   116132241.298 0  90492656.840 0        46.000  
        46.000                                                  
  25205252.573    25205249.571   132453816.595 0 103210766.304 0        37.000  
        38.000                                                  
  22588055.653    22588049.023   118700499.695 0  92494860.416 0        46.000  
        43.000                                                  
  23252957.137                   122195705.28710                        42.000  
                                                                
  21767417.038                   114389302.071 0                        48.000  
                                                                
  22617174.316    22617168.633   118854185.421 0  92613654.090 0        45.000  
        41.000                                                  
  24600292.243    24600289.760   129275164.882 0 100733809.506 0        40.000  
        37.000                                                  
 22  1  1  3 59 44.0000000  0  0
 22  1  1  3 59 45.0010000  0  6E04E07E11E12E19E26
  28651405.476                   150563420.94410                        37.000  
                  28651403.278   115366776.363          41.000  
  27357542.545                   143764573.572 0                        39.000  
                  27357542.438   110157645.821          45.000  
  27151548.109                   142682041.036 0                        35.000  
                  27151544.445   109327556.283          40.000  
  22791424.468                   119770075.512 0                        45.000  
                  22791420.805    91771707.240          50.000  
  23732192.789                   124713409.473 0                        45.000  
                  23732190.413    95559628.809          49.000  
                                                                                
                  27153965.323   109338295.703          40.000  
 22  1  1  3 59 46.0010000  0  9G01G03G04G09G17G19G21G31G32
  20165185.591    20165182.606   105969009.866 0  82572955.312 0        50.000  
        49.000                                                  
  20511105.412    20511102.768   107787185.962 0  83989005.961 0        50.000  
        49.000                                                  
  22098720.839    22098717.105   116129304.822 0  90490368.681 0        46.000  
        46.000                                                  
  25204548.497    25204545.531   132450116.972 0 103207883.480 0        37.000  
        38.000                                                  
  22587954.353    22587947.688   118699967.190 0  92494445.465 0        46.000  
        43.000                                                  
  23252575.347                   122193698.93710                        42.000  
                                                                
  21767796.416                   114391295.967 0                        48.000  
                                                                
  22617060.508    22617054.772   118853587.079 0  92613187.844 0        45.000  
        41.000                                                  
  24600934.420    24600931.865   129278539.374 0 100736438.967 0        40.000  
        37.000                                                  
 22  1  1  3 59 45.0000000  0  0
 22  1  1  3 59 46.0010000  0  6E04E07E11E12E19E26
  28650862.132                   150560564.69210                        37.000  
                  28650859.792   115364587.800          41.000  
  27358054.010                   143767261.759 0                        39.000  
                  27358053.992   110159705.587          45.000  
  27150987.825                   142679096.836 0                        35.000  
                  27150984.144   109325300.356          40.000  
  22791135.187                   119768554.810 0                        45.000  
                  22791131.416    91770542.031          50.000  
  23731916.373                   124711957.470 0                        45.000  
                  23731914.176    95558516.228          49.000  
                                                                                
                  27154523.730   109340544.138          40.000  
 22  1  1  3 59 47.0010000  0  9G01G03G04G09G17G19G21G31G32
  20165401.681    20165398.786   105970145.383 0  82573840.124 0        50.000  
        49.000                                                  
  20510929.992    20510927.294   107786264.157 0  83988287.668 0        50.000  
        49.000                                                  
  22098162.200    22098158.358   116126368.941 0  90488080.973 0        46.000  
        46.000                                                  
  25203844.547    25203841.652   132446417.650 0 103205000.899 0        37.000  
        38.000                                                  
  22587853.232    22587846.442   118699435.517 0  92494031.182 0        46.000  
        43.000                                                  
  23252193.790                   122191693.46810                        42.000  
                                                                
  21768175.864                   114393290.465 0                        48.000  
                                                                
  22616946.789    22616941.071   118852989.651 0  92612722.328 0        45.000  
        41.000                                                  
  24601576.687    24601574.078   129281914.166 0 100739068.670 0        40.000  
        37.000                                                  
 22  1  1  3 59 46.0000000  0  0
 22  1  1  3 59 47.0010000  0  6E04E07E11E12E19E26
  28650318.646                   150557708.75210                        37.000  
                  28650316.377   115362399.468          41.000  
  27358565.725                   143769950.224 0                        39.000  
                  27358565.546   110161765.582          45.000  
  27150427.453                   142676152.901 0                        35.000  
                  27150423.933   109323044.582          40.000  
  22790845.816                   119767034.672 0                        45.000  
                  22790842.153    91769377.241          50.000  
  23731640.136                   124710506.004 0                        45.000  
                  23731637.956    95557404.070          49.000  
                                                                                
                  27155082.101   109342792.836          40.000  
 22  1  1  3 59 48.0010000  0  9G01G03G04G09G17G19G21G31G32
  20165617.842    20165614.947   105971281.417 0  82574725.350 0        50.000  
        49.000                                                  
  20510754.626    20510751.945   107785342.667 0  83987569.621 0        50.000  
        49.000                                                  
  22097603.561    22097599.755   116123433.396 0  90485793.532 0        46.000  
        46.000                                                  
  25203140.615    25203137.792   132442718.373 0 103202118.359 0        37.000  
        38.000                                                  
  22587752.201    22587745.393   118698904.420 0  92493617.335 0        46.000  
        43.000                                                  
  23251812.286                   122189688.57010                        42.000  
                                                                
  21768555.492                   114395285.315 0                        48.000  
                                                                
  22616833.214    22616827.496   118852392.870 0  92612257.308 0        45.000  
        41.000                                                  
  24602218.953    24602216.165   129285289.052 0 100741698.430 0        40.000  
        37.000                                                  
 22  1  1  3 59 47.0000000  0  0
 22  1  1  3 59 48.0010000  0  6E04E07E11E12E19E26
  28649775.088                   150554852.83210                        37.000  
                  28649772.926   115360211.175          41.000  
  27359077.387                   143772638.701 0                        39.000  
                  27359077.154   110163825.589          45.000  
  27149867.473                   142673208.936 0                        36.000  
                  27149863.703   109320788.819          39.000  
  22790556.695                   119765514.827 0                        45.000  
                  22790552.942    91768212.687          50.000  
  23731363.988                   124709054.855 0                        45.000  
                  23731361.790    95556292.151          49.000  
                                                                                
                  27155640.740   109345041.652          40.000  
 22  1  1  3 59 49.0010000  0  9G01G03G04G09G17G19G21G31G32
  20165834.182    20165831.306   105972418.263 0  82575611.202 0        50.000  
        49.000                                                  
  20510579.473    20510576.704   107784421.743 0  83986852.014 0        50.000  
        49.000                                                  
  22097045.136    22097041.187   116120498.437 0  90483506.556 0        46.000  
        46.000                                                  
  25202436.700    25202433.949   132439019.389 0 103199236.039 0        37.000  
        38.000                                                  
  22587651.366    22587644.540   118698374.154 0  92493204.147 0        46.000  
        43.000                                                  
  23251430.944                   122187684.48310                        42.000  
                                                                
  21768935.191                   114397280.754 0                        48.000  
                                                                
  22616719.835    22616714.206   118851796.977 0  92611792.960 0        45.000  
        41.000                                                  
  24602861.309    24602858.414   129288664.257 0 100744328.477 0        40.000  
        37.000                                                  
 22  1  1  3 59 48.0000000  0  0
 22  1  1  3 59 49.0010000  0  6E04E07E11E12E19E26
  28649231.834                   150551997.22410                        37.000  
                  28649229.404   115358023.105          41.000  
  27359589.084                   143775327.495 0                        39.000  
                  27359588.727   110165885.827          44.000  
  27149307.405                   142670265.206 0                        36.000  
                  27149303.545   109318533.229          39.000  
  22790267.646                   119763995.537 0                        45.000  
                  22790263.857    91767048.553          50.000  
  23731087.930                   124707604.260 0                        45.000  
                  23731085.732    95555180.656          49.000  
                                                                                
                  27156199.272   109347290.732          40.000  
 22  1  1  3 59 50.0010000  0  9G01G03G04G09G17G19G21G31G32
  20166050.648    20166047.628   105973555.555 0  82576497.404 0        50.000  
        49.000                                                  
  20510404.250    20510401.498   107783501.046 0  83986134.594 0        50.000  
        49.000                                                  
  22096486.675    22096482.708   116117563.715 0  90481219.767 0        46.000  
        46.000                                                  
  25201732.768    25201730.052   132435320.365 0 103196353.691 0        37.000  
        38.000                                                  
  22587550.495    22587543.705   118697844.401 0  92492791.344 0        46.000  
        43.000                                                  
  23251049.672                   122185680.90610                        42.000  
                                                                
  21769314.943                   114399276.461 0                        48.000  
                                                                
  22616606.581    22616600.934   118851201.639 0  92611329.067 0        45.000  
        41.000                                                  
  24603503.629    24603500.716   129292039.445 0 100746958.496 0        40.000  
        37.000                                                  
 22  1  1  3 59 49.0000000  0  0
 22  1  1  3 59 50.0010000  0  6E04E07E11E12E19E26
  28648688.169                   150549141.55410                        37.000  
                  28648686.025   115355835.016          41.000  
  27360100.674                   143778016.210 0                        39.000  
                  27360100.478   110167946.013          45.000  
  27148747.103                   142667321.376 0                        36.000  
                  27148743.405   109316277.565          40.000  
  22789978.489                   119762476.438 0                        45.000  
                  22789974.790    91765884.579          50.000  
  23730812.032                   124706153.877 0                        45.000  
                  23730809.799    95554069.323          49.000  
                                                                                
                  27156757.661   109349539.828          40.000  
 22  1  1  3 59 51.0010000  0  9G01G03G04G09G17G19G21G31G32
  20166267.131    20166264.147   105974693.320 0  82577383.974 0        50.000  
        49.000                                                  
  20510229.062    20510226.292   107782580.597 0  83985417.359 0        49.000  
        49.000                                                  
  22095928.197    22095924.284   116114629.273 0  90478933.202 0        46.000  
        46.000                                                  
  25201028.800    25201026.263   132431621.351 0 103193471.322 0        37.000  
        38.000                                                  
  22587449.768    22587443.067   118697315.164 0  92492378.956 0        46.000  
        43.000                                                  
  23250668.401                   122183677.84910                        42.000  
                                                                
  21769694.696                   114401272.455 0                        48.000  
                                                                
  22616493.399    22616487.716   118850606.882 0  92610865.613 0        45.000  
        41.000                                                  
  24604145.877    24604142.964   129295414.651 0 100749588.533 0        40.000  
        37.000                                                  
 22  1  1  3 59 50.0000000  0  0
 22  1  1  3 59 51.0010000  0  6E04E07E11E12E19E26
  28648144.611                   150546285.90710                        37.000  
                  28648142.646   115353646.903          41.000  
  27360612.532                   143780704.892 0                        39.000  
                  27360612.050   110170006.179          45.000  
  27148186.963                   142664377.467 0                        36.000  
                  27148183.157   109314021.838          40.000  
  22789689.422                   119760957.605 0                        45.000  
                  22789685.634    91764720.792          50.000  
  23730535.974                   124704703.740 0                        45.000  
                  23730533.776    95552958.175          49.000  
                                                                                
                  27157316.301   109351788.983          40.000  
 22  1  1  3 59 52.0010000  0  9G01G03G04G09G17G19G21G31G32
  20166483.704    20166480.737   105975831.555 0  82578270.909 0        50.000  
        49.000                                                  
  20510054.017    20510051.104   107781660.392 0  83984700.314 0        50.000  
        49.000                                                  
  22095369.844    22095365.895   116111695.109 0  90476646.827 0        46.000  
        46.000                                                  
  25200324.904    25200322.366   132427922.291 0 103190588.936 0        37.000  
        38.000                                                  
  22587349.183    22587342.393   118696786.432 0  92491966.953 0        46.000  
        43.000                                                  
  23250287.326                   122181675.28110                        42.000  
                                                                
  21770074.645                   114403268.711 0                        48.000  
                                                                
  22616380.323    22616374.695   118850012.680 0  92610402.600 0        45.000  
        41.000                                                  
  24604788.090    24604785.284   129298789.844 0 100752218.552 0        40.000  
        37.000                                                  
 22  1  1  3 59 51.0000000  0  0
 22  1  1  3 59 52.0010000  0  6E04E07E11E12E19E26
  28647601.054                   150543430.20110                        37.000  
                  28647599.231   115351458.783          41.000  
  27361124.426                   143783393.537 0                        39.000  
                  27361123.694   110172066.294          45.000  
  27147626.716                   142661433.443 0                        36.000  
                  27147622.963   109311766.030          40.000  
  22789400.301                   119759438.970 0                        45.000  
                  22789396.799    91763557.155          50.000  
  23730260.040                   124703253.814 0                        45.000  
                  23730257.807    95551847.206          49.000  
                                                                                
                  27157874.886   109354038.142          40.000  
 22  1  1  3 59 53.0010000  0  9G01G03G04G09G17G19G21G31G32
  20166700.508    20166697.453   105976970.370 0  82579158.300 0        50.000  
        49.000                                                  
  20509879.133    20509876.131   107780740.542 0  83983983.548 0        49.000  
        49.000                                                  
  22094811.597    22094807.631   116108761.303 0  90474360.756 0        46.000  
        46.000                                                  
  25199621.096    25199618.523   132424223.346 0 103187706.618 0        37.000  
        38.000                                                  
  22587248.741    22587241.915   118696258.317 0  92491555.430 0        46.000  
        43.000                                                  
  23249906.484                   122179673.34510                        42.000  
                                                                
  21770454.629                   114405265.347 0                        48.000  
                                                                
  22616267.481    22616261.655   118849419.161 0  92609940.118 0        45.000  
        41.000                                                  
  24605430.284    24605427.604   129302165.155 0 100754848.671 0        40.000  
        37.000                                                  
 22  1  1  3 59 52.0000000  0  0
 22  1  1  3 59 53.0010000  0  6E04E07E11E12E19E26
  28647057.460                   150540574.58710                        37.000  
                  28647055.888   115349270.697          41.000  
  27361635.945                   143786082.234 0                        39.000  
                  27361635.534   110174126.471          44.000  
  27147066.575                   142658489.449 0                        36.000  
                  27147062.805   109309510.233          40.000  
  22789111.359                   119757920.666 0                        45.000  
                  22789107.821    91762393.786          50.000  
  23729984.160                   124701804.238 0                        45.000  
                  23729981.962    95550736.490          49.000  
                                                                                
                  27158433.383   109356287.439          40.000  
 22  1  1  3 59 54.0010000  0  9G01G03G04G09G17G19G21G31G32
  20166917.367    20166914.240   105978109.775 0  82580046.144 0        50.000  
        49.000                                                  
  20509704.106    20509701.014   107779821.059 0  83983267.067 0        49.000  
        49.000                                                  
  22094253.298    22094249.331   116105827.896 0  90472074.975 0        46.000  
        46.000                                                  
  25198917.289    25198914.573   132420524.441 0 103184824.373 0        37.000  
        38.000                                                  
  22587148.317    22587141.527   118695730.835 0  92491144.416 0        46.000  
        43.000                                                  
  23249525.588                   122177672.03310                        43.000  
                                                                
  21770834.686                   114407262.395 0                        48.000  
                                                                
  22616154.763    22616148.902   118848826.335 0  92609478.183 0        45.000  
        41.000                                                  
  24606072.533    24606069.924   129305540.602 0 100757478.882 0        40.000  
        37.000                                                  
 22  1  1  3 59 53.0000000  0  0
 22  1  1  3 59 54.0010000  0  6E04E07E11E12E19E26
  28646514.152                   150537719.05510                        37.000  
                  28646512.455   115347082.705          41.000  
  27362147.571                   143788771.010 0                        39.000  
                  27362147.231   110176186.707          45.000  
  27146506.382                   142655545.496 0                        36.000  
                  27146502.486   109307254.488          40.000  
  22788822.578                   119756402.722 0                        45.000  
                  22788818.968    91761230.687          50.000  
  23729708.334                   124700355.019 0                        45.000  
                  23729706.226    95549626.052          49.000  
                                                                                
                  27158992.076   109358536.861          40.000  
 22  1  1  3 59 55.0010000  0  9G01G03G04G09G17G19G21G31G32
  20167134.422    20167131.170   105979249.820 0  82580934.491 0        50.000  
        49.000                                                  
  20509529.150    20509526.202   107778901.975 0  83982550.896 0        49.000  
        49.000                                                  
  22093695.141    22093691.210   116102894.918 0  90469789.528 0        46.000  
        46.000                                                  
  25198213.446    25198210.694   132416825.692 0 103181942.226 0        37.000  
        38.000                                                  
  22587048.108    22587041.246   118695204.037 0  92490733.927 0        46.000  
        43.000                                                  
  23249144.817                   122175671.40010                        42.000  
                                                                
  21771214.903                   114409259.865 0                        48.000  
                                                                
  22616042.224    22616036.184   118848234.249 0  92609016.805 0        45.000  
        41.000                                                  
  24606715.049    24606712.244   129308916.215 0 100760109.237 0        40.000  
        37.000                                                  
 22  1  1  3 59 54.0000000  0  0
 22  1  1  3 59 55.0010000  0  6E04E07E11E12E19E26
  28645970.916                   150534863.65410                        37.000  
                  28645968.986   115344894.806          41.000  
  27362659.143                   143791459.916 0                        39.000  
                  27362658.714   110178247.039          45.000  
  27145946.331                   142652601.613 0                        37.000  
                  27145942.328   109304998.774          40.000  
  22788533.796                   119754885.166 0                        45.000  
                  22788530.133    91760067.884          50.000  
  23729432.579                   124698906.191 0                        45.000  
                  23729430.489    95548515.906          49.000  
                                                                                
                  27159550.858   109360786.445          40.000  
 22  1  1  3 59 56.0010000  0  9G01G03G04G09G17G19G21G31G32
  20167351.423    20167348.189   105980390.470 0  82581823.311 0        50.000  
        49.000                                                  
  20509354.338    20509351.407   107777983.288 0  83981835.033 0        49.000  
        49.000                                                  
  22093137.163    22093133.089   116099962.351 0  90467504.415 0        46.000  
        46.000                                                  
  25197509.693    25197506.994   132413127.096 0 103179060.217 0        37.000  
        38.000                                                  
  22586948.041    22586941.144   118694677.893 0  92490323.924 0        46.000  
        43.000                                                  
  23248764.224                   122173671.41210                        42.000  
                                                                
  21771595.048                   114411257.776 0                        48.000  
                                                                
  22615929.774    22615923.627   118847642.866 0  92608555.983 0        45.000  
        41.000                                                  
  24607357.512    24607354.635   129312291.978 0 100762739.686 0        40.000  
        37.000                                                  
 22  1  1  3 59 55.0000000  0  0
 22  1  1  3 59 56.0010000  0  6E04E07E11E12E19E26
  28645427.680                   150532008.41910                        37.000  
                  28645425.750   115342707.016          41.000  
  27363171.216                   143794148.942 0                        39.000  
                  27363170.554   110180307.450          45.000  
  27145386.047                   142649657.822 0                        37.000  
                  27145382.241   109302743.139          40.000  
  22788245.069                   119753367.989 0                        45.000  
                  22788241.477    91758905.367          50.000  
  23729157.039                   124697457.750 0                        45.000  
                  23729154.841    95547406.058          49.000  
                                                                                
                  27160109.461   109363036.169          40.000  
 22  1  1  3 59 57.0010000  0  9G01G03G04G09G17G19G21G31G32
  20167568.603    20167565.333   105981531.823 0  82582712.675 0        50.000  
        49.000                                                  
  20509179.632    20509176.666   107777065.067 0  83981119.534 0        49.000  
        49.000                                                  
  22092579.220    22092575.253   116097030.267 0  90465219.682 0        46.000  
        46.000                                                  
  25196805.939    25196803.187   132409428.679 0 103176178.319 0        37.000  
        38.000                                                  
  22586847.993    22586841.167   118694152.489 0  92489914.534 0        46.000  
        43.000                                                  
  23248383.775                   122171672.16010                        43.000  
                                                                
  21771975.319                   114413256.173 0                        48.000  
                                                                
  22615817.431    22615811.177   118847052.276 0  92608095.799 0        45.000  
        41.000                                                  
  24607999.921    24607996.973   129315667.952 0 100765370.319 0        40.000  
        37.000                                                  
 22  1  1  3 59 56.0000000  0  0
 22  1  1  3 59 57.0010000  0  6E04E07E11E12E19E26
  28644884.533                   150529153.35010                        37.000  
                  28644882.550   115340519.362          41.000  
  27363682.698                   143796838.144 0                        39.000  
                  27363682.270   110182368.017          44.000  
  27144825.871                   142646714.153 0                        37.000  
                  27144822.030   109300487.599          40.000  
  22787956.448                   119751851.249 0                        45.000  
                  22787952.892    91757743.194          50.000  
  23728881.409                   124696009.755 0                        45.000  
                  23728879.426    95546296.566          49.000  
                                                                                
                  27160668.279   109365286.106          40.000  
 22  1  1  3 59 58.0010000  0  9G01G03G04G09G17G19G21G31G32
  20167785.730    20167782.674   105982673.330 0  82583602.167 0        50.000  
        49.000                                                  
  20509004.909    20509001.889   107776146.795 0  83980404.002 0        49.000  
        49.000                                                  
  22092021.367    22092017.293   116094098.155 0  90462934.921 0        46.000  
        46.000                                                  
  25196102.078    25196099.451   132405729.938 0 103173296.200 0        37.000  
        38.000                                                  
  22586748.141    22586741.261   118693627.308 0  92489505.295 0        47.000  
        43.000                                                  
  23248003.290                   122169673.12910                        43.000  
                                                                
  21772355.643                   114415254.541 0                        48.000  
                                                                
  22615705.035    22615698.781   118846461.959 0  92607635.817 0        45.000  
        41.000                                                  
  24608642.277    24608639.257   129319043.624 0 100768000.738 0        40.000  
        37.000                                                  
 22  1  1  3 59 57.0000000  0  0
 22  1  1  3 59 58.0010000  0  6E04E07E11E12E19E26
  28644341.136                   150526297.95810                        37.000  
                  28644339.153   115338331.471          41.000  
  27364194.414                   143799527.005 0                        39.000  
                  27364193.967   110184428.302          44.000  
  27144265.660                   142643770.077 0                        37.000  
                  27144261.907   109298231.759          40.000  
  22787667.828                   119750334.441 0                        45.000  
                  22787664.236    91756580.967          50.000  
  23728606.012                   124694561.693 0                        45.000  
                  23728603.725    95545187.003          49.000  
                                                                                
                  27161226.865   109367535.839          40.000  
 22  1  1  3 59 59.0010000  0  9G01G03G04G09G17G19G21G31G32
  20168003.142    20168000.087   105983815.740 0  82584492.357 0        50.000  
        49.000                                                  
  20508830.328    20508827.201   107775229.190 0  83979688.983 0        49.000  
        49.000                                                  
  22091463.568    22091459.476   116091166.732 0  90460650.698 0        46.000  
        46.000                                                  
  25195398.307    25195395.716   132402031.600 0 103170414.387 0        37.000  
        38.000                                                  
  22586648.342    22586641.480   118693103.051 0  92489096.786 0        46.000  
        43.000                                                  
  23247623.126                   122167675.02210                        43.000  
                                                                
  21772736.146                   114417253.626 0                        48.000  
                                                                
  22615592.943    22615586.653   118845872.654 0  92607176.607 0        45.000  
        41.000                                                  
  24609284.865    24609281.684   129322419.748 0 100770631.455 0        40.000  
        37.000                                                  
 22  1  1  3 59 58.0000000  0  0
 22  1  1  3 59 59.0010000  0  6E04E07E11E12E19E26
  28643797.846                   150523442.99010                        37.000  
                  28643795.934   115336143.886          41.000  
  27364706.290                   143802216.236 0                        39.000  
                  27364705.539   110186488.893          45.000  
  27143705.645                   142640826.361 0                        37.000  
                  27143701.731   109295976.172          40.000  
  22787379.297                   119748818.300 0                        45.000  
                  22787375.759    91755419.242          50.000  
  23728330.525                   124693114.285 0                        45.000  
                  23728328.417    95544077.955          49.000  
                                                                                
                  27161785.665   109369785.949          40.000  
 22  1  1  4  0  0.0010000  0  9G01G03G04G09G17G19G21G31G32
  20168220.698    20168217.481   105984958.693 0  82585382.961 0        50.000  
        49.000                                                  
  20508655.677    20508652.657   107774311.882 0  83978974.204 0        49.000  
        49.000                                                  
  22090905.876    22090901.712   116088235.649 0  90458366.721 0        46.000  
        46.000                                                  
  25194694.571    25194692.034   132398333.315 0 103167532.609 0        37.000  
        39.000                                                  
  22586548.722    22586541.735   118692579.381 0  92488688.729 0        46.000  
        43.000                                                  
  23247243.088                   122165677.50510                        43.000  
                                                                
  21773116.703                   114419253.033 0                        48.000  
                                                                
  22615480.922    22615474.596   118845283.978 0  92606717.891 0        45.000  
        41.000                                                  
  24609927.221    24609924.147   129325795.946 0 100773262.258 0        40.000  
        37.000                                                  
 22  1  1  3 59 59.0000000  0  0
 22  1  1  4  0  0.0010000  0  6E04E07E11E12E19E26
  28643254.539                   150520588.03510                        37.000  
                  28643252.609   115333956.329          41.000  
  27365218.094                   143804905.506 0                        39.000  
                  27365217.362   110188549.491          45.000  
  27143145.540                   142637882.611 0                        37.000  
                  27143141.645   109293720.568          40.000  
  22787090.891                   119747302.429 0                        45.000  
                  22787087.245    91754257.739          50.000  
  23728055.092                   124691667.185 0                        45.000  
                  23728052.912    95542969.136          49.000  
                                                                                
                  27162344.626   109372036.134          40.000  
 22  1  1  4  0  1.0010000  0  9G01G03G04G09G17G19G21G31G32
  20168438.164    20168434.894   105986101.966 0  82586273.829 0        50.000  
        49.000                                                  
  20508481.186    20508478.112   107773394.702 0  83978259.514 0        49.000  
        49.000                                                  
  22090348.184    22090344.074   116085304.681 0  90456082.864 0        46.000  
        46.000                                                  
  25193990.817    25193988.280   132394634.871 0 103164650.686 0        37.000  
        39.000                                                  
  22586449.085    22586442.151   118692056.075 0  92488280.965 0        46.000  
        43.000                                                  
  23246863.014                   122163680.32210                        43.000  
                                                                
  21773497.295                   114421252.592 0                        48.000  
                                                                
  22615368.972    22615362.700   118844695.741 0  92606259.545 0        45.000  
        41.000                                                  
  24610569.737    24610566.610   129329172.002 0 100775892.937 0        40.000  
        37.000                                                  
 22  1  1  4  0  0.0000000  0  0
 22  1  1  4  0  1.0010000  0  6E04E07E11E12E19E26
  28642711.481                   150517732.91710                        37.000  
                  28642709.266   115331768.640          41.000  
  27365729.720                   143807594.587 0                        39.000  
                  27365729.077   110190609.962          45.000  
  27142585.310                   142634938.634 0                        37.000  
                  27142581.379   109291464.794          40.000  
  22786802.395                   119745786.660 0                        45.000  
                  22786798.839    91753096.308          50.000  
  23727779.784                   124690220.174 0                        45.000  
                  23727777.693    95541860.391          49.000  
                                                                                
                  27162903.337   109374286.242          40.000  
 22  1  1  4  0  2.0010000  0  9G01G03G04G09G17G19G21G31G32
  20168655.916    20168652.592   105987245.793 0  82587165.119 0        50.000  
        49.000                                                  
  20508306.766    20508303.603   107772477.822 0  83977545.064 0        49.000  
        49.000                                                  
  22089790.545    22089786.381   116082374.068 0  90453799.262 0        46.000  
        46.000                                                  
  25193287.046    25193284.509   132390936.448 0 103161768.809 0        37.000  
        39.000                                                  
  22586349.536    22586342.710   118691533.359 0  92487873.653 0        46.000  
        43.000                                                  
  23246483.047                   122161683.74110                        43.000  
                                                                
  21773877.762                   114423252.489 0                        48.000  
                                                                
  22615257.095    22615250.912   118844108.147 0  92605801.673 0        45.000  
        41.000                                                  
  24611212.200    24611209.180   129332548.126 0 100778523.727 0        41.000  
        37.000                                                  
 22  1  1  4  0  1.0000000  0  0
 22  1  1  4  0  2.0010000  0  6E04E07E11E12E19E26
  28642168.102                   150514877.83910                        37.000  
                  28642165.958   115329581.006          41.000  
  27366241.435                   143810283.701 0                        39.000  
                  27366240.810   110192670.461          45.000  
  27142025.009                   142631994.655 0                        37.000  
                  27142021.239   109289209.042          41.000  
  22786514.257                   119744271.202 0                        45.000  
                  22786510.523    91751935.106          50.000  
  23727504.601                   124688773.467 0                        45.000  
                  23727502.278    95540751.871          49.000  
                                                                                
                  27163462.262   109376536.447          40.000  
 22  1  1  4  0  3.0010000  0  9G01G03G04G09G17G19G21G31G32
  20168873.650    20168870.505   105988390.425 0  82588057.042 0        50.000  
        49.000                                                  
  20508132.347    20508129.273   107771561.544 0  83976831.076 0        49.000  
        49.000                                                  
  22089232.853    22089228.796   116079444.062 0  90451516.146 0        46.000  
        46.000                                                  
  25192583.239    25192580.826   132387238.377 0 103158887.189 0        37.000  
        39.000                                                  
  22586250.220    22586243.448   118691011.511 0  92487467.023 0        46.000  
        43.000                                                  
  23246103.455                   122159688.03110                        43.000  
                                                                
  21774258.498                   114425253.005 0                        48.000  
                                                                
  22615145.485    22615139.266   118843521.480 0  92605344.525 0        44.000  
        41.000                                                  
  24611854.806    24611851.625   129335924.605 0 100781154.711 0        41.000  
        37.000                                                  
 22  1  1  4  0  2.0000000  0  0
 22  1  1  4  0  3.0010000  0  6E04E07E11E12E19E26
  28641624.866                   150512023.09910                        37.000  
                  28641622.543   115327393.585          41.000  
  27366753.168                   143812973.123 0                        39.000  
                  27366752.597   110194731.178          45.000  
  27141464.851                   142629050.945 0                        37.000  
                  27141461.099   109286953.441          41.000  
  22786225.744                   119742756.299 0                        45.000  
                  22786222.099    91750774.336          50.000  
  23727229.436                   124687327.336 0                        45.000  
                  23727227.077    95539643.799          49.000  
                                                                                
                  27164021.223   109378786.928          40.000  
 22  1  1  4  0  4.0010000  0  9G01G03G04G09G17G19G21G31G32
  20169091.580    20169088.632   105989535.980 0  82588949.683 0        50.000  
        49.000                                                  
  20507958.159    20507955.050   107770645.961 0  83976117.635 0        49.000  
        49.000                                                  
  22088675.464    22088671.390   116076514.761 0  90449233.580 0        46.000  
        46.000                                                  
  25191879.610    25191877.216   132383540.728 0 103156005.906 0        37.000  
        39.000                                                  
  22586151.029    22586144.346   118690490.617 0  92487061.130 0        46.000  
        43.000                                                  
  23245723.810                   122157693.26110                        43.000  
                                                                
  21774639.322                   114427254.258 0                        48.000  
                                                                
  22615034.036    22615027.728   118842935.826 0  92604888.174 0        44.000  
        41.000                                                  
  24612497.376    24612494.142   129339301.536 0 100783786.101 0        41.000  
        37.000                                                  
 22  1  1  4  0  3.0000000  0  0
 22  1  1  4  0  4.0010000  0  6E04E07E11E12E19E26
  28641082.041                   150509168.79110                        37.000  
                  28641079.396   115325206.511          41.000  
  27367265.205                   143815662.962 0                        39.000  
                  27367264.526   110196792.212          45.000  
  27140904.872                   142626107.594 0                        37.000  
                  27140900.994   109284698.150          41.000  
  22785937.803                   119741242.082 0                        45.000  
                  22785933.943    91749614.090          50.000  
  23726954.450                   124685881.891 0                        45.000  
                  23726952.019    95538536.253          49.000  
                                                                                
                  27164580.130   109381037.812          40.000  
 22  1  1  4  0  5.0010000  0  9G01G03G04G09G17G19G21G31G32
  20169309.690    20169306.670   105990681.865 0  82589842.582 0        50.000  
        49.000                                                  
  20507783.883    20507780.809   107769730.466 0  83975404.265 0        49.000  
        49.000                                                  
  22088118.022    22088114.020   116073585.583 0  90446951.104 0        46.000  
        46.000                                                  
  25191176.000    25191173.641   132379842.906 0 103153124.498 0        37.000  
        39.000                                                  
  22586051.856    22586045.245   118689970.081 0  92486655.522 0        46.000  
        43.000                                                  
  23245344.361                   122155698.88910                        43.000  
                                                                
  21775020.147                   114429255.628 0                        48.000  
                                                                
  22614922.676    22614916.279   118842350.606 0  92604432.160 0        44.000  
        41.000                                                  
  24613139.892    24613136.640   129342678.312 0 100786417.364 0        41.000  
        37.000                                                  
 22  1  1  4  0  4.0000000  0  0
 22  1  1  4  0  5.0010000  0  6E04E07E11E12E19E26
  28640538.769                   150506314.30610                        37.000  
                  28640536.124   115323019.320          41.000  
  27367777.135                   143818352.613 0                        39.000  
                  27367776.295   110198853.116          45.000  
  27140344.642                   142623163.978 0                        37.000  
                  27140340.836   109282442.675          41.000  
  22785649.718                   119739727.942 0                        45.000  
                  22785645.912    91748453.909          50.000  
  23726679.499                   124684436.528 0                        45.000  
                  23726676.997    95537428.769          49.000  
                                                                                
                  27165139.144   109383288.621          40.000  
 22  1  1  4  0  6.0010000  0  9G01G03G04G09G17G19G21G31G32
  20169527.817    20169524.761   105991827.923 0  82590735.612 0        50.000  
        49.000                                                  
  20507609.749    20507606.604   107768814.932 0  83974690.862 0        49.000  
        49.000                                                  
  22087560.741    22087556.613   116070656.399 0  90444668.620 0        46.000  
        46.000                                                  
  25190472.300    25190469.905   132376144.777 0 103150242.839 0        37.000  
        39.000                                                  
  22585952.844    22585946.340   118689449.801 0  92486250.104 0        46.000  
        43.000                                                  
  23244964.966                   122153704.71510                        43.000  
                                                                
  21775401.061                   114431256.992 0                        48.000  
                                                                
  22614811.334    22614804.883   118841765.668 0  92603976.364 0        44.000  
        41.000                                                  
  24613782.427    24613779.174   129346054.835 0 100789048.405 0        41.000  
        37.000                                                  
 22  1  1  4  0  5.0000000  0  0
 22  1  1  4  0  6.0010000  0  6E04E07E11E12E19E26
  28639995.390                   150503459.51610                        37.000  
                  28639992.852   115320831.874          41.000  
  27368288.671                   143821041.929 0                        39.000  
                  27368288.028   110200913.761          45.000  
  27139784.466                   142620220.010 0                        37.000  
                  27139780.696   109280186.901          41.000  
  22785361.491                   119738213.746 0                        45.000  
                  22785357.631    91747293.684          50.000  
  23726404.602                   124682991.110 0                        45.000  
                  23726401.904    95536321.234          49.000  
                                                                                
                  27165698.105   109385539.229          40.000  
 22  1  1  4  0  7.0010000  0  9G01G03G04G09G17G19G21G31G32
  20169746.015    20169742.888   105992974.723 0  82591629.227 0        50.000  
        49.000                                                  
  20507435.598    20507432.578   107767899.924 0  83973977.860 0        49.000  
        49.000                                                  
  22087003.496    22086999.332   116067727.755 0  90442386.564 0        46.000  
        46.000                                                  
  25189768.617    25189766.294   132372446.893 0 103147361.378 0        37.000  
        39.000                                                  
  22585853.903    22585847.435   118688930.292 0  92485845.294 0        46.000  
        44.000                                                  
  23244585.678                   122151711.31710                        43.000  
                                                                
  21775781.975                   114433258.911 0                        48.000  
                                                                
  22614700.046    22614693.791   118841181.569 0  92603521.227 0        44.000  
        41.000                                                  
  24614425.122    24614421.691   129349431.601 0 100791679.654 0        41.000  
        37.000                                                  
 22  1  1  4  0  6.0000000  0  0
 22  1  1  4  0  7.0010000  0  6E04E07E11E12E19E26
  28639452.189                   150500604.95810                        37.000  
                  28639449.598   115318644.627          41.000  
  27368800.619                   143823731.471 0                        39.000  
                  27368799.815   110202974.590          45.000  
  27139224.308                   142617276.248 0                        37.000  
                  27139220.430   109277931.300          41.000  
  22785073.460                   119736700.064 0                        45.000  
                  22785069.743    91746133.844          50.000  
  23726129.365                   124681546.202 0                        45.000  
                  23726126.953    95535214.108          49.000  
                                                                                
                  27166257.013   109387790.099          40.000  
 22  1  1  4  0  8.0010000  0  9G01G03G04G09G17G19G21G31G32
  20169964.232    20169961.212   105994122.142 0  82592523.317 0        50.000  
        49.000                                                  
  20507261.518    20507258.462   107766985.310 0  83973265.177 0        49.000  
        49.000                                                  
  22086446.375    22086442.051   116064799.518 0  90440104.826 0        46.000  
        46.000                                                  
  25189064.935    25189062.648   132368749.168 0 103144480.029 0        38.000  
        39.000                                                  
  22585755.105    22585748.708   118688411.458 0  92485441.003 0        46.000  
        44.000                                                  
  23244206.533                   122149718.61310                        43.000  
                                                                
  21776163.014                   114435261.244 0                        48.000  
                                                                
  22614589.043    22614582.825   118840598.206 0  92603066.649 0        44.000  
        41.000                                                  
  24615067.692    24615064.261   129352808.547 0 100794311.043 0        41.000  
        37.000                                                  
 22  1  1  4  0  7.0000000  0  0
 22  1  1  4  0  8.0010000  0  6E04E07E11E12E19E26
  28638909.203                   150497750.52610                        37.000  
                  28638906.505   115316457.462          41.000  
  27369312.388                   143826421.134 0                        39.000  
                  27369311.637   110205035.498          45.000  
  27138664.168                   142614332.515 0                        37.000  
                  27138660.183   109275675.701          41.000  
  22784785.537                   119735186.737 0                        45.000  
                  22784781.802    91744974.284          50.000  
  23725854.504                   124680101.682 0                        45.000  
                  23725852.217    95534107.263          49.000  
                                                                                
                  27166816.045   109390041.104          40.000  
 22  1  1  4  0  9.0010000  0  9G01G03G04G09G17G19G21G31G32
  20170182.734    20170179.750   105995270.350 0  82593418.023 0        50.000  
        49.000                                                  
  20507087.545    20507084.650   107766071.252 0  83972552.930 0        49.000  
        49.000                                                  
  22085889.237    22085884.984   116061871.878 0  90437823.544 0        46.000  
        46.000                                                  
  25188361.325    25188359.055   132365051.725 0 103141598.907 0        38.000  
        39.000                                                  
  22585656.522    22585650.107   118687893.431 0  92485037.348 0        46.000  
        43.000                                                  
  23243827.531                   122147726.71510                        43.000  
                                                                
  21776544.232                   114437264.178 0                        48.000  
                                                                
  22614478.184    22614471.983   118840015.724 0  92602612.774 0        44.000  
        41.000                                                  
  24615710.387    24615706.831   129356185.801 0 100796942.671 0        41.000  
        37.000                                                  
 22  1  1  4  0  8.0000000  0  0
 22  1  1  4  0  9.0010000  0  6E04E07E11E12E19E26
  28638366.200                   150494896.38810                        37.000  
                  28638363.305   115314270.518          41.000  
  27369824.282                   143829111.064 0                        39.000  
                  27369823.495   110207096.615          44.000  
  27138104.081                   142611389.025 0                        37.000  
                  27138100.096   109273420.300          41.000  
  22784497.720                   119733673.976 0                        45.000  
                  22784493.807    91743815.149          50.000  
  23725579.857                   124678657.699 0                        45.000  
                  23725577.409    95533000.832          49.000  
                                                                                
                  27167375.113   109392292.395          40.000  
 22  1  1  4  0 10.0010000  0  9G01G03G04G09G17G19G21G31G32
  20170401.326    20170398.342   105996418.999 0  82594313.079 0        50.000  
        49.000                                                  
  20506913.608    20506910.749   107765157.412 0  83971840.844 0        50.000  
        49.000                                                  
  22085332.152    22085327.953   116058944.475 0  90435542.453 0        46.000  
        46.000                                                  
  25187657.750    25187655.373   132361354.200 0 103138717.707 0        38.000  
        39.000                                                  
  22585558.028    22585551.649   118687375.909 0  92484634.093 0        46.000  
        44.000                                                  
  23243448.672                   122145735.29610                        43.000  
                                                                
  21776925.485                   114439267.353 0                        48.000  
                                                                
  22614367.414    22614361.231   118839433.779 0  92602159.317 0        44.000  
        41.000                                                  
  24616353.082    24616349.544   129359563.025 0 100799574.295 0        41.000  
        37.000                                                  
 22  1  1  4  0  9.0000000  0  0
 22  1  1  4  0 10.0010000  0  6E04E07E11E12E19E26
  28637823.106                   150492042.21410                        37.000  
                  28637820.194   115312083.563          41.000  
  27370336.140                   143831800.937 0                        39.000  
                  27370335.336   110209157.678          44.000  
  27137543.601                   142608445.451 0                        37.000  
                  27137539.956   109271164.823          41.000  
  22784209.779                   119732161.397 0                        45.000  
                  22784206.044    91742656.167          50.000  
  23725304.906                   124677213.924 0                        45.000  
                  23725302.512    95531894.561          49.000  
                                                                                
                  27167934.289   109394543.704          40.000  
 22  1  1  4  0 11.0010000  0  9G01G03G04G09G17G19G21G31G32
  20170619.918    20170616.969   105997567.982 0  82595208.393 0        50.000  
        49.000                                                  
  20506739.760    20506736.955   107764243.695 0  83971128.853 0        50.000  
        49.000                                                  
  22084775.175    22084770.886   116056017.210 0  90433261.469 0        46.000  
        46.000                                                  
  25186954.121    25186951.637   132357656.557 0 103135836.434 0        38.000  
        39.000                                                  
  22585459.570    22585453.333   118686858.774 0  92484231.115 0        46.000  
        43.000                                                  
  23243069.795                   122143744.26410                        43.000  
                                                                
  21777306.685                   114441270.692 0                        48.000  
                                                                
  22614256.733    22614250.461   118838852.300 0  92601706.210 0        44.000  
        41.000                                                  
  24616995.688    24616992.203   129362940.156 0 100802205.791 0        41.000  
        37.000                                                  
 22  1  1  4  0 10.0000000  0  0
 22  1  1  4  0 11.0010000  0  6E04E07E11E12E19E26
  28637279.906                   150489187.88810                        37.000  
                  28637277.029   115309896.457          41.000  
  27370848.069                   143834490.629 0                        39.000  
                  27370847.176   110211218.614          44.000  
  27136983.640                   142605501.642 0                        37.000  
                  27136979.834   109268909.172          41.000  
  22783922.123                   119730648.929 0                        45.000  
                  22783918.192    91741497.263          50.000  
  23725030.260                   124675770.263 0                        45.000  
                  23725027.812    95530788.377          49.000  
                                                                                
                  27168493.482   109396794.950          40.000  
 22  1  1  4  0 12.0010000  0  9G01G03G04G09G17G19G21G31G32
  20170838.778    20170835.758   105998717.969 0  82596104.484 0        50.000  
        49.000                                                  
  20506566.109    20506563.250   107763330.739 0  83970417.458 0        49.000  
        49.000                                                  
  22084218.358    22084213.998   116053090.735 0  90430981.099 0        46.000  
        46.000                                                  
  25186250.582    25186248.045   132353959.428 0 103132955.545 0        38.000  
        39.000                                                  
  22585361.361    22585355.125   118686342.666 0  92483828.964 0        46.000  
        44.000                                                  
  23242691.062                   122141754.26410                        44.000  
                                                                
  21777688.117                   114443274.806 0                        48.000  
                                                                
  22614146.302    22614140.084   118838271.905 0  92601253.945 0        44.000  
        41.000                                                  
  24617638.383    24617634.899   129366317.776 0 100804837.722 0        41.000  
        37.000                                                  
 22  1  1  4  0 11.0000000  0  0
 22  1  1  4  0 12.0010000  0  6E04E07E11E12E19E26
  28636736.795                   150486334.03410                        37.000  
                  28636734.025   115307709.763          41.000  
  27371359.946                   143837180.811 0                        39.000  
                  27371359.034   110213279.922          44.000  
  27136423.678                   142602558.252 0                        38.000  
                  27136419.640   109266653.854          41.000  
  22783634.307                   119729137.210 0                        45.000  
                  22783630.447    91740338.932          50.000  
  23724755.523                   124674327.336 0                        45.000  
                  23724753.290    95529682.769          49.000  
                                                                                
                  27169052.729   109399046.611          40.000  
 22  1  1  4  0 13.0010000  0  9G01G03G04G09G17G19G21G31G32
  20171057.620    20171054.635   105999868.097 0  82597000.687 0        50.000  
        49.000                                                  
  20506392.297    20506389.599   107762417.694 0  83969705.994 0        49.000  
        49.000                                                  
  22083661.542    22083657.110   116050164.200 0  90428700.685 0        46.000  
        46.000                                                  
  25185547.007    25185544.398   132350261.923 0 103130074.375 0        38.000  
        39.000                                                  
  22585263.225    22585256.899   118685826.734 0  92483426.942 0        46.000  
        44.000                                                  
  23242312.506                   122139764.44710                        43.000  
                                                                
  21778069.567                   114445278.870 0                        48.000  
                                                                
  22614035.872    22614029.618   118837691.744 0  92600801.892 0        44.000  
        41.000                                                  
  24618281.096    24618277.540   129369695.062 0 100807469.373 0        41.000  
        37.000                                                  
 22  1  1  4  0 12.0000000  0  0
 22  1  1  4  0 13.0010000  0  6E04E07E11E12E19E26
  28636193.755                   150483479.85510                        37.000  
                  28636190.807   115305522.769          41.000  
  27371871.839                   143839870.615 0                        39.000  
                  27371871.017   110215340.942          45.000  
  27135863.538                   142599614.466 0                        38.000  
                  27135859.303   109264398.226          41.000  
  22783346.669                   119727625.391 0                        45.000  
                  22783342.810    91739180.523          50.000  
  23724481.002                   124672884.324 0                        45.000  
                  23724478.714    95528577.089          49.000  
                                                                                
                  27169611.797   109401298.062          40.000  
 22  1  1  4  0 14.0010000  0  9G01G03G04G09G17G19G21G31G32
  20171276.622    20171273.656   106001018.794 0  82597897.330 0        50.000  
        49.000                                                  
  20506218.556    20506215.912   107761504.989 0  83968994.807 0        49.000  
        49.000                                                  
  22083104.761    22083100.276   116047238.024 0  90426420.550 0        46.000  
        46.000                                                  
  25184843.414    25184840.752   132346564.468 0 103127193.255 0        38.000  
        39.000                                                  
  22585165.177    22585158.941   118685311.424 0  92483025.393 0        46.000  
        44.000                                                  
  23241934.040                   122137775.22910                        43.000  
                                                                
  21778450.981                   114447283.301 0                        48.000  
                                                                
  22613925.602    22613919.294   118837112.249 0  92600350.335 0        44.000  
        41.000                                                  
  24618923.773    24618920.217   129373072.477 0 100810101.125 0        41.000  
        37.000                                                  
 22  1  1  4  0 13.0000000  0  0
 22  1  1  4  0 14.0010000  0  6E04E07E11E12E19E26
  28635650.573                   150480625.71310                        37.000  
                  28635647.678   115303335.848          41.000  
  27372383.805                   143842560.468 0                        39.000  
                  27372382.893   110217402.001          45.000  
  27135303.290                   142596670.686 0                        38.000  
                  27135299.216   109262142.591          41.000  
  22783058.996                   119726113.889 0                        45.000  
                  22783055.136    91738022.369          50.000  
  23724206.605                   124671441.643 0                        45.000  
                  23724204.157    95527471.654          49.000  
                                                                                
                  27170171.061   109403549.636          40.000  
 22  1  1  4  0 15.0010000  0  9G01G03G04G09G17G19G21G31G32
  20171495.786    20171492.766   106002170.236 0  82598794.562 0        50.000  
        50.000                                                  
  20506045.012    20506042.350   107760592.831 0  83968284.025 0        49.000  
        49.000                                                  
  22082548.069    22082543.602   116044312.414 0  90424140.852 0        46.000  
        46.000                                                  
  25184139.947    25184137.177   132342867.342 0 103124312.347 0        38.000  
        39.000                                                  
  22585067.255    22585061.037   118684796.913 0  92482624.465 0        46.000  
        44.000                                                  
  23241555.735                   122135786.83510                        43.000  
                                                                
  21778832.556                   114449288.312 0                        48.000  
                                                                
  22613815.511    22613809.221   118836533.625 0  92599899.457 0        44.000  
        41.000                                                  
  24619566.540    24619563.002   129376450.171 0 100812733.094 0        41.000  
        37.000                                                  
 22  1  1  4  0 14.0000000  0  0
 22  1  1  4  0 15.0010000  0  6E04E07E11E12E19E26
  28635107.479                   150477771.88010                        37.000  
                  28635104.638   115301149.124          41.000  
  27372895.717                   143845250.591 0                        39.000  
                  27372894.841   110219463.258          44.000  
  27134743.257                   142593727.085 0                        38.000  
                  27134738.951   109259887.132          41.000  
  22782771.680                   119724602.912 0                        45.000  
                  22782767.606    91736864.607          50.000  
  23723932.083                   124669999.491 0                        45.000  
                  23723929.706    95526366.624          49.000  
                                                                                
                  27170730.201   109405801.448          40.000  
 22  1  1  4  0 16.0010000  0  9G01G03G04G09G17G19G21G31G32
  20171715.128    20171712.055   106003322.436 0  82599692.384 0        50.000  
        49.000                                                  
  20505871.665    20505868.842   107759681.200 0  83967573.671 0        49.000  
        49.000                                                  
  22081991.395    22081986.928   116041387.353 0  90421861.592 0        46.000  
        46.000                                                  
  25183436.479    25183433.674   132339170.445 0 103121431.643 0        38.000  
        39.000                                                  
  22584969.440    22584963.275   118684283.188 0  92482224.172 0        46.000  
        44.000                                                  
  23241177.680                   122133799.24210                        43.000  
                                                                
  21779214.185                   114451293.879 0                        48.000  
                                                                
  22613705.509    22613699.291   118835955.862 0  92599449.245 0        44.000  
        41.000                                                  
  24620209.450    24620205.912   129379828.171 0 100815365.306 0        41.000  
        37.000                                                  
 22  1  1  4  0 15.0000000  0  0
 22  1  1  4  0 16.0010000  0  6E04E07E11E12E19E26
  28634564.493                   150474918.28110                        37.000  
                  28634561.652   115298962.614          41.000  
  27373407.771                   143847940.947 0                        39.000  
                  27373406.824   110221524.708          44.000  
  27134183.171                   142590783.754 0                        38.000  
                  27134178.900   109257631.832          41.000  
  22782484.132                   119723092.448 0                        45.000  
                  22782480.236    91735707.244          50.000  
  23723657.776                   124668557.855 0                        45.000  
                  23723655.399    95525261.989          49.000  
                                                                                
                  27171289.537   109408053.531          40.000  
 22  1  1  4  0 17.0010000  0  9G01G03G04G09G17G19G21G31G32
  20171934.488    20171931.468   106004475.043 0  82600590.513 0        50.000  
        50.000                                                  
  20505698.210    20505695.387   107758769.743 0  83966863.437 0        49.000  
        49.000                                                  
  22081434.775    22081430.326   116038462.495 0  90419582.479 0        46.000  
        46.000                                                  
  25182732.993    25182730.188   132335473.442 0 103118550.896 0        38.000  
        39.000                                                  
  22584871.768    22584865.585   118683769.920 0  92481824.207 0        46.000  
        44.000                                                  
  23240799.554                   122131812.08310                        44.000  
                                                                
  21779595.957                   114453299.653 0                        48.000  
                                                                
  22613595.543    22613589.414   118835378.600 0  92598999.419 0        44.000  
        41.000                                                  
  24620852.270    24620848.714   129383206.067 0 100817997.445 0        41.000  
        37.000                                                  
 22  1  1  4  0 16.0000000  0  0
 22  1  1  4  0 17.0010000  0  6E04E07E11E12E19E26
  28634021.490                   150472064.57710                        38.000  
                  28634018.541   115296776.005          41.000  
  27373919.665                   143850631.187 0                        39.000  
                  27373918.647   110223586.054          44.000  
  27133623.138                   142587840.206 0                        38.000  
                  27133618.903   109255376.379          41.000  
  22782196.708                   119721582.147 0                        45.000  
                  22782192.724    91734549.983          50.000  
  23723383.450                   124667116.369 0                        45.000  
                  23723380.985    95524157.476          49.000  
                                                                                
                  27171848.927   109410305.568          40.000  
 22  1  1  4  0 18.0010000  0  9G01G03G04G09G17G19G21G31G32
  20172153.902    20172150.739   106005627.888 0  82601488.834 0        50.000  
        50.000                                                  
  20505524.881    20505521.950   107757858.306 0  83966153.227 0        49.000  
        49.000                                                  
  22080878.245    22080873.724   116035537.674 0  90417303.389 0        46.000  
        45.000                                                  
  25182029.419    25182026.595   132331776.210 0 103115669.907 0        38.000  
        38.000                                                  
  22584774.167    22584767.860   118683256.926 0  92481424.478 0        46.000  
        44.000                                                  
  23240421.481                   122129825.19210                        44.000  
                                                                
  21779977.693                   114455305.469 0                        48.000  
                                                                
  22613485.720    22613479.609   118834801.679 0  92598549.891 0        45.000  
        41.000                                                  
  24621495.036    24621491.481   129386583.776 0 100820629.393 0        41.000  
        37.000                                                  
 22  1  1  4  0 17.0000000  0  0
 22  1  1  4  0 18.0010000  0  6E04E07E11E12E19E26
  28633478.253                   150469210.64110                        38.000  
                  28633475.466   115294589.230          41.000  
  27374431.398                   143853321.149 0                        39.000  
                  27374430.630   110225647.207          44.000  
  27133062.926                   142584896.370 0                        38.000  
                  27133058.762   109253120.711          41.000  
  22781909.214                   119720071.839 0                        45.000  
                  22781905.265    91733392.739          50.000  
  23723109.286                   124665674.889 0                        45.000  
                  23723106.731    95523052.970          49.000  
                                                                                
                  27172408.138   109412557.479          40.000  
 22  1  1  4  0 19.0010000  0  9G01G03G04G09G17G19G21G31G32
  20172373.369    20172370.260   106006781.376 0  82602387.656 0        50.000  
        50.000                                                  
  20505351.516    20505348.639   107756947.283 0  83965443.337 0        49.000  
        49.000                                                  
  22080321.678    22080317.175   116032613.288 0  90415024.654 0        46.000  
        46.000                                                  
  25181325.969    25181323.145   132328079.122 0 103112789.066 0        39.000  
        39.000                                                  
  22584676.620    22584670.384   118682744.604 0  92481025.280 0        46.000  
        44.000                                                  
  23240043.516                   122127838.99010                        44.000  
                                                                
  21780359.393                   114457311.731 0                        48.000  
                                                                
  22613376.005    22613369.965   118834225.515 0  92598100.918 0        45.000  
        41.000                                                  
  24622137.821    24622134.194   129389961.628 0 100823261.509 0        41.000  
        37.000                                                  
 22  1  1  4  0 18.0000000  0  0
 22  1  1  4  0 19.0010000  0  6E04E07E11E12E19E26
  28632935.196                   150466356.84310                        37.000  
                  28632932.444   115292402.560          41.000  
  27374943.292                   143856011.261 0                        39.000  
                  27374942.399   110227708.446          44.000  
  27132502.839                   142581952.655 0                        38.000  
                  27132498.551   109250865.107          41.000  
  22781621.933                   119718561.939 0                        45.000  
                  22781618.056    91732235.803          50.000  
  23722834.925                   124664233.817 0                        45.000  
                  23722832.495    95521948.776          49.000  
                                                                                
                  27172967.492   109414809.566          40.000  
 22  1  1  4  0 20.0010000  0  9G01G03G04G09G17G19G21G31G32
  20172593.105    20172590.103   106007936.184 0  82603287.508 0        50.000  
        50.000                                                  
  20505178.400    20505175.452   107756037.364 0  83964734.306 0        50.000  
        49.000                                                  
  22079765.398    22079760.913   116029690.026 0  90412746.785 0        46.000  
        46.000                                                  
  25180622.626    25180619.731   132324382.870 0 103109908.879 0        39.000  
        39.000                                                  
  22584579.341    22584573.284   118682233.666 0  92480627.137 0        46.000  
        44.000                                                  
  23239665.747                   122125854.17010                        43.000  
                                                                
  21780741.415                   114459319.132 0                        48.000  
                                                                
  22613266.610    22613260.606   118833650.768 0  92597653.063 0        45.000  
        41.000                                                  
  24622780.695    24622777.121   129393340.372 0 100825894.297 0        41.000  
        37.000                                                  
 22  1  1  4  0 19.0000000  0  0
 22  1  1  4  0 20.0010000  0  6E04E07E11E12E19E26
  28632392.335                   150463503.88710                        38.000  
                  28632389.637   115290216.507          41.000  
  27375455.561                   143858702.170 0                        39.000  
                  27375454.561   110229770.323          44.000  
  27131942.985                   142579009.650 0                        38.000  
                  27131938.410   109248610.097          41.000  
  22781334.975                   119717053.110 0                        45.000  
                  22781330.918    91731079.690          50.000  
  23722561.118                   124662793.842 0                        45.000  
                  23722558.509    95520845.405          49.000  
                                                                                
                  27173526.900   109417062.325          40.000  
 22  1  1  4  0 21.0010000  0  9G01G03G04G09G17G19G21G31G32
  20172812.822    20172809.892   106009090.942 0  82604187.322 0        50.000  
        50.000                                                  
  20505005.107    20505002.248   107755127.171 0  83964025.063 0        49.000  
        49.000                                                  
  22079209.010    22079204.471   116026766.517 0  90410468.728 0        46.000  
        46.000                                                  
  25179919.141    25179916.264   132320686.093 0 103107028.252 0        39.000  
        39.000                                                  
  22584482.080    22584476.041   118681722.717 0  92480228.993 0        46.000  
        44.000                                                  
  23239287.960                   122123869.34110                        43.000  
                                                                
  21781123.401                   114461326.277 0                        48.000  
                                                                
  22613157.198    22613151.212   118833076.076 0  92597205.256 0        44.000  
        41.000                                                  
  24623423.604    24623419.905   129396718.583 0 100828526.655 0        41.000  
        37.000                                                  
 22  1  1  4  0 20.0000000  0  0
 22  1  1  4  0 21.0010000  0  6E04E07E11E12E19E26
  28631849.492                   150460650.39210                        38.000  
                  28631846.579   115288030.064          41.000  
  27375967.491                   143861392.540 0                        39.000  
                  27375966.526   110231831.766          44.000  
  27131382.666                   142576066.069 0                        38.000  
                  27131378.431   109246354.624          41.000  
  22781047.784                   119715544.011 0                        45.000  
                  22781043.710    91729923.360          50.000  
  23722286.828                   124661353.564 0                        45.000  
                  23722284.434    95519741.827          49.000  
                                                                                
                  27174086.289   109419314.742          40.000  
 22  1  1  4  0 22.0010000  0  9G01G03G04G09G17G19G21G31G32
  20173032.665    20173029.663   106010246.240 0  82605087.557 0        50.000  
        50.000                                                  
  20504831.956    20504828.954   107754217.287 0  83963316.069 0        49.000  
        49.000                                                  
  22078652.711    22078648.191   116023843.343 0  90408190.932 0        46.000  
        46.000                                                  
  25179215.744    25179212.796   132316989.342 0 103104147.684 0        39.000  
        39.000                                                  
  22584384.944    22584379.030   118681212.349 0  92479831.310 0        46.000  
        44.000                                                  
  23238910.405                   122121885.07910                        44.000  
                                                                
  21781505.405                   114463333.768 0                        48.000  
                                                                
  22613047.911    22613041.925   118832502.031 0  92596757.934 0        44.000  
        40.000                                                  
  24624066.496    24624062.869   129400096.843 0 100831159.081 0        41.000  
        37.000                                                  
 22  1  1  4  0 21.0000000  0  0
 22  1  1  4  0 22.0010000  0  6E04E07E11E12E19E26
  28631306.345                   150457796.91610                        38.000  
                  28631303.772   115285843.635          41.000  
  27376479.492                   143864082.919 0                        39.000  
                  27376478.563   110233893.225          44.000  
  27130822.419                   142573122.433 0                        38.000  
                  27130818.291   109244099.129          41.000  
  22780760.825                   119714035.197 0                        45.000  
                  22780756.662    91728767.260          50.000  
  23722012.825                   124659913.598 0                        45.000  
                  23722010.430    95518638.472          49.000  
                                                                                
                  27174645.751   109421567.216          40.000  
 22  1  1  4  0 23.0010000  0  9G01G03G04G09G17G19G21G31G32
  20173252.561    20173249.595   106011401.879 0  82605988.045 0        50.000  
        50.000                                                  
  20504658.894    20504655.821   107753307.511 0  83962607.146 0        49.000  
        49.000                                                  
  22078096.520    22078091.892   116020920.312 0  90405913.242 0        46.000  
        46.000                                                  
  25178512.098    25178509.310   132313292.454 0 103101266.980 0        39.000  
        39.000                                                  
  22584288.005    22584282.019   118680702.365 0  92479433.914 0        46.000  
        44.000                                                  
  23238532.797                   122119901.19810                        44.000  
                                                                
  21781887.355                   114465341.403 0                        48.000  
                                                                
  22612938.785    22612932.764   118831928.417 0  92596310.965 0        44.000  
        40.000                                                  
  24624709.370    24624705.653   129403475.009 0 100833791.423 0        41.000  
        37.000                                                  
 22  1  1  4  0 22.0000000  0  0
 22  1  1  4  0 23.0010000  0  6E04E07E11E12E19E26
  28630763.377                   150454943.28910                        38.000  
                  28630760.768   115283657.102          41.000  
  27376991.708                   143866773.142 0                        39.000  
                  27376990.457   110235954.558          44.000  
  27130262.189                   142570178.618 0                        37.000  
                  27130258.151   109241843.472          41.000  
  22780473.634                   119712526.480 0                        45.000  
                  22780469.578    91727611.230          50.000  
  23721738.911                   124658473.726 0                        45.000  
                  23721736.355    95517535.196          49.000  
                                                                                
                  27175205.212   109423819.651          40.000  
 22  1  1  4  0 24.0010000  0  9G01G03G04G09G17G19G21G31G32
  20173472.654    20173469.670   106012558.377 0  82606889.224 0        50.000  
        50.000                                                  
  20504485.833    20504482.867   107752398.384 0  83961898.739 0        49.000  
        49.000                                                  
  22077540.418    22077535.683   116017997.936 0  90403636.072 0        46.000  
        46.000                                                  
  25177808.702    25177805.968   132309595.947 0 103098386.596 0        39.000  
        39.000                                                  
  22584191.101    22584185.169   118680193.289 0  92479037.237 0        46.000  
        44.000                                                  
  23238155.457                   122117918.23310                        44.000  
                                                                
  21782269.592                   114467349.722 0                        48.000  
                                                                
  22612829.802    22612823.709   118831355.782 0  92595864.752 0        45.000  
        40.000                                                  
  24625352.333    24625348.652   129406853.548 0 100836424.042 0        41.000  
        37.000                                                  
 22  1  1  4  0 23.0000000  0  0
 22  1  1  4  0 24.0010000  0  6E04E07E11E12E19E26
  28630220.570                   150452090.06010                        38.000  
                  28630217.621   115281470.851          41.000  
  27377503.584                   143869463.694 0                        39.000  
                  27377502.404   110238016.156          44.000  
  27129702.299                   142567235.096 0                        37.000  
                  27129698.010   109239588.050          41.000  
  22780186.711                   119711018.385 0                        45.000  
                  22780182.584    91726455.681          50.000  
  23721464.979                   124657034.491 0                        45.000  
                  23721462.513    95516432.400          49.000  
                                                                                
                  27175764.584   109426072.401          40.000  
 22  1  1  4  0 25.0010000  0  9G01G03G04G09G17G19G21G31G32
  20173692.800    20173689.834   106013715.510 0  82607790.884 0        50.000  
        50.000                                                  
  20504312.914    20504310.002   107751489.661 0  83961190.639 0        49.000  
        49.000                                                  
  22076984.245    22076979.635   116015075.994 0  90401359.232 0        46.000  
        45.000                                                  
  25177105.323    25177102.572   132305899.566 0 103095506.297 0        39.000  
        39.000                                                  
  22584094.376    22584088.444   118679684.892 0  92478641.084 0        46.000  
        44.000                                                  
  23237778.331                   122115935.93410                        44.000  
                                                                
  21782651.774                   114469358.443 0                        48.000  
                                                                
  22612720.908    22612714.922   118830783.864 0  92595419.115 0        45.000  
        40.000                                                  
  24625995.296    24625991.615   129410232.264 0 100839056.805 0        41.000  
        37.000                                                  
 22  1  1  4  0 24.0000000  0  0
 22  1  1  4  0 25.0010000  0  6E04E07E11E12E19E26
  28629677.637                   150449236.94310                        38.000  
                  28629674.814   115279284.698          41.000  
  27378015.513                   143872154.395 0                        39.000  
                  27378014.513   110240077.847          44.000  
  27129142.087                   142564291.665 0                        37.000  
                  27129137.870   109237332.672          41.000  
  22779899.735                   119709510.677 0                        45.000  
                  22779895.661    91725300.422          50.000  
  23721191.136                   124655595.634 0                        45.000  
                  23721188.652    95515329.904          49.000  
                                                                                
                  27176324.081   109428325.325          40.000  
 22  1  1  4  0 26.0010000  0  9G01G03G04G09G17G19G21G31G32
  20173913.072    20173910.070   106014873.244 0  82608693.012 0        50.000  
        50.000                                                  
  20504140.121    20504137.101   107750581.312 0  83960482.834 0        49.000  
        49.000                                                  
  22076428.358    22076423.801   116012154.463 0  90399082.703 0        46.000  
        45.000                                                  
  25176401.891    25176399.229   132302203.294 0 103092626.069 0        39.000  
        39.000                                                  
  22583997.812    22583991.915   118679177.139 0  92478245.435 0        46.000  
        44.000                                                  
  23237401.313                   122113954.29510                        44.000  
                                                                
  21783034.046                   114471367.592 0                        48.000  
                                                                
  22612612.265    22612606.296   118830212.668 0  92594974.015 0        45.000  
        40.000                                                  
  24626638.206    24626634.596   129413611.108 0 100841689.664 0        40.000  
        37.000                                                  
 22  1  1  4  0 25.0000000  0  0
 22  1  1  4  0 26.0010000  0  6E04E07E11E12E19E26
  28629134.598                   150446383.94910                        37.000  
                  28629132.042   115277098.638          41.000  
  27378527.622                   143874845.161 0                        39.000  
                  27378526.496   110242139.609          44.000  
  27128581.875                   142561348.273 0                        37.000  
                  27128577.658   109235077.365          41.000  
  22779612.865                   119708003.342 0                        45.000  
                  22779608.809    91724145.442          50.000  
  23720917.347                   124654157.155 0                        45.000  
                  23720915.006    95514227.689          49.000  
                                                                                
                  27176883.756   109430578.365          40.000  
 22  1  1  4  0 27.0010000  0  9G01G03G04G09G17G19G21G31G32
  20174133.379    20174130.520   106016031.379 0  82609595.455 0        50.000  
        50.000                                                  
  20503967.345    20503964.361   107749673.153 0  83959775.183 0        50.000  
        49.000                                                  
  22075872.560    22075867.824   116009233.126 0  90396806.341 0        46.000  
        45.000                                                  
  25175698.549    25175695.904   132298506.927 0 103089745.809 0        39.000  
        39.000                                                  
  22583901.284    22583895.494   118678669.849 0  92477850.155 0        46.000  
        44.000                                                  
  23237024.348                   122111973.10510                        44.000  
                                                                
  21783416.283                   114473376.941 0                        48.000  
                                                                
  22612503.746    22612497.689   118829641.982 0  92594529.321 0        45.000  
        40.000                                                  
  24627281.133    24627277.595   129416989.884 0 100844322.481 0        40.000  
        37.000                                                  
 22  1  1  4  0 26.0000000  0  0
 22  1  1  4  0 27.0010000  0  6E04E07E11E12E19E26
  28628591.522                   150443530.83110                        38.000  
                  28628589.021   115274912.488          41.000  
  27379039.605                   143877535.824 0                        39.000  
                  27379038.586   110244201.293          44.000  
  27128021.771                   142558404.742 0                        37.000  
                  27128017.446   109232821.917          41.000  
  22779326.103                   119706496.168 0                        45.000  
                  22779321.993    91722990.597          50.000  
  23720643.736                   124652718.847 0                        45.000  
                  23720641.306    95513125.606          49.000  
                                                                                
                  27177443.432   109432831.418          40.000  
 22  1  1  4  0 28.0010000  0  9G01G03G04G09G17G19G21G31G32
  20174354.061    20174351.220   106017191.097 0  82610499.133 0        50.000  
        50.000                                                  
  20503794.748    20503791.764   107748766.329 0  83959068.569 0        49.000  
        49.000                                                  
  22075316.851    22075312.187   116006313.162 0  90394531.047 0        46.000  
        45.000                                                  
  25174995.367    25174992.758   132294811.670 0 103086866.369 0        39.000  
        39.000                                                  
  22583805.184    22583799.323   118678164.167 0  92477456.113 0        46.000  
        44.000                                                  
  23236647.651                   122109993.52010                        44.000  
                                                                
  21783798.894                   114475387.681 0                        48.000  
                                                                
  22612395.531    22612389.259   118829072.972 0  92594085.932 0        45.000  
        40.000                                                  
  24627924.311    24627920.773   129420369.782 0 100846956.175 0        40.000  
        37.000                                                  
 22  1  1  4  0 27.0000000  0  0
 22  1  1  4  0 28.0010000  0  6E04E07E11E12E19E26
  28628048.840                   150440678.83810                        37.000  
                  28628046.267   115272727.190          41.000  
  27379551.910                   143880227.565 0                        39.000  
                  27379550.695   110246263.784          44.000  
  27127461.773                   142555462.218 0                        36.000  
                  27127457.503   109230567.263          41.000  
  22779039.591                   119704990.326 0                        45.000  
                  22779035.446    91721836.779          50.000  
  23720370.394                   124651281.868 0                        45.000  
                  23720367.767    95512024.554          49.000  
                                                                                
                  27178003.197   109435085.329          40.000  
 22  1  1  4  0 29.0010000  0  9G01G03G04G09G17G19G21G31G32
  20174574.672    20174571.867   106018350.374 0  82611402.471 0        50.000  
        49.000                                                  
  20503622.044    20503619.185   107747858.868 0  83958361.459 0        49.000  
        49.000                                                  
  22074761.178    22074756.425   116003392.579 0  90392255.268 0        46.000  
        45.000                                                  
  25174291.989    25174289.380   132291115.477 0 103083986.230 0        39.000  
        39.000                                                  
  22583708.816    22583702.973   118677658.113 0  92477061.771 0        46.000  
        44.000                                                  
  23236270.990                   122108013.56610                        43.000  
                                                                
  21784181.398                   114477397.793 0                        48.000  
                                                                
  22612287.209    22612280.902   118828503.636 0  92593642.289 0        45.000  
        40.000                                                  
  24628567.328    24628563.736   129423748.773 0 100849589.161 0        40.000  
        37.000                                                  
 22  1  1  4  0 28.0000000  0  0
 22  1  1  4  0 29.0010000  0  6E04E07E11E12E19E26
  28627505.997                   150437825.90310                        37.000  
                  28627503.442   115270541.174          41.000  
  27380063.875                   143882918.351 0                        39.000  
                  27380062.803   110248325.567          44.000  
  27126901.651                   142552518.705 0                        36.000  
                  27126897.434   109228311.846          41.000  
  22778753.026                   119703483.821 0                        45.000  
                  22778748.791    91720682.438          50.000  
  23720097.015                   124649844.226 0                        45.000  
                  23720094.156    95510922.986          49.000  
                                                                                
                  27178562.891   109437338.598          40.000  
 22  1  1  4  0 30.0010000  0  9G01G03G04G09G17G19G21G31G32
  20174795.265    20174792.406   106019509.696 0  82612305.838 0        50.000  
        49.000                                                  
  20503449.340    20503446.463   107746951.211 0  83957654.194 0        49.000  
        49.000                                                  
  22074205.344    22074200.627   116000471.802 0  90389979.354 0        46.000  
        45.000                                                  
  25173588.557    25173585.948   132287418.841 0 103081105.734 0        39.000  
        39.000                                                  
  22583612.449    22583606.677   118677152.129 0  92476667.507 0        46.000  
        44.000                                                  
  23235894.328                   122106033.68410                        43.000  
                                                                
  21784563.956                   114479407.752 0                        48.000  
                                                                
  22612178.905    22612172.562   118827934.439 0  92593198.769 0        45.000  
        41.000                                                  
  24629210.255    24629206.717   129427127.339 0 100852221.796 0        40.000  
        37.000                                                  
 22  1  1  4  0 29.0000000  0  0
 22  1  1  4  0 30.0010000  0  6E04E07E11E12E19E26
  28626963.065                   150434972.49810                        37.000  
                  28626960.474   115268354.817          41.000  
  27380575.823                   143885608.674 0                        39.000  
                  27380574.625   110250386.979          44.000  
  27126341.475                   142549574.664 0                        36.000  
                  27126337.169   109226056.038          41.000  
  22778466.157                   119701977.108 0                        45.000  
                  22778462.065    91719527.946          50.000  
  23719823.208                   124648406.388 0                        45.000  
                  23719820.653    95509821.263          49.000  
                                                                                
                  27179122.352   109439591.555          40.000  
 22  1  1  4  0 31.0010000  0  9G01G03G04G09G17G19G21G31G32
  20175016.037    20175013.249   106020669.683 0  82613209.722 0        50.000  
        49.000                                                  
  20503276.743    20503273.813   107746044.009 0  83956947.278 0        50.000  
        49.000                                                  
  22073649.653    22073644.900   115997551.542 0  90387703.808 0        46.000  
        45.000                                                  
  25172885.214    25172882.587   132283722.384 0 103078225.358 0        39.000  
        39.000                                                  
  22583516.349    22583510.631   118676646.870 0  92476273.794 0        46.000  
        44.000                                                  
  23235517.685                   122104054.51110                        44.000  
                                                                
  21784946.568                   114481418.178 0                        48.000  
                                                                
  22612070.762    22612064.436   118827366.036 0  92592755.849 0        45.000  
        41.000                                                  
  24629853.200    24629849.716   129430506.112 0 100854854.593 0        40.000  
        37.000                                                  
 22  1  1  4  0 30.0000000  0  0
 22  1  1  4  0 31.0010000  0  6E04E07E11E12E19E26
  28626420.275                   150432119.27810                        37.000  
                  28626417.541   115266168.582          41.000  
  27381088.038                   143888299.141 0                        39.000  
                  27381086.627   110252448.514          44.000  
  27125781.281                   142546630.776 0                        36.000  
                  27125776.778   109223800.317          41.000  
  22778179.788                   119700470.824 0                        45.000  
                  22778175.356    91718373.782          50.000  
  23719549.705                   124646968.975 0                        45.000  
                  23719547.043    95508719.873          49.000  
                                                                                
                  27179682.010   109441844.712          40.000  
 22  1  1  4  0 32.0010000  0  9G01G03G04G09G17G19G21G31G32
  20175236.970    20175234.253   106021830.879 0  82614114.553 0        50.000  
        49.000                                                  
  20503104.325    20503101.287   107745137.772 0  83956241.127 0        50.000  
        49.000                                                  
  22073094.123    22073089.370   115994632.267 0  90385429.044 0        46.000  
        45.000                                                  
  25172181.943    25172179.316   132280026.643 0 103075345.562 0        39.000  
        39.000                                                  
  22583420.428    22583414.728   118676142.852 0  92475881.060 0        46.000  
        44.000                                                  
  23235141.310                   122102076.59510                        44.000  
                                                                
  21785329.376                   114483429.631 0                        48.000  
                                                                
  22611962.833    22611956.579   118826798.916 0  92592313.939 0        45.000  
        41.000                                                  
  24630496.324    24630492.751   129433885.608 0 100857487.962 0        40.000  
        37.000                                                  
 22  1  1  4  0 31.0000000  0  0
 22  1  1  4  0 32.0010000  0  6E04E07E11E12E19E26
  28625877.432                   150429266.80610                        37.000  
                  28625874.716   115263982.903          41.000  
  27381600.075                   143890990.308 0                        39.000  
                  27381598.914   110254510.582          44.000  
  27125221.284                   142543687.521 0                        36.000  
                  27125216.799   109221545.112          41.000  
  22777893.079                   119698965.505 0                        45.000  
                  22777888.951    91717220.358          50.000  
  23719276.416                   124645532.547 0                        45.000  
                  23719273.754    95507619.223          49.000  
                                                                                
                  27180241.775   109444098.472          40.000  
 22  1  1  4  0 33.0010000  0  9G01G03G04G09G17G19G21G31G32
  20175458.099    20175455.383   106022992.707 0  82615019.859 0        50.000  
        49.000                                                  
  20502932.014    20502928.959   107744231.949 0  83955535.284 0        50.000  
        49.000                                                  
  22072538.647    22072533.965   115991713.412 0  90383154.621 0        46.000  
        45.000                                                  
  25171478.779    25171476.027   132276331.051 0 103072465.887 0        39.000  
        39.000                                                  
  22583324.543    22583319.057   118675639.512 0  92475488.849 0        46.000  
        44.000                                                  
  23234765.149                   122100099.35810                        43.000  
                                                                
  21785712.202                   114485441.503 0                        48.000  
                                                                
  22611855.101    22611848.846   118826232.538 0  92591872.595 0        45.000  
        41.000                                                  
  24631139.484    24631135.893   129437265.274 0 100860121.504 0        40.000  
        37.000                                                  
 22  1  1  4  0 32.0000000  0  0
 22  1  1  4  0 33.0010000  0  6E04E07E11E12E19E26
  28625334.661                   150426414.44010                        37.000  
                  28625332.016   115261797.324          41.000  
  27382112.112                   143893681.600 0                        40.000  
                  27382110.968   110256572.745          45.000  
  27124661.179                   142540744.363 0                        36.000  
                  27124656.605   109219289.949          41.000  
  22777606.532                   119697460.581 0                        45.000  
                  22777602.618    91716067.226          50.000  
  23719003.074                   124644096.496 0                        45.000  
                  23719000.429    95506518.876          49.000  
                                                                                
                  27180801.486   109446352.368          40.000  
 22  1  1  4  0 34.0010000  0  9G01G03G04G09G17G19G21G31G32
  20175679.424    20175676.637   106024155.341 0  82615925.803 0        50.000  
        49.000                                                  
  20502759.792    20502756.701   107743326.707 0  83954829.898 0        50.000  
        49.000                                                  
  22071983.259    22071978.578   115988795.168 0  90380880.671 0        46.000  
        45.000                                                  
  25170775.615    25170772.881   132272635.777 0 103069586.443 0        39.000  
        39.000                                                  
  22583228.854    22583223.458   118675137.034 0  92475097.299 0        46.000  
        44.000                                                  
  23234389.078                   122098122.95710                        43.000  
                                                                
  21786095.135                   114487453.992 0                        48.000  
                                                                
  22611747.565    22611741.203   118825667.070 0  92591431.977 0        45.000  
        41.000                                                  
  24631782.769    24631779.159   129440645.286 0 100862755.280 0        40.000  
        37.000                                                  
 22  1  1  4  0 33.0000000  0  0
 22  1  1  4  0 34.0010000  0  6E04E07E11E12E19E26
  28624791.764                   150423562.36510                        37.000  
                  28624789.387   115259611.990          41.000  
  27382624.310                   143896373.199 0                        40.000  
                  27382623.184   110258635.115          44.000  
  27124101.093                   142537801.449 0                        36.000  
                  27124096.608   109217034.987          40.000  
  22777320.413                   119695956.213 0                        45.000  
                  22777316.249    91714914.537          50.000  
  23718729.946                   124642661.011 0                        45.000  
                  23718727.212    95505418.966          49.000  
                                                                                
                  27181361.340   109448606.580          40.000  
 22  1  1  4  0 35.0010000  0  9G01G03G04G09G17G19G21G31G32
  20175900.661    20175897.855   106025318.058 0  82616831.825 0        50.000  
        49.000                                                  
  20502587.607    20502584.372   107742421.324 0  83954124.411 0        50.000  
        49.000                                                  
  22071427.872    22071423.244   115985876.818 0  90378606.621 0        46.000  
        45.000                                                  
  25170072.344    25170069.628   132268940.059 0 103066706.683 0        39.000  
        39.000                                                  
  22583133.255    22583127.787   118674634.677 0  92474705.852 0        46.000  
        44.000                                                  
  23234012.953                   122096146.69710                        43.000  
                                                                
  21786477.925                   114489466.366 0                        48.000  
                                                                
  22611640.047    22611633.721   118825101.792 0  92590991.499 0        45.000  
        41.000                                                  
  24632425.857    24632422.194   129444024.911 0 100865388.742 0        40.000  
        37.000                                                  
 22  1  1  4  0 34.0000000  0  0
 22  1  1  4  0 35.0010000  0  6E04E07E11E12E19E26
  28624248.992                   150420709.95210                        37.000  
                  28624246.509   115257426.355          41.000  
  27383136.579                   143899064.355 0                        40.000  
                  27383135.274   110260697.172          45.000  
  27123541.042                   142534858.050 0                        36.000  
                  27123536.557   109214779.658          40.000  
  22777033.990                   119694451.704 0                        45.000  
                  22777030.005    91713761.722          50.000  
  23718456.657                   124641225.387 0                        45.000  
                  23718454.030    95504318.936          49.000  
                                                                                
                  27181921.159   109450860.501          40.000  
 22  1  1  4  0 36.0010000  0  9G01G03G04G09G17G19G21G31G32
  20176121.897    20176119.163   106026481.161 0  82617738.142 0        50.000  
        49.000                                                  
  20502415.492    20502412.133   107741516.111 0  83953419.049 0        50.000  
        49.000                                                  
  22070872.628    22070867.947   115982958.644 0  90376332.721 0        46.000  
        45.000                                                  
  25169369.144    25169366.357   132265244.288 0 103063826.851 0        39.000  
        39.000                                                  
  22583037.781    22583032.241   118674132.761 0  92474314.757 0        46.000  
        44.000                                                  
  23233636.971                   122094170.86910                        43.000  
                                                                
  21786860.966                   114491478.937 0                        48.000  
                                                                
  22611532.600    22611526.221   118824537.005 0  92590551.411 0        45.000  
        41.000                                                  
  24633069.035    24633065.354   129447404.459 0 100868022.148 0        40.000  
        37.000                                                  
 22  1  1  4  0 35.0000000  0  0
 22  1  1  4  0 36.0010000  0  6E04E07E11E12E19E26
  28623705.917                   150417857.36510                        37.000  
                  28623703.701   115255240.616          41.000  
  27383648.562                   143901755.385 0                        40.000  
                  27383647.275   110262759.130          44.000  
  27122981.009                   142531914.464 0                        36.000  
                  27122976.238   109212524.192          40.000  
  22776747.854                   119692947.335 0                        45.000  
                  22776743.762    91712609.035          50.000  
  23718183.368                   124639789.917 0                        45.000  
                  23718180.974    95503219.026          49.000  
                                                                                
                  27182480.888   109453114.423          40.000  
 22  1  1  4  0 37.0010000  0  9G01G03G04G09G17G19G21G31G32
  20176343.312    20176340.650   106027645.105 0  82618645.113 0        50.000  
        49.000                                                  
  20502243.378    20502240.072   107740611.508 0  83952714.166 0        50.000  
        49.000                                                  
  22070317.509    22070312.720   115980041.113 0  90374059.316 0        46.000  
        45.000                                                  
  25168665.891    25168663.139   132261548.817 0 103060947.272 0        38.000  
        39.000                                                  
  22582942.450    22582936.892   118673631.724 0  92473924.339 0        46.000  
        44.000                                                  
  23233261.131                   122092195.90610                        43.000  
                                                                
  21787244.060                   114493492.151 0                        48.000  
                                                                
  22611425.279    22611418.936   118823973.150 0  92590112.035 0        45.000  
        41.000                                                  
  24633712.355    24633708.567   129450784.351 0 100870655.836 0        40.000  
        37.000                                                  
 22  1  1  4  0 36.0000000  0  0
 22  1  1  4  0 37.0010000  0  6E04E07E11E12E19E26
  28623162.877                   150415005.13410                        37.000  
                  28623160.823   115253055.136          41.000  
  27384160.688                   143904446.747 0                        39.000  
                  27384159.527   110264821.344          44.000  
  27122421.047                   142528971.218 0                        36.000  
                  27122416.151   109210268.943          40.000  
  22776461.860                   119691443.562 0                        45.000  
                  22776457.607    91711456.792          50.000  
  23717910.383                   124638355.036 0                        45.000  
                  23717907.935    95502119.583          49.000  
                                                                                
                  27183040.814   109455368.657          40.000  
 22  1  1  4  0 38.0010000  0  9G01G03G04G09G17G19G21G31G32
  20176564.888    20176562.244   106028809.549 0  82619552.466 0        50.000  
        49.000                                                  
  20502071.263    20502067.993   107739707.182 0  83952009.498 0        50.000  
        49.000                                                  
  22069762.444    22069757.512   115977123.875 0  90371786.152 0        46.000  
        45.000                                                  
  25167962.781    25167959.904   132257853.416 0 103058067.714 0        38.000  
        39.000                                                  
  22582847.243    22582841.579   118673131.242 0  92473534.353 0        46.000  
        44.000                                                  
  23232885.417                   122090221.49410                        43.000  
                                                                
  21787627.118                   114495505.664 0                        48.000  
                                                                
  22611318.011    22611311.864   118823409.898 0  92589673.146 0        45.000  
        41.000                                                  
  24634355.497    24634351.763   129454164.316 0 100873289.555 0        40.000  
        37.000                                                  
 22  1  1  4  0 37.0000000  0  0
 22  1  1  4  0 38.0010000  0  6E04E07E11E12E19E26
  28622620.177                   150412152.94410                        37.000  
                  28622618.015   115250869.685          41.000  
  27384672.796                   143907138.097 0                        40.000  
                  27384671.724   110266883.554          44.000  
  27121860.978                   142526027.849 0                        36.000  
                  27121856.064   109208013.657          40.000  
  22776175.527                   119689940.063 0                        45.000  
                  22776171.524    91710304.753          50.000  
  23717637.327                   124636920.431 0                        45.000  
                  23717634.843    95501020.331          48.000  
                                                                                
                  27183600.561   109457622.934          40.000  
 22  1  1  4  0 39.0010000  0  9G01G03G04G09G17G19G21G31G32
  20176786.696    20176783.927   106029974.693 0  82620460.372 0        50.000  
        49.000                                                  
  20501899.185    20501895.968   107738803.333 0  83951305.194 0        50.000  
        49.000                                                  
  22069207.289    22069202.482   115974207.139 0  90369513.371 0        46.000  
        45.000                                                  
  25167259.599    25167256.668   132254158.183 0 103055188.338 0        38.000  
        39.000                                                  
  22582752.198    22582746.426   118672631.497 0  92473144.939 0        46.000  
        44.000                                                  
  23232509.810                   122088247.83110                        43.000  
                                                                
  21788010.408                   114497519.684 0                        48.000  
                                                                
  22611210.976    22611204.918   118822847.455 0  92589234.870 0        45.000  
        41.000                                                  
  24634998.693    24634994.958   129457544.490 0 100875923.468 0        40.000  
        37.000                                                  
 22  1  1  4  0 38.0000000  0  0
 22  1  1  4  0 39.0010000  0  6E04E07E11E12E19E26
  28622077.352                   150409300.92210                        37.000  
                  28622075.226   115248684.387          41.000  
  27385184.958                   143909829.620 0                        40.000  
                  27385183.833   110268945.899          44.000  
  27121300.892                   142523084.673 0                        36.000  
                  27121295.888   109205758.488          40.000  
  22775889.372                   119688437.003 0                        45.000  
                  22775885.477    91709153.062          50.000  
  23717364.484                   124635486.267 0                        45.000  
                  23717362.019    95499921.428          49.000  
                                                                                
                  27184160.434   109459877.417          40.000  
 22  1  1  4  0 40.0010000  0  9G01G03G04G09G17G19G21G31G32
  20177008.701    20177005.753   106031140.570 0  82621368.846 0        50.000  
        49.000                                                  
  20501727.195    20501724.032   107737899.984 0  83950601.292 0        50.000  
        49.000                                                  
  22068652.366    22068647.542   115971290.946 0  90367241.010 0        46.000  
        45.000                                                  
  25166556.506    25166553.469   132250463.184 0 103052309.098 0        38.000  
        39.000                                                  
  22582657.189    22582651.542   118672132.541 0  92472756.137 0        46.000  
        44.000                                                  
  23232134.382                   122086274.95210                        43.000  
                                                                
  21788393.752                   114499534.236 0                        48.000  
                                                                
  22611104.101    22611098.097   118822285.860 0  92588797.259 0        45.000  
        41.000                                                  
  24635641.924    24635638.332   129460924.927 0 100878557.571 0        40.000  
        37.000                                                  
 22  1  1  4  0 39.0000000  0  0
 22  1  1  4  0 40.0010000  0  6E04E07E11E12E19E26
  28621534.581                   150406449.15110                        36.000  
                  28621532.472   115246499.264          41.000  
  27385697.210                   143912521.395 0                        39.000  
                  27385696.012   110271008.415          44.000  
  27120740.805                   142520141.674 0                        36.000  
                  27120735.802   109203503.469          40.000  
  22775603.503                   119686934.445 0                        45.000  
                  22775599.554    91708001.751          50.000  
  23717091.589                   124634052.612 0                        45.000  
                  23717089.087    95498822.916          49.000  
                                                                                
                  27184720.645   109462132.142          40.000  
 22  1  1  4  0 41.0010000  0  9G01G03G04G09G17G19G21G31G32
  20177230.616    20177227.597   106032306.758 0  82622277.561 0        50.000  
        49.000                                                  
  20501555.295    20501552.204   107736996.732 0  83949897.463 0        50.000  
        49.000                                                  
  22068097.444    22068092.709   115968374.861 0  90364968.739 0        46.000  
        45.000                                                  
  25165853.396    25165850.251   132246768.047 0 103049429.769 0        38.000  
        39.000                                                  
  22582562.358    22582556.675   118671633.931 0  92472367.615 0        46.000  
        44.000                                                  
  23231759.008                   122084302.43310                        43.000  
                                                                
  21788777.114                   114501548.928 0                        48.000  
                                                                
  22610997.227    22610991.419   118821724.670 0  92588359.991 0        45.000  
        41.000                                                  
  24636285.173    24636281.546   129464305.215 0 100881191.563 0        40.000  
        37.000                                                  
 22  1  1  4  0 40.0000000  0  0
 22  1  1  4  0 41.0010000  0  6E04E07E11E12E19E26
  28620991.541                   150403597.20510                        36.000  
                  28620989.915   115244314.000          41.000  
  27386209.354                   143915212.948 0                        39.000  
                  27386208.353   110273070.782          44.000  
  27120180.683                   142517198.405 0                        35.000  
                  27120175.608   109201248.243          40.000  
  22775317.474                   119685431.966 0                        45.000  
                  22775313.668    91706850.504          50.000  
  23716818.943                   124632619.041 0                        45.000  
                  23716816.334    95497724.462          49.000  
                                                                                
                  27185280.535   109464386.796          40.000  
 22  1  1  4  0 42.0010000  0  9G01G03G04G09G17G19G21G31G32
  20177452.693    20177449.619   106033473.676 0  82623186.853 0        50.000  
        49.000                                                  
  20501383.520    20501380.500   107736093.998 0  83949194.033 0        50.000  
        49.000                                                  
  22067542.593    22067537.965   115965459.319 0  90362696.884 0        46.000  
        46.000                                                  
  25165150.214    25165147.069   132243073.119 0 103046550.631 0        38.000  
        39.000                                                  
  22582467.580    22582461.952   118671136.108 0  92471979.710 0        46.000  
        44.000                                                  
  23231383.830                   122082330.69510                        43.000  
                                                                
  21789160.530                   114503564.155 0                        48.000  
                                                                
  22610890.602    22610884.777   118821164.332 0  92587923.364 0        45.000  
        41.000                                                  
  24636928.529    24636924.848   129467685.768 0 100883825.771 0        40.000  
        37.000                                                  
 22  1  1  4  0 41.0000000  0  0
 22  1  1  4  0 42.0010000  0  6E04E07E11E12E19E26
  28620448.895                   150400745.50210                        36.000  
                  28620447.197   115242128.949          41.000  
  27386721.516                   143917904.723 0                        39.000  
                  27386720.426   110275133.320          44.000  
  27119620.525                   142514255.361 0                        35.000  
                  27119615.754   109198993.166          40.000  
  22775031.766                   119683929.989 0                        45.000  
                  22775027.853    91705699.636          50.000  
  23716546.155                   124631185.965 0                        45.000  
                  23716543.653    95496626.393          49.000  
                                                                                
                  27185840.568   109466641.676          40.000  
 22  1  1  4  0 43.0010000  0  9G01G03G04G09G17G19G21G31G32
  20177674.840    20177671.731   106034641.003 0  82624096.453 0        50.000  
        49.000                                                  
  20501211.817    20501208.761   107735191.441 0  83948490.732 0        50.000  
        49.000                                                  
  22066987.742    22066983.078   115962543.974 0  90360425.188 0        46.000  
        46.000                                                  
  25164447.068    25164443.852   132239378.144 0 103043671.402 0        38.000  
        39.000                                                  
  22582372.964    22582367.228   118670638.739 0  92471592.134 0        46.000  
        44.000                                                  
  23231008.777                   122080359.39710                        43.000  
                                                                
  21789544.089                   114505579.590 0                        48.000  
                                                                
  22610784.121    22610778.242   118820604.492 0  92587487.118 0        45.000  
        41.000                                                  
  24637571.814    24637568.169   129471066.246 0 100886459.901 0        40.000  
        37.000                                                  
 22  1  1  4  0 42.0000000  0  0
 22  1  1  4  0 43.0010000  0  6E04E07E11E12E19E26
  28619906.069                   150397893.72610                        36.000  
                  28619904.461   115239943.815          41.000  
  27387233.821                   143920596.422 0                        39.000  
                  27387232.838   110277195.766          44.000  
  27119060.331                   142511312.165 0                        34.000  
                  27119055.774   109196737.979          40.000  
  22774746.094                   119682428.159 0                        45.000  
                  22774742.056    91704548.879          50.000  
  23716273.456                   124629753.050 0                        45.000  
                  23716270.954    95495528.446          49.000  
                                                                                
                  27186400.637   109468896.535          40.000  
 22  1  1  4  0 44.0010000  0  9G01G03G04G09G17G19G21G31G32
  20177897.060    20177894.022   106035808.784 0  82625006.411 0        50.000  
        49.000                                                  
  20501040.149    20501037.004   107734289.113 0  83947787.622 0        50.000  
        49.000                                                  
  22066433.034    22066428.424   115959628.875 0  90358153.692 0        46.000  
        46.000                                                  
  25163743.976    25163740.670   132235683.113 0 103040792.153 0        38.000  
        38.000                                                  
  22582278.437    22582272.790   118670141.867 0  92471204.974 0        46.000  
        44.000                                                  
  23230633.742                   122078388.61010                        43.000  
                                                                
  21789927.683                   114507595.289 0                        48.000  
                                                                
  22610677.746    22610671.939   118820045.218 0  92587051.311 0        45.000  
        41.000                                                  
  24638215.171    24638211.418   129474446.722 0 100889094.041 0        40.000  
        37.000                                                  
 22  1  1  4  0 43.0000000  0  0
 22  1  1  4  0 44.0010000  0  6E04E07E11E12E19E26
  28619363.351                   150395041.89110                        36.000  
                  28619361.690   115237758.647          41.000  
  27387745.965                   143923288.045 0                        39.000  
                  27387744.893   110279258.169          44.000  
  27118500.208                   142508368.834 0                        34.000  
                  27118495.562   109194482.699          39.000  
  22774460.065                   119680926.555 0                        45.000  
                  22774456.312    91703398.303          50.000  
  23716000.721                   124628320.370 0                        45.000  
                  23715998.416    95494430.674          49.000  
                                                                                
                  27186960.617   109471151.428          40.000  
 22  1  1  4  0 45.0010000  0  9G01G03G04G09G17G19G21G31G32
  20178119.475    20178116.348   106036977.050 0  82625916.750 0        50.000  
        49.000                                                  
  20500868.535    20500865.265   107733387.049 0  83947084.721 0        50.000  
        49.000                                                  
  22065878.290    22065873.751   115956714.070 0  90355882.417 0        46.000  
        46.000                                                  
  25163040.758    25163037.542   132231988.088 0 103037912.937 0        38.000  
        38.000                                                  
  22582184.035    22582178.317   118669645.534 0  92470818.219 0        46.000  
        44.000                                                  
  23230258.867                   122076418.35410                        43.000  
                                                                
  21790311.259                   114509611.281 0                        48.000  
                                                                
  22610571.479    22610565.618   118819486.546 0  92586615.984 0        45.000  
        41.000                                                  
  24638858.438    24638854.721   129477827.230 0 100891728.230 0        40.000  
        37.000                                                  
 22  1  1  4  0 44.0000000  0  0
 22  1  1  4  0 45.0010000  0  6E04E07E11E12E19E26
  28618820.705                   150392190.07410                        36.000  
                  28618819.061   115235573.482          41.000  
  27388258.144                   143925979.633 0                        39.000  
                  27388257.037   110281320.561          44.000  
  27117940.300                   142505425.453 0                        34.000  
                  27117935.529   109192227.401          39.000  
  22774174.500                   119679425.203 0                        45.000  
                  22774170.640    91702247.912          50.000  
  23715728.129                   124626887.928 0                        45.000  
                  23715725.788    95493333.088          49.000  
                                                                                
                  27187520.632   109473406.368          40.000  
 22  1  1  4  0 46.0010000  0  9G01G03G04G09G17G19G21G31G32
  20178341.980    20178338.835   106038146.289 0  82626827.846 0        50.000  
        49.000                                                  
  20500696.903    20500693.758   107732485.718 0  83946382.391 0        50.000  
        49.000                                                  
  22065323.832    22065319.222   115953800.045 0  90353611.749 0        46.000  
        46.000                                                  
  25162337.594    25162334.467   132228293.526 0 103035034.044 0        38.000  
        38.000                                                  
  22582089.776    22582084.075   118669150.205 0  92470432.244 0        46.000  
        44.000                                                  
  23229884.083                   122074449.11310                        44.000  
                                                                
  21790695.104                   114511628.049 0                        48.000  
                                                                
  22610465.427    22610459.512   118818928.933 0  92586181.497 0        45.000  
        41.000                                                  
  24639501.830    24639498.059   129481208.214 0 100894362.747 0        40.000  
        37.000                                                  
 22  1  1  4  0 45.0000000  0  0
 22  1  1  4  0 46.0010000  0  6E04E07E11E12E19E26
  28618278.183                   150389338.69410                        36.000  
                  28618276.450   115233388.665          41.000  
  27388770.449                   143928671.690 0                        39.000  
                  27388769.359   110283383.309          44.000  
  27117380.214                   142502482.489 0                        34.000  
                  27117375.550   109189972.398          40.000  
  22773888.774                   119677924.573 0                        45.000  
                  22773885.093    91701098.079          50.000  
  23715455.680                   124625456.210 0                        45.000  
                  23715453.357    95492236.058          49.000  
                                                                                
                  27188080.701   109475661.699          40.000  
 22  1  1  4  0 47.0010000  0  9G01G03G04G09G17G19G21G31G32
  20178564.521    20178561.448   106039316.310 0  82627739.552 0        50.000  
        49.000                                                  
  20500525.593    20500522.376   107731584.972 0  83945680.501 0        50.000  
        49.000                                                  
  22064769.285    22064764.764   115950886.608 0  90351341.529 0        46.000  
        46.000                                                  
  25161634.573    25161631.482   132224599.293 0 103032155.419 0        38.000  
        38.000                                                  
  22581995.517    22581990.031   118668655.715 0  92470046.927 0        46.000  
        44.000                                                  
  23229509.423                   122072480.69610                        44.000  
                                                                
  21791078.931                   114513645.406 0                        48.000  
                                                                
  22610359.499    22610353.710   118818372.227 0  92585747.684 0        45.000  
        41.000                                                  
  24640145.275    24640141.558   129484589.531 0 100896997.556 0        40.000  
        37.000                                                  
 22  1  1  4  0 46.0000000  0  0
 22  1  1  4  0 47.0010000  0  6E04E07E11E12E19E26
  28617735.376                   150386487.64510                        36.000  
                  28617733.893   115231204.088          41.000  
  27389282.861                   143931364.005 0                        39.000  
                  27389281.700   110285446.263          44.000  
  27116820.145                   142499539.745 0                        34.000  
                  27116815.463   109187717.587          40.000  
  22773603.352                   119676424.486 0                        45.000  
                  22773599.635    91699948.668          50.000  
  23715183.177                   124624025.051 0                        45.000  
                  23715181.033    95491139.455          49.000  
                                                                                
                  27188640.984   109477917.320          40.000  
 22  1  1  4  0 48.0010000  0  9G01G03G04G09G17G19G21G31G32
  20178787.187    20178784.078   106040486.480 0  82628651.373 0        50.000  
        49.000                                                  
  20500354.140    20500350.887   107730684.131 0  83944978.550 0        50.000  
        49.000                                                  
  22064214.970    22064210.413   115947973.120 0  90349071.285 0        46.000  
        46.000                                                  
  25160931.463    25160928.372   132220904.691 0 103029276.513 0        38.000  
        38.000                                                  
  22581901.454    22581895.861   118668161.419 0  92469661.761 0        46.000  
        44.000                                                  
  23229134.977                   122070512.48310                        43.000  
                                                                
  21791462.793                   114515662.719 0                        48.000  
                                                                
  22610253.697    22610247.764   118817815.774 0  92585314.089 0        45.000  
        41.000                                                  
  24640788.685    24640784.915   129487970.524 0 100899632.061 0        40.000  
        37.000                                                  
 22  1  1  4  0 47.0000000  0  0
 22  1  1  4  0 48.0010000  0  6E04E07E11E12E19E26
  28617192.640                   150383636.21210                        35.000  
                  28617191.157   115229019.238          41.000  
  27389794.791                   143934055.968 0                        39.000  
                  27389793.987   110287508.929          44.000  
  27116260.148                   142496596.616 0                        34.000  
                  27116255.466   109185462.455          40.000  
  22773317.805                   119674924.314 0                        45.000  
                  22773314.088    91698799.186          50.000  
  23714911.121                   124622593.806 0                        45.000  
                  23714908.620    95490042.787          49.000  
                                                                                
                  27189201.160   109480172.744          40.000  
 22  1  1  4  0 49.0010000  0  9G01G03G04G09G17G19G21G31G32
  20179009.871    20179006.708   106041656.720 0  82629563.255 0        50.000  
        49.000                                                  
  20500182.740    20500179.488   107729783.135 0  83944276.477 0        50.000  
        49.000                                                  
  22063660.494    22063656.027   115945059.489 0  90346800.921 0        46.000  
        46.000                                                  
  25160228.299    25160225.244   132217209.660 0 103026397.277 0        38.000  
        38.000                                                  
  22581807.445    22581801.798   118667667.229 0  92469276.687 0        46.000  
        44.000                                                  
  23228760.353                   122068544.34510                        43.000  
                                                                
  21791846.602                   114517679.888 0                        48.000  
                                                                
  22610147.805    22610141.980   118817259.479 0  92584880.614 0        45.000  
        41.000                                                  
  24641431.916    24641428.128   129491351.105 0 100902266.292 0        40.000  
        37.000                                                  
 22  1  1  4  0 48.0000000  0  0
 22  1  1  4  0 49.0010000  0  6E04E07E11E12E19E26
  28616650.030                   150380784.36910                        36.000  
                  28616648.314   115226834.054          41.000  
  27390306.828                   143936747.500 0                        39.000  
                  27390306.095   110289571.254          44.000  
  27115700.061                   142493653.004 0                        34.000  
                  27115695.272   109183206.964          40.000  
  22773032.437                   119673423.983 0                        45.000  
                  22773028.595    91697649.575          50.000  
  23714638.529                   124621162.388 0                        45.000  
                  23714636.296    95488945.990          49.000  
                                                                                
                  27189761.121   109482427.864          40.000  
 22  1  1  4  0 50.0010000  0  9G01G03G04G09G17G19G21G31G32
  20179232.733    20179229.570   106042827.967 0  82630475.915 0        50.000  
        49.000                                                  
  20500011.358    20500008.124   107728882.935 0  83943575.015 0        50.000  
        49.000                                                  
  22063106.125    22063101.748   115942146.673 0  90344531.201 0        46.000  
        46.000                                                  
  25159525.189    25159522.169   132213515.174 0 103023518.450 0        38.000  
        38.000                                                  
  22581713.561    22581707.968   118667174.103 0  92468892.422 0        46.000  
        44.000                                                  
  23228385.997                   122066577.29110                        43.000  
                                                                
  21792230.553                   114519697.887 0                        48.000  
                                                                
  22610042.163    22610036.409   118816704.316 0  92584448.018 0        45.000  
        41.000                                                  
  24642075.183    24642071.449   129494732.241 0 100904900.946 0        40.000  
        37.000                                                  
 22  1  1  4  0 49.0000000  0  0
 22  1  1  4  0 50.0010000  0  6E04E07E11E12E19E26
  28616107.437                   150377933.08010                        36.000  
                  28616105.721   115224649.300          41.000  
  27390819.169                   143939439.493 0                        39.000  
                  27390818.418   110291633.972          44.000  
  27115140.081                   142490709.814 0                        34.000  
                  27115135.203   109180951.799          40.000  
  22772747.033                   119671924.404 0                        45.000  
                  22772743.263    91696500.551          50.000  
  23714366.223                   124619731.735 0                        45.000  
                  23714363.972    95487849.781          49.000  
                                                                                
                  27190321.172   109484683.454          40.000  
 22  1  1  4  0 51.0010000  0  9G01G03G04G09G17G19G21G31G32
  20179455.882    20179452.629   106044000.133 0  82631389.282 0        50.000  
        49.000                                                  
  20499840.280    20499836.903   107727983.412 0  83942874.095 0        50.000  
        49.000                                                  
  22062552.061    22062547.611   115939234.567 0  90342262.028 0        46.000  
        46.000                                                  
  25158822.221    25158819.184   132209821.103 0 103020639.951 0        38.000  
        38.000                                                  
  22581619.928    22581614.335   118666681.929 0  92468508.905 0        46.000  
        44.000                                                  
  23228011.784                   122064611.20710                        43.000  
                                                                
  21792614.737                   114521716.600 0                        47.000  
                                                                
  22609936.807    22609930.964   118816150.169 0  92584016.215 0        44.000  
        41.000                                                  
  24642718.718    24642714.876   129498113.814 0 100907535.940 0        40.000  
        38.000                                                  
 22  1  1  4  0 50.0000000  0  0
 22  1  1  4  0 51.0010000  0  6E04E07E11E12E19E26
  28615564.826                   150375082.18710                        36.000  
                  28615563.236   115222464.834          41.000  
  27391331.527                   143942131.925 0                        39.000  
                  27391330.759   110293696.989          44.000  
  27114579.995                   142487766.981 0                        34.000  
                  27114575.152   109178696.927          40.000  
  22772461.861                   119670425.511 0                        45.000  
                  22772458.109    91695352.051          50.000  
  23714093.953                   124618301.767 0                        45.000  
                  23714091.844    95486754.086          49.000  
                                                                                
                  27190881.634   109486939.419          40.000  
 22  1  1  4  0 52.0010000  0  9G01G03G04G09G17G19G21G31G32
  20179679.119    20179675.724   106045172.905 0  82632303.133 0        50.000  
        49.000                                                  
  20499669.131    20499665.735   107727084.294 0  83942173.475 0        50.000  
        49.000                                                  
  22061997.942    22061993.564   115936322.878 0  90339993.182 0        46.000  
        46.000                                                  
  25158119.290    25158116.288   132206127.172 0 103017761.565 0        38.000  
        38.000                                                  
  22581526.490    22581520.772   118666190.421 0  92468125.916 0        46.000  
        44.000                                                  
  23227637.678                   122062645.75810                        43.000  
                                                                
  21792998.957                   114523735.727 0                        47.000  
                                                                
  22609831.505    22609825.680   118815596.729 0  92583584.963 0        44.000  
        41.000                                                  
  24643362.218    24643358.447   129501495.537 0 100910171.028 0        40.000  
        38.000                                                  
 22  1  1  4  0 51.0000000  0  0
 22  1  1  4  0 52.0010000  0  6E04E07E11E12E19E26
  28615022.322                   150372231.37910                        36.000  
                  28615020.553   115220280.471          41.000  
  27391843.832                   143944824.446 0                        39.000  
                  27391843.081   110295760.094          44.000  
  27114020.015                   142484824.246 0                        35.000  
                  27114015.226   109176442.077          40.000  
  22772176.654                   119668926.982 0                        45.000  
                  22772172.955    91694203.828          50.000  
  23713821.986                   124616872.180 0                        44.000  
                  23713819.896    95485658.695          49.000  
                                                                                
                  27191441.864   109489195.531          40.000  
 22  1  1  4  0 53.0010000  0  9G01G03G04G09G17G19G21G31G32
  20179902.303    20179898.998   106046346.033 0  82633217.261 0        50.000  
        49.000                                                  
  20499498.088    20499494.711   107726185.290 0  83941472.964 0        50.000  
        49.000                                                  
  22061443.913    22061439.553   115933411.357 0  90337724.468 0        46.000  
        46.000                                                  
  25157416.323    25157413.410   132202433.115 0 103014883.073 0        38.000  
        38.000                                                  
  22581432.982    22581427.335   118665699.305 0  92467743.231 0        46.000  
        44.000                                                  
  23227263.733                   122060680.72210                        43.000  
                                                                
  21793383.266                   114525755.014 0                        47.000  
                                                                
  22609726.257    22609720.467   118815043.768 0  92583154.086 0        44.000  
        41.000                                                  
  24644005.735    24644001.964   129504877.137 0 100912806.059 0        40.000  
        38.000                                                  
 22  1  1  4  0 52.0000000  0  0
 22  1  1  4  0 53.0010000  0  6E04E07E11E12E19E26
  28614479.908                   150369380.47110                        36.000  
                  28614477.978   115218096.001          41.000  
  27392356.244                   143947516.806 0                        39.000  
                  27392355.440   110297823.073          44.000  
  27113460.286                   142481881.332 0                        35.000  
                  27113455.265   109174187.114          40.000  
  22771891.518                   119667428.579 0                        45.000  
                  22771887.783    91693055.705          50.000  
  23713550.002                   124615442.710 0                        45.000  
                  23713547.876    95484563.376          49.000  
                                                                                
                  27192002.111   109491451.590          40.000  
 22  1  1  4  0 54.0010000  0  9G01G03G04G09G17G19G21G31G32
  20180125.595    20180122.378   106047519.672 0  82634131.778 0        50.000  
        49.000                                                  
  20499327.010    20499323.722   107725286.586 0  83940772.670 0        50.000  
        49.000                                                  
  22060889.973    22060885.524   115930500.135 0  90335455.977 0        46.000  
        46.000                                                  
  25156713.409    25156710.514   132198739.059 0 103012004.585 0        38.000  
        39.000                                                  
  22581339.598    22581334.023   118665208.748 0  92467360.974 0        46.000  
        44.000                                                  
  23226889.788                   122058716.23510                        44.000  
                                                                
  21793767.629                   114527774.619 0                        47.000  
                                                                
  22609621.187    22609615.397   118814491.399 0  92582723.660 0        44.000  
        41.000                                                  
  24644649.288    24644645.535   129508258.784 0 100915441.122 0        40.000  
        37.000                                                  
 22  1  1  4  0 53.0000000  0  0
 22  1  1  4  0 54.0010000  0  6E04E07E11E12E19E26
  28613937.494                   150366529.55510                        36.000  
                  28613935.439   115215911.532          41.000  
  27392868.781                   143950209.168 0                        39.000  
                  27392867.852   110299886.047          44.000  
  27112900.146                   142478938.335 0                        35.000  
                  27112895.125   109171932.091          40.000  
  22771606.417                   119665930.447 0                        45.000  
                  22771602.719    91691907.776          50.000  
  23713278.035                   124614013.505 0                        44.000  
                  23713275.855    95483468.275          49.000  
                                                                                
                  27192562.502   109493707.691          40.000  
 22  1  1  4  0 55.0010000  0  9G01G03G04G09G17G19G21G31G32
  20180348.975    20180345.884   106048693.627 0  82635046.553 0        50.000  
        49.000                                                  
  20499155.986    20499152.734   107724387.961 0  83940072.443 0        50.000  
        49.000                                                  
  22060335.927    22060331.602   115927589.042 0  90333187.588 0        46.000  
        46.000                                                  
  25156010.459    25156007.582   132195044.814 0 103009125.969 0        38.000  
        39.000                                                  
  22581246.286    22581240.747   118664718.563 0  92466979.000 0        46.000  
        44.000                                                  
  23226516.040                   122056752.11510                        44.000  
                                                                
  21794151.938                   114529794.341 0                        47.000  
                                                                
  22609516.188    22609510.381   118813939.467 0  92582293.597 0        44.000  
        41.000                                                  
  24645292.751    24645289.106   129511640.272 0 100918076.021 0        40.000  
        37.000                                                  
 22  1  1  4  0 54.0000000  0  0
 22  1  1  4  0 55.0010000  0  6E04E07E11E12E19E26
  28613395.133                   150363678.48610                        36.000  
                  28613393.043   115213726.963          41.000  
  27393381.086                   143952901.331 0                        39.000  
                  27393380.121   110301948.875          44.000  
  27112340.220                   142475995.151 0                        35.000  
                  27112335.074   109169676.903          40.000  
  22771321.353                   119664432.384 0                        45.000  
                  22771317.547    91690759.917          50.000  
  23713006.158                   124612584.387 0                        44.000  
                  23713003.925    95482373.235          49.000  
                                                                                
                  27193122.713   109495963.717          40.000  
 22  1  1  4  0 56.0010000  0  9G01G03G04G09G17G19G21G31G32
  20180572.445    20180569.408   106049868.170 0  82635961.783 0        50.000  
        49.000                                                  
  20498984.979    20498981.727   107723489.715 0  83939372.509 0        50.000  
        49.000                                                  
  22059782.023    22059777.716   115924678.318 0  90330919.501 0        46.000  
        46.000                                                  
  25155307.528    25155304.544   132191350.698 0 103006247.432 0        38.000  
        39.000                                                  
  22581153.135    22581147.596   118664228.994 0  92466597.532 0        46.000  
        44.000                                                  
  23226142.363                   122054788.64010                        44.000  
                                                                
  21794536.372                   114531814.460 0                        47.000  
                                                                
  22609411.136    22609405.543   118813388.216 0  92581864.048 0        44.000  
        41.000                                                  
  24645936.304    24645932.659   129515021.895 0 100920711.063 0        40.000  
        38.000                                                  
 22  1  1  4  0 55.0000000  0  0
 22  1  1  4  0 56.0010000  0  6E04E07E11E12E19E26
  28612852.576                   150360827.51410                        36.000  
                  28612850.486   115211542.452          41.000  
  27393893.355                   143955593.570 0                        39.000  
                  27393892.498   110304011.762          44.000  
  27111780.151                   142473051.958 0                        35.000  
                  27111774.951   109167421.734          39.000  
  22771036.235                   119662934.683 0                        45.000  
                  22771032.715    91689612.326          50.000  
  23712734.228                   124611155.625 0                        44.000  
                  23712732.119    95481278.471          49.000  
                                                                                
                  27193682.979   109498219.873          40.000  
 22  1  1  4  0 57.0010000  0  9G01G03G04G09G17G19G21G31G32
  20180796.130    20180793.003   106051043.287 0  82636877.457 0        50.000  
        49.000                                                  
  20498814.134    20498810.881   107722591.809 0  83938672.848 0        50.000  
        49.000                                                  
  22059228.190    22059223.812   115921767.991 0  90328651.716 0        46.000  
        46.000                                                  
  25154604.542    25154601.558   132187656.662 0 103003368.960 0        38.000  
        39.000                                                  
  22581060.162    22581054.641   118663740.048 0  92466216.532 0        46.000  
        44.000                                                  
  23225768.775                   122052825.77910                        43.000  
                                                                
  21794920.753                   114533834.945 0                        47.000  
                                                                
  22609306.424    22609300.813   118812837.655 0  92581435.042 0        44.000  
        41.000                                                  
  24646579.857    24646576.086   129518403.603 0 100923346.170 0        40.000  
        37.000                                                  
 22  1  1  4  0 56.0000000  0  0
 22  1  1  4  0 57.0010000  0  6E04E07E11E12E19E26
  28612310.091                   150357976.63510                        36.000  
                  28612307.893   115209357.997          41.000  
  27394405.696                   143958285.876 0                        39.000  
                  27394404.802   110306074.694          44.000  
  27111220.208                   142470108.818 0                        35.000  
                  27111214.793   109165166.592          39.000  
  22770751.403                   119661437.304 0                        45.000  
                  22770747.739    91688464.988          50.000  
  23712462.422                   124609727.191 0                        45.000  
                  23712460.260    95480183.959          49.000  
                                                                                
                  27194243.298   109500476.144          40.000  
 22  1  1  4  0 58.0010000  0  9G01G03G04G09G17G19G21G31G32
  20181019.957    20181016.830   106052219.437 0  82637793.937 0        50.000  
        49.000                                                  
  20498643.431    20498640.018   107721694.710 0  83937973.808 0        50.000  
        49.000                                                  
  22058674.661    22058670.212   115918858.488 0  90326384.561 0        46.000  
        46.000                                                  
  25153901.700    25153898.627   132183963.160 0 103000490.907 0        38.000  
        38.000                                                  
  22580967.297    22580961.758   118663252.190 0  92465836.381 0        46.000  
        44.000                                                  
  23225395.348                   122050863.99710                        43.000  
                                                                
  21795305.419                   114535856.278 0                        47.000  
                                                                
  22609201.837    22609196.244   118812288.227 0  92581006.927 0        44.000  
        41.000                                                  
  24647223.499    24647219.729   129521785.881 0 100925981.695 0        40.000  
        37.000                                                  
 22  1  1  4  0 57.0000000  0  0
 22  1  1  4  0 58.0010000  0  6E04E07E11E12E19E26
  28611767.784                   150355126.27410                        36.000  
                  28611765.461   115207173.951          41.000  
  27394918.126                   143960978.690 0                        39.000  
                  27394917.232   110308138.014          44.000  
  27110660.407                   142467166.141 0                        34.000  
                  27110654.903   109162911.800          39.000  
  22770466.588                   119659940.733 0                        45.000  
                  22770462.907    91687318.255          50.000  
  23712190.723                   124608299.556 0                        45.000  
                  23712188.525    95479090.050          49.000  
                                                                                
                  27194803.688   109502732.870          40.000  
 22  1  1  4  0 59.0010000  0  9G01G03G04G09G17G19G21G31G32
  20181243.910    20181240.783   106053396.040 0  82638710.775 0        50.000  
        49.000                                                  
  20498472.764    20498469.386   107720797.848 0  83937274.953 0        50.000  
        49.000                                                  
  22058120.990    22058116.737   115915949.232 0  90324117.622 0        46.000  
        46.000                                                  
  25153198.947    25153195.766   132180269.652 0 102997612.830 0        38.000  
        38.000                                                  
  22580874.521    22580868.892   118662764.816 0  92465456.621 0        46.000  
        44.000                                                  
  23225021.993                   122048902.70610                        43.000  
                                                                
  21795690.068                   114537877.863 0                        47.000  
                                                                
  22609097.321    22609091.656   118811739.367 0  92580579.231 0        44.000  
        41.000                                                  
  24647867.052    24647863.389   129525168.138 0 100928617.249 0        40.000  
        37.000                                                  
 22  1  1  4  0 58.0000000  0  0
 22  1  1  4  0 59.0010000  0  6E04E07E11E12E19E26
  28611225.334                   150352275.90610                        36.000  
                  28611223.136   115204989.887          41.000  
  27395430.413                   143963671.464 0                        39.000  
                  27395429.609   110310201.313          44.000  
  27110100.427                   142464223.335 0                        34.000  
                  27110094.888   109160656.945          39.000  
  22770181.827                   119658444.361 0                        45.000  
                  22770178.164    91686171.691          50.000  
  23711918.953                   124606872.140 0                        44.000  
                  23711917.023    95477996.316          49.000  
                                                                                
                  27195364.329   109504989.618          40.000  
 22  1  1  4  1  0.0010000  0  9G01G03G04G09G17G19G21G31G32
  20181467.683    20181464.699   106054573.029 0  82639627.907 0        50.000  
        49.000                                                  
  20498302.097    20498298.773   107719901.154 0  83936576.232 0        50.000  
        49.000                                                  
  22057567.407    22057563.065   115913040.193 0  90321850.823 0        46.000  
        46.000                                                  
  25152496.159    25152492.871   132176576.012 0 102994734.685 0        38.000  
        38.000                                                  
  22580781.835    22580776.259   118662277.900 0  92465077.196 0        46.000  
        44.000                                                  
  23224648.798                   122046941.86910                        44.000  
                                                                
  21796074.823                   114539899.654 0                        47.000  
                                                                
  22608993.055    22608987.319   118811190.989 0  92580151.942 0        44.000  
        41.000                                                  
  24648510.658    24648506.977   129528550.333 0 100931252.708 0        40.000  
        37.000                                                  
 22  1  1  4  0 59.0000000  0  0
 22  1  1  4  1  0.0010000  0  6E04E07E11E12E19E26
  28610682.830                   150349425.39410                        36.000  
                  28610680.668   115202805.745          41.000  
  27395942.843                   143966364.093 0                        39.000  
                  27395942.128   110312264.501          44.000  
  27109540.108                   142461280.406 0                        34.000  
                  27109534.819   109158401.942          39.000  
  22769897.120                   119656948.159 0                        45.000  
                  22769893.350    91685025.249          50.000  
  23711647.487                   124605444.874 0                        45.000  
                  23711645.307    95476902.701          49.000  
                                                                                
                  27195924.594   109507246.341          40.000  
 22  1  1  4  1  1.0010000  0  9G01G03G04G09G17G19G21G31G32
  20181691.779    20181688.741   106055750.635 0  82640545.520 0        50.000  
        49.000                                                  
  20498131.590    20498128.177   107719004.842 0  83935877.807 0        50.000  
        49.000                                                  
  22057013.968    22057009.590   115910131.556 0  90319584.352 0        46.000  
        46.000                                                  
  25151793.191    25151790.028   132172882.510 0 102991856.627 0        38.000  
        38.000                                                  
  22580689.255    22580683.734   118661791.638 0  92464698.280 0        46.000  
        44.000                                                  
  23224275.783                   122044981.66910                        44.000  
                                                                
  21796459.669                   114541921.859 0                        47.000  
                                                                
  22608888.789    22608883.107   118810643.354 0  92579725.195 0        44.000  
        41.000                                                  
  24649154.318    24649150.602   129531932.652 0 100933888.290 0        40.000  
        38.000                                                  
 22  1  1  4  1  0.0000000  0  0
 22  1  1  4  1  1.0010000  0  6E04E07E11E12E19E26
  28610140.434                   150346575.02410                        36.000  
                  28610138.218   115200621.677          41.000  
  27396455.148                   143969056.845 0                        39.000  
                  27396454.469   110314327.772          44.000  
  27108980.057                   142458337.530 0                        33.000  
                  27108974.893   109156147.004          39.000  
  22769612.449                   119655452.315 0                        45.000  
                  22769608.786    91683879.087          50.000  
  23711375.878                   124604017.981 0                        45.000  
                  23711373.805    95475809.370          49.000  
                                                                                
                  27196485.128   109509503.199          40.000  
 22  1  1  4  1  2.0010000  0  9G01G03G04G09G17G19G21G31G32
  20181916.035    20181912.962   106056928.746 0  82641463.526 0        50.000  
        49.000                                                  
  20497961.156    20497957.564   107718108.814 0  83935179.603 0        50.000  
        49.000                                                  
  22056460.546    22056456.061   115907223.221 0  90317318.124 0        46.000  
        46.000                                                  
  25151090.295    25151087.240   132169189.040 0 102988978.612 0        38.000  
        38.000                                                  
  22580596.747    22580591.297   118661305.911 0  92464319.805 0        46.000  
        44.000                                                  
  23223902.892                   122043022.06510                        44.000  
                                                                
  21796844.585                   114543944.372 0                        47.000  
                                                                
  22608784.631    22608778.966   118810096.302 0  92579298.937 0        44.000  
        41.000                                                  
  24649797.889    24649794.190   129535315.026 0 100936523.906 0        40.000  
        37.000                                                  
 22  1  1  4  1  1.0000000  0  0
 22  1  1  4  1  2.0010000  0  6E04E07E11E12E19E26
  28609598.377                   150343724.65010                        36.000  
                  28609595.822   115198437.642          41.000  
  27396967.542                   143971749.580 0                        39.000  
                  27396966.917   110316391.032          44.000  
  27108419.989                   142455394.610 0                        33.000  
                  27108414.825   109153892.042          39.000  
  22769327.903                   119653956.753 0                        45.000  
                  22769324.025    91682733.128          50.000  
  23711104.501                   124602591.379 0                        45.000  
                  23711102.268    95474716.249          49.000  
                                                                                
                  27197045.625   109511760.129          40.000  
 22  1  1  4  1  3.0010000  0  9G01G03G04G09G17G19G21G31G32
  20182140.470    20182137.271   106058107.394 0  82642381.953 0        50.000  
        49.000                                                  
  20497790.810    20497787.183   107717213.112 0  83934481.647 0        50.000  
        49.000                                                  
  22055907.143    22055902.676   115904315.230 0  90315052.164 0        46.000  
        46.000                                                  
  25150387.399    25150384.380   132165495.605 0 102986100.606 0        38.000  
        38.000                                                  
  22580504.436    22580498.896   118660820.779 0  92463941.764 0        46.000  
        44.000                                                  
  23223530.126                   122041063.00710                        44.000  
                                                                
  21797229.538                   114545967.222 0                        47.000  
                                                                
  22608680.687    22608674.951   118809549.905 0  92578873.170 0        44.000  
        41.000                                                  
  24650441.478    24650437.886   129538697.447 0 100939159.564 0        40.000  
        38.000                                                  
 22  1  1  4  1  2.0000000  0  0
 22  1  1  4  1  3.0010000  0  6E04E07E11E12E19E26
  28609055.963                   150340874.34410                        36.000  
                  28609053.390   115196253.626          41.000  
  27397480.097                   143974442.333 0                        39.000  
                  27397479.347   110318454.308          44.000  
  27107859.973                   142452451.696 0                        32.000  
                  27107854.774   109151637.066          39.000  
  22769043.410                   119652461.478 0                        45.000  
                  22769039.586    91681587.400          50.000  
  23710833.231                   124601165.055 0                        45.000  
                  23710830.873    95473623.363          49.000  
                                                                                
                  27197606.033   109514017.142          40.000  
 22  1  1  4  1  4.0010000  0  9G01G03G04G09G17G19G21G31G32
  20182364.816    20182361.760   106059286.643 0  82643300.846 0        50.000  
        49.000                                                  
  20497620.447    20497616.838   107716317.776 0  83933783.985 0        50.000  
        49.000                                                  
  22055353.739    22055349.326   115901407.640 0  90312786.496 0        46.000  
        46.000                                                  
  25149684.611    25149681.501   132161802.291 0 102983222.683 0        38.000  
        38.000                                                  
  22580412.160    22580406.639   118660336.281 0  92463564.242 0        46.000  
        44.000                                                  
  23223157.432                   122039104.61810                        43.000  
                                                                
  21797614.490                   114547990.486 0                        47.000  
                                                                
  22608576.832    22608570.971   118809004.212 0  92578447.948 0        44.000  
        41.000                                                  
  24651085.191    24651081.600   129542080.007 0 100941795.320 0        40.000  
        37.000                                                  
 22  1  1  4  1  3.0000000  0  0
 22  1  1  4  1  4.0010000  0  6E04E07E11E12E19E26
  28608513.602                   150338024.13510                        36.000  
                  28608511.136   115194069.699          41.000  
  27397992.384                   143977135.185 0                        39.000  
                  27397991.616   110320517.660          44.000  
  27107299.655                   142449508.767 0                        32.000  
                  27107294.901   109149382.121          39.000  
  22768758.792                   119650966.582 0                        45.000  
                  22768755.200    91680441.956          50.000  
  23710561.783                   124599739.106 0                        45.000  
                  23710559.621    95472530.756          49.000  
                                                                                
                  27198166.638   109516274.301          40.000  
 22  1  1  4  1  5.0010000  0  9G01G03G04G09G17G19G21G31G32
  20182589.376    20182586.213   106060466.631 0  82644220.327 0        50.000  
        49.000                                                  
  20497450.120    20497446.599   107715422.957 0  83933086.723 0        50.000  
        49.000                                                  
  22054800.639    22054796.118   115898500.603 0  90310521.281 0        46.000  
        46.000                                                  
  25148981.894    25148978.713   132158109.223 0 102980345.000 0        38.000  
        38.000                                                  
  22580320.135    22580314.595   118659852.581 0  92463187.324 0        46.000  
        44.000                                                  
  23222784.863                   122037147.00910                        44.000  
                                                                
  21797999.675                   114550014.293 0                        47.000  
                                                                
  22608473.156    22608467.277   118808459.364 0  92578023.396 0        44.000  
        41.000                                                  
  24651729.030    24651725.313   129545462.842 0 100944431.295 0        40.000  
        37.000                                                  
 22  1  1  4  1  4.0000000  0  0
 22  1  1  4  1  5.0010000  0  6E04E07E11E12E19E26
  28607971.420                   150335174.20510                        36.000  
                  28607968.704   115191885.986          41.000  
  27398504.975                   143979828.261 0                        39.000  
                  27398504.189   110322581.185          44.000  
  27106739.729                   142446566.040 0                        32.000  
                  27106734.940   109147127.316          39.000  
  22768474.424                   119649472.176 0                        45.000  
                  22768470.761    91679296.898          50.000  
  23710290.424                   124598313.663 0                        45.000  
                  23710288.405    95471438.531          49.000  
                                                                                
                  27198727.279   109518531.701          40.000  
 22  1  1  4  1  6.0010000  0  9G01G03G04G09G17G19G21G31G32
  20182814.007    20182810.934   106061647.248 0  82645140.281 0        50.000  
        49.000                                                  
  20497279.881    20497276.343   107714528.537 0  83932389.777 0        50.000  
        49.000                                                  
  22054247.575    22054243.019   115895593.982 0  90308256.381 0        46.000  
        46.000                                                  
  25148279.158    25148275.924   132154416.296 0 102977467.385 0        38.000  
        38.000                                                  
  22580228.127    22580222.695   118659369.536 0  92462810.943 0        46.000  
        44.000                                                  
  23222412.490                   122035190.06310                        44.000  
                                                                
  21798384.788                   114552038.517 0                        47.000  
                                                                
  22608369.533    22608363.726   118807915.247 0  92577599.404 0        44.000  
        41.000                                                  
  24652372.797    24652368.938   129548845.823 0 100947067.371 0        40.000  
        37.000                                                  
 22  1  1  4  1  5.0000000  0  0
 22  1  1  4  1  6.0010000  0  6E04E07E11E12E19E26
  28607429.078                   150332324.34510                        36.000  
                  28607426.415   115189702.352          40.000  
  27399017.423                   143982521.439 0                        39.000  
                  27399016.672   110324644.800          44.000  
  27106179.874                   142443623.461 0                        32.000  
                  27106174.996   109144872.574          40.000  
  22768190.110                   119647978.160 0                        45.000  
                  22768186.501    91678152.133          50.000  
  23710019.083                   124596888.601 0                        45.000  
                  23710017.207    95470346.598          49.000  
                                                                                
                  27199287.884   109520789.220          40.000  
 22  1  1  4  1  7.0010000  0  9G01G03G04G09G17G19G21G31G32
  20183038.746    20183035.654   106062828.140 0  82646060.459 0        50.000  
        49.000                                                  
  20497109.768    20497106.177   107713634.176 0  83931692.875 0        50.000  
        49.000                                                  
  22053694.404    22053689.990   115892687.443 0  90305991.553 0        46.000  
        46.000                                                  
  25147576.441    25147573.046   132150723.160 0 102974589.633 0        38.000  
        38.000                                                  
  22580136.280    22580130.848   118658886.837 0  92462434.814 0        46.000  
        44.000                                                  
  23222040.153                   122033233.44710                        44.000  
                                                                
  21798770.062                   114554062.825 0                        47.000  
                                                                
  22608266.036    22608260.300   118807371.514 0  92577175.730 0        44.000  
        41.000                                                  
  24653016.493    24653012.651   129552228.629 0 100949703.328 0        40.000  
        37.000                                                  
 22  1  1  4  1  6.0000000  0  0
 22  1  1  4  1  7.0010000  0  6E04E07E11E12E19E26
  28606886.878                   150329474.34410                        36.000  
                  28606884.180   115187518.547          41.000  
  27399529.835                   143985214.406 0                        39.000  
                  27399529.156   110326708.229          44.000  
  27105619.770                   142440680.461 0                        31.000  
                  27105614.981   109142617.625          40.000  
  22767905.796                   119646484.183 0                        45.000  
                  22767902.205    91677007.399          50.000  
  23709748.117                   124595463.583 0                        45.000  
                  23709746.080    95469254.707          49.000  
                                                                                
                  27199848.417   109523046.674          40.000  
 22  1  1  4  1  8.0010000  0  9G01G03G04G09G17G19G21G31G32
  20183263.627    20183260.625   106064009.805 0  82646981.234 0        50.000  
        49.000                                                  
  20496939.691    20496936.081   107712740.370 0  83930996.395 0        50.000  
        49.000                                                  
  22053141.411    22053137.015   115889781.467 0  90303727.159 0        46.000  
        46.000                                                  
  25146873.688    25146870.383   132147030.330 0 102971712.090 0        37.000  
        38.000                                                  
  22580044.666    22580039.127   118658404.944 0  92462059.309 0        46.000  
        44.000                                                  
  23221668.049                   122031277.64810                        43.000  
                                                                
  21799155.407                   114556087.703 0                        47.000  
                                                                
  22608162.753    22608157.017   118806828.662 0  92576752.705 0        44.000  
        41.000                                                  
  24653660.278    24653656.490   129555611.702 0 100952339.505 0        40.000  
        37.000                                                  
 22  1  1  4  1  7.0000000  0  0
 22  1  1  4  1  8.0010000  0  6E04E07E11E12E19E26
  28606344.517                   150326624.56610                        36.000  
                  28606341.855   115185334.978          41.000  
  27400042.479                   143987907.595 0                        39.000  
                  27400041.639   110328771.864          44.000  
  27105059.755                   142437737.823 0                        31.000  
                  27105055.073   109140362.842          40.000  
  22767621.750                   119644990.739 0                        45.000  
                  22767617.980    91675863.077          50.000  
  23709477.026                   124594039.102 0                        45.000  
                  23709474.918    95468163.220          49.000  
                                                                                
                  27200409.093   109525304.348          40.000  
 22  1  1  4  1  9.0010000  0  9G01G03G04G09G17G19G21G31G32
  20183488.527    20183485.543   106065191.847 0  82647902.307 0        50.000  
        49.000                                                  
  20496769.506    20496766.058   107711846.704 0  83930300.035 0        50.000  
        49.000                                                  
  22052588.383    22052584.058   115886875.703 0  90301462.918 0        46.000  
        46.000                                                  
  25146170.935    25146167.505   132143337.371 0 102968834.454 0        38.000  
        38.000                                                  
  22579952.998    22579947.530   118657923.490 0  92461684.140 0        46.000  
        44.000                                                  
  23221295.926                   122029322.29610                        43.000  
                                                                
  21799540.842                   114558112.784 0                        47.000  
                                                                
  22608059.488    22608053.841   118806286.294 0  92576330.103 0        44.000  
        41.000                                                  
  24654303.992    24654300.240   129558994.725 0 100954975.626 0        39.000  
        37.000                                                  
 22  1  1  4  1  8.0000000  0  0
 22  1  1  4  1  9.0010000  0  6E04E07E11E12E19E26
  28605802.192                   150323774.71510                        36.000  
                  28605799.548   115183151.310          41.000  
  27400554.981                   143990600.697 0                        39.000  
                  27400554.087   110330835.394          44.000  
  27104499.328                   142434794.923 0                        31.000  
                  27104495.004   109138107.913          40.000  
  22767337.740                   119643497.454 0                        45.000  
                  22767333.845    91674718.858          50.000  
  23709205.971                   124592614.773 0                        45.000  
                  23709203.952    95467071.844          49.000  
                                                                                
                  27200969.895   109527562.009          40.000  
 22  1  1  4  1 10.0010000  0  9G01G03G04G09G17G19G21G31G32
  20183713.516    20183710.478   106066374.551 0  82648823.891 0        50.000  
        49.000                                                  
  20496599.590    20496596.087   107710953.487 0  83929604.022 0        50.000  
        49.000                                                  
  22052035.408    22052031.119   115883970.373 0  90299199.031 0        46.000  
        46.000                                                  
  25145468.165    25145464.698   132139644.585 0 102965956.931 0        38.000  
        38.000                                                  
  22579861.562    22579856.094   118657442.724 0  92461309.525 0        46.000  
        44.000                                                  
  23220924.054                   122027367.64610                        43.000  
                                                                
  21799926.313                   114560138.313 0                        47.000  
                                                                
  22607956.473    22607950.808   118805744.683 0  92575908.066 0        44.000  
        41.000                                                  
  24654947.902    24654944.061   129562377.918 0 100957611.869 0        39.000  
        37.000                                                  
 22  1  1  4  1  9.0000000  0  0
 22  1  1  4  1 10.0010000  0  6E04E07E11E12E19E26
  28605259.653                   150320924.99310                        36.000  
                  28605257.330   115180967.759          41.000  
  27401067.446                   143993293.916 0                        39.000  
                  27401066.553   110332899.032          44.000  
  27103939.421                   142431852.170 0                        31.000  
                  27103935.060   109135853.086          39.000  
  22767053.372                   119642004.571 0                        45.000  
                  22767049.709    91673574.958          50.000  
  23708935.112                   124591190.853 0                        45.000  
                  23708932.861    95465980.793          49.000  
                                                                                
                  27201530.553   109529819.832          40.000  
 22  1  1  4  1 11.0010000  0  9G01G03G04G09G17G19G21G31G32
  20183938.701    20183935.628   106067557.770 0  82649745.885 0        50.000  
        49.000                                                  
  20496429.691    20496426.171   107710060.555 0  83928908.237 0        50.000  
        49.000                                                  
  22051482.540    22051478.323   115881065.369 0  90296935.396 0        46.000  
        46.000                                                  
  25144765.501    25144761.891   132135951.816 0 102963079.470 0        38.000  
        38.000                                                  
  22579770.180    22579764.712   118656962.525 0  92460935.344 0        46.000  
        44.000                                                  
  23220552.146                   122025413.55810                        43.000  
                                                                
  21800311.819                   114562164.174 0                        48.000  
                                                                
  22607853.476    22607847.936   118805203.705 0  92575486.532 0        44.000  
        41.000                                                  
  24655591.688    24655587.846   129565761.170 0 100960248.172 0        39.000  
        38.000                                                  
 22  1  1  4  1 10.0000000  0  0
 22  1  1  4  1 11.0010000  0  6E04E07E11E12E19E26
  28604717.400                   150318075.32310                        36.000  
                  28604714.987   115178784.248          41.000  
  27401579.930                   143995987.168 0                        39.000  
                  27401579.072   110334962.694          44.000  
  27103378.905                   142428909.388 0                        30.000  
                  27103375.010   109133598.215          39.000  
  22766769.523                   119640511.982 0                        45.000  
                  22766765.860    91672431.292          50.000  
  23708664.075                   124589767.211 0                        45.000  
                  23708662.002    95464889.964          49.000  
                                                                                
                  27202091.408   109532077.755          40.000  
 22  1  1  4  1 12.0010000  0  9G01G03G04G09G17G19G21G31G32
  20184163.958    20184160.920   106068741.324 0  82650668.139 0        50.000  
        49.000                                                  
  20496259.882    20496256.272   107709167.740 0  83928212.535 0        50.000  
        49.000                                                  
  22050929.709    22050925.438   115878160.506 0  90294671.873 0        46.000  
        46.000                                                  
  25144062.873    25144059.085   132132258.915 0 102960201.883 0        38.000  
        38.000                                                  
  22579678.851    22579673.365   118656482.699 0  92460561.455 0        46.000  
        44.000                                                  
  23220180.345                   122023459.85810                        43.000  
                                                                
  21800697.415                   114564190.167 0                        48.000  
                                                                
  22607750.568    22607745.011   118804663.171 0  92575065.305 0        44.000  
        41.000                                                  
  24656235.473    24656231.684   129569144.266 0 100962884.339 0        39.000  
        37.000                                                  
 22  1  1  4  1 11.0000000  0  0
 22  1  1  4  1 12.0010000  0  6E04E07E11E12E19E26
  28604174.968                   150315225.45510                        36.000  
                  28604172.859   115176600.605          41.000  
  27402092.288                   143998680.205 0                        39.000  
                  27402091.502   110337026.188          44.000  
  27102818.389                   142425966.391 0                        30.000  
                  27102815.048   109131343.179          39.000  
  22766485.477                   119639019.477 0                        45.000  
                  22766481.707    91671287.687          50.000  
  23708393.109                   124588343.678 0                        45.000  
                  23708391.108    95463799.200          49.000  
                                                                                
                  27202652.138   109534335.585          40.000  
 22  1  1  4  1 13.0010000  0  9G01G03G04G09G17G19G21G31G32
  20184389.412    20184386.302   106069925.946 0  82651591.219 0        50.000  
        50.000                                                  
  20496090.108    20496086.499   107708275.759 0  83927517.487 0        50.000  
        49.000                                                  
  22050377.055    22050372.856   115875256.508 0  90292409.022 0        46.000  
        46.000                                                  
  25143360.227    25143356.546   132128566.596 0 102957324.755 0        38.000  
        38.000                                                  
  22579587.755    22579582.323   118656003.996 0  92460188.438 0        46.000  
        44.000                                                  
  23219808.741                   122021507.26410                        43.000  
                                                                
  21801083.117                   114566217.044 0                        48.000  
                                                                
  22607648.000    22607642.389   118804123.802 0  92574645.031 0        44.000  
        41.000                                                  
  24656879.383    24656875.523   129572527.996 0 100965521.012 0        39.000  
        38.000                                                  
 22  1  1  4  1 12.0000000  0  0
 22  1  1  4  1 13.0010000  0  6E04E07E11E12E19E26
  28603632.875                   150312376.21410                        36.000  
                  28603630.642   115174417.400          41.000  
  27402604.879                   144001373.820 0                        39.000  
                  27402604.182   110339090.125          44.000  
  27102258.017                   142423023.876 0                        29.000  
                  27102255.015   109129088.553          39.000  
  22766201.485                   119637527.809 0                        45.000  
                  22766197.804    91670144.716          50.000  
  23708122.179                   124586920.975 0                        45.000  
                  23708120.392    95462709.080          49.000  
                                                                                
                  27203212.940   109536593.902          40.000  
 22  1  1  4  1 14.0010000  0  9G01G03G04G09G17G19G21G31G32
  20184614.937    20184611.845   106071111.120 0  82652514.731 0        50.000  
        49.000                                                  
  20495920.495    20495916.832   107707384.124 0  83926822.700 0        50.000  
        49.000                                                  
  22049824.456    22049820.292   115872352.877 0  90290146.444 0        46.000  
        46.000                                                  
  25142657.760    25142653.847   132124874.335 0 102954447.657 0        38.000  
        38.000                                                  
  22579496.802    22579491.387   118655525.890 0  92459815.892 0        46.000  
        44.000                                                  
  23219437.244                   122019555.26410                        43.000  
                                                                
  21801468.910                   114568244.281 0                        48.000  
                                                                
  22607545.396    22607539.892   118803585.099 0  92574225.276 0        44.000  
        41.000                                                  
  24657523.240    24657519.398   129575911.776 0 100968157.740 0        39.000  
        37.000                                                  
 22  1  1  4  1 13.0000000  0  0
 22  1  1  4  1 14.0010000  0  6E04E07E11E12E19E26
  28603090.640                   150309527.04010                        36.000  
                  28603088.549   115172234.265          41.000  
  27403117.434                   144004067.477 0                        39.000  
                  27403116.737   110341154.093          44.000  
  27101697.734                   142420081.373 0                        29.000  
                  27101695.107   109126833.914          39.000  
  22765917.814                   119636036.464 0                        45.000  
                  22765913.990    91669001.999          50.000  
  23707851.749                   124585498.610 0                        45.000  
                  23707849.748    95461619.204          49.000  
                                                                                
                  27203773.759   109538852.332          40.000  
 22  1  1  4  1 15.0010000  0  9G01G03G04G09G17G19G21G31G32
  20184840.479    20184837.424   106072296.652 0  82653438.520 0        50.000  
        49.000                                                  
  20495750.704    20495747.202   107706492.606 0  83926128.015 0        50.000  
        49.000                                                  
  22049271.981    22049267.729   115869449.414 0  90287883.995 0        46.000  
        46.000                                                  
  25141955.079    25141951.183   132121181.933 0 102951570.477 0        38.000  
        38.000                                                  
  22579405.920    22579400.452   118655048.191 0  92459443.648 0        46.000  
        44.000                                                  
  23219065.926                   122017603.69110                        43.000  
                                                                
  21801854.756                   114570271.668 0                        48.000  
                                                                
  22607442.935    22607437.503   118803046.865 0  92573805.869 0        44.000  
        41.000                                                  
  24658167.186    24658163.272   129579295.444 0 100970794.369 0        39.000  
        37.000                                                  
 22  1  1  4  1 14.0000000  0  0
 22  1  1  4  1 15.0010000  0  6E04E07E11E12E19E26
  28602548.261                   150306677.70910                        36.000  
                  28602546.367   115170051.006          41.000  
  27403630.007                   144006760.960 0                        39.000  
                  27403629.221   110343217.935          44.000  
  27101137.254                   142417138.717 0                        28.000  
                  27101135.235   109124579.125          39.000  
  22765633.893                   119634545.224 0                        45.000  
                  22765630.301    91667859.359          50.000  
  23707581.159                   124584076.330 0                        45.000  
                  23707578.997    95460529.416          49.000  
                                                                                
                  27204334.614   109541110.698          40.000  
 22  1  1  4  1 16.0010000  0  9G01G03G04G09G17G19G21G31G32
  20185066.094    20185063.110   106073482.659 0  82654362.681 0        50.000  
        50.000                                                  
  20495581.073    20495577.589   107705601.361 0  83925433.534 0        50.000  
        48.000                                                  
  22048719.436    22048715.326   115866546.205 0  90285621.767 0        46.000  
        46.000                                                  
  25141252.397    25141248.502   132117489.549 0 102948693.260 0        38.000  
        38.000                                                  
  22579315.145    22579309.606   118654570.994 0  92459071.810 0        46.000  
        44.000                                                  
  23218694.608                   122015652.63510                        43.000  
                                                                
  21802240.548                   114572299.348 0                        48.000  
                                                                
  22607340.581    22607335.131   118802509.212 0  92573386.900 0        44.000  
        41.000                                                  
  24658811.078    24658807.165   129582679.145 0 100973430.996 0        39.000  
        37.000                                                  
 22  1  1  4  1 15.0000000  0  0
 22  1  1  4  1 16.0010000  0  6E04E07E11E12E19E26
  28602005.883                   150303828.35310                        36.000  
                  28602004.221   115167867.748          41.000  
  27404142.544                   144009454.420 0                        39.000  
                  27404141.955   110345281.757          44.000  
  27100577.257                   142414195.964 0                        28.000  
                  27100575.094   109122324.288          39.000  
  22765350.240                   119633054.236 0                        45.000  
                  22765346.506    91666716.909          50.000  
  23707310.675                   124582654.313 0                        45.000  
                  23707308.459    95459439.810          49.000  
                                                                                
                  27204895.415   109543369.099          40.000  
 22  1  1  4  1 17.0010000  0  9G01G03G04G09G17G19G21G31G32
  20185291.976    20185288.974   106074669.253 0  82655287.298 0        50.000  
        50.000                                                  
  20495411.514    20495407.922   107704710.454 0  83924739.325 0        50.000  
        49.000                                                  
  22048167.050    22048162.941   115863643.402 0  90283359.842 0        46.000  
        46.000                                                  
  25140549.859    25140545.892   132113797.223 0 102945816.149 0        37.000  
        38.000                                                  
  22579224.442    22579218.956   118654094.433 0  92458700.456 0        46.000  
        44.000                                                  
  23218323.414                   122013702.20410                        43.000  
                                                                
  21802626.394                   114574327.401 0                        48.000  
                                                                
  22607238.424    22607232.938   118801972.255 0  92572968.497 0        44.000  
        41.000                                                  
  24659454.970    24659450.932   129586062.922 0 100976067.724 0        39.000  
        37.000                                                  
 22  1  1  4  1 16.0000000  0  0
 22  1  1  4  1 17.0010000  0  6E04E07E11E12E19E26
  28601463.772                   150300979.09210                        36.000  
                  28601462.093   115165684.543          41.000  
  27404655.082                   144012147.944 0                        39.000  
                  27404654.456   110347345.624          44.000  
  27100017.063                   142411253.208 0                        27.000  
                  27100015.169   109120069.499          39.000  
  22765066.748                   119631563.575 0                        45.000  
                  22765062.817    91665574.725          50.000  
  23707040.049                   124581232.626 0                        45.000  
                  23707037.887    95458350.472          49.000  
                                                                                
                  27205456.360   109545627.621          40.000  
 22  1  1  4  1 18.0010000  0  9G01G03G04G09G17G19G21G31G32
  20185517.858    20185514.928   106075856.575 0  82656212.484 0        50.000  
        50.000                                                  
  20495242.134    20495238.506   107703820.069 0  83924045.516 0        50.000  
        49.000                                                  
  22047614.826    22047610.734   115860741.124 0  90281098.329 0        46.000  
        46.000                                                  
  25139847.231    25139843.318   132110105.183 0 102942939.236 0        38.000  
        38.000                                                  
  22579133.918    22579128.450   118653618.651 0  92458329.725 0        46.000  
        44.000                                                  
  23217952.489                   122011752.55910                        43.000  
                                                                
  21803012.472                   114576356.009 0                        48.000  
                                                                
  22607136.428    22607130.906   118801436.135 0  92572550.738 0        44.000  
        41.000                                                  
  24660098.881    24660094.842   129589446.981 0 100978704.648 0        39.000  
        37.000                                                  
 22  1  1  4  1 17.0000000  0  0
 22  1  1  4  1 18.0010000  0  6E04E07E11E12E19E26
  28600921.698                   150298130.08910                        36.000  
                  28600919.964   115163501.534          41.000  
  27405167.583                   144014841.709 0                        39.000  
                  27405167.083   110349409.671          44.000  
  27099456.404                   142408310.713 0                        27.000  
                  27099455.171   109117814.820          38.000  
  22764783.167                   119630073.427 0                        45.000  
                  22764779.182    91664432.915          50.000  
  23706769.744                   124579811.446 0                        45.000  
                  23706767.403    95457261.516          49.000  
                                                                                
                  27206017.054   109547886.395          40.000  
 22  1  1  4  1 19.0010000  0  9G01G03G04G09G17G19G21G31G32
  20185743.884    20185741.042   106077044.319 0  82657137.994 0        50.000  
        50.000                                                  
  20495072.753    20495069.090   107702929.875 0  83923351.856 0        50.000  
        49.000                                                  
  22047062.477    22047058.563   115857839.066 0  90278836.983 0        46.000  
        46.000                                                  
  25139144.710    25139140.565   132106413.057 0 102940062.239 0        37.000  
        38.000                                                  
  22579043.447    22579038.032   118653143.329 0  92457959.342 0        46.000  
        44.000                                                  
  23217581.600                   122009803.37210                        43.000  
                                                                
  21803398.568                   114578384.819 0                        48.000  
                                                                
  22607034.485    22607028.981   118800900.524 0  92572133.386 0        44.000  
        41.000                                                  
  24660742.844    24660738.806   129592830.987 0 100981341.522 0        39.000  
        37.000                                                  
 22  1  1  4  1 18.0000000  0  0
 22  1  1  4  1 19.0010000  0  6E04E07E11E12E19E26
  28600379.587                   150295281.00010                        36.000  
                  28600377.908   115161318.464          41.000  
  27405680.299                   144017535.345 0                        39.000  
                  27405679.620   110351473.628          44.000  
                                                                                
                  27098895.120   109115560.037          38.000  
  22764499.496                   119628583.446 0                        45.000  
                  22764495.690    91663291.243          50.000  
  23706499.207                   124578390.454 0                        45.000  
                  23706497.027    95456172.691          49.000  
  27206595.689                   142970903.484 0                        27.000  
                  27206578.070   109550145.139          40.000  
 22  1  1  4  1 20.0010000  0  9G01G03G04G09G17G19G21G31G32
  20185969.962    20185967.211   106078232.847 0  82658064.125 0        50.000  
        50.000                                                  
  20494903.391    20494899.763   107702040.261 0  83922658.649 0        50.000  
        49.000                                                  
  22046510.342    22046506.446   115854937.618 0  90276576.107 0        46.000  
        46.000                                                  
  25138442.154    25138438.008   132102721.259 0 102937185.491 0        37.000  
        38.000                                                  
  22578953.083    22578947.758   118652668.858 0  92457589.622 0        46.000  
        44.000                                                  
  23217210.889                   122007855.03710                        43.000  
                                                                
  21803784.646                   114580414.240 0                        48.000  
                                                                
  22606932.757    22606927.342   118800365.827 0  92571716.743 0        44.000  
        41.000                                                  
  24661386.933    24661382.680   129596215.307 0 100983978.664 0        39.000  
        37.000                                                  
 22  1  1  4  1 19.0000000  0  0
 22  1  1  4  1 20.0010000  0  6E04E07E11E12E19E26
  28599837.566                   150292432.21710                        36.000  
                  28599835.672   115159135.630          41.000  
  27406193.068                   144020229.298 0                        39.000  
                  27406192.264   110353537.812          44.000  
                                                                                
                  27098334.980   109113305.457          38.000  
  22764216.111                   119627094.031 0                        45.000  
                  22764212.377    91662150.004          50.000  
  23706228.742                   124576970.005 0                        45.000  
                  23706226.794    95455084.310          49.000  
  27207156.580                   142973851.754 0                        27.000  
                  27207139.229   109552404.174          39.000  
 22  1  1  4  1 21.0010000  0  9G01G03G04G09G17G19G21G31G32
  20186196.184    20186193.468   106079421.566 0  82658990.399 0        50.000  
        50.000                                                  
  20494734.100    20494730.508   107701150.592 0  83921965.409 0        50.000  
        49.000                                                  
  22045958.332    22045954.329   115852036.150 0  90274315.230 0        46.000  
        46.000                                                  
  25137739.616    25137735.363   132099029.119 0 102934308.512 0        37.000  
        38.000                                                  
  22578862.898    22578857.430   118652194.613 0  92457220.076 0        46.000  
        44.000                                                  
  23216840.250                   122005906.93010                        43.000  
                                                                
  21804170.849                   114582443.649 0                        48.000  
                                                                
  22606831.046    22606825.757   118799831.414 0  92571300.313 0        44.000  
        41.000                                                  
  24662030.844    24662026.680   129599599.354 0 100986615.588 0        39.000  
        37.000                                                  
 22  1  1  4  1 20.0000000  0  0
 22  1  1  4  1 21.0010000  0  6E04E07E11E12E19E26
  28599295.438                   150289583.13210                        37.000  
                  28599293.490   115156952.565          41.000  
  27406705.570                   144022922.884 0                        39.000  
                  27406704.837   110355601.733          44.000  
                                                                                
                  27097775.054   109111050.548          38.000  
  22763932.673                   119625604.567 0                        45.000  
                  22763928.867    91661008.726          50.000  
  23705958.634                   124575549.509 0                        45.000  
                  23705956.436    95453995.878          49.000  
  27207717.041                   142976799.698 0                        27.000  
                  27207700.155   109554663.017          39.000  
 22  1  1  4  1 22.0010000  0  9G01G03G04G09G17G19G21G31G32
  20186422.460    20186419.690   106080610.710 0  82659917.007 0        50.000  
        50.000                                                  
  20494564.862    20494561.360   107700261.149 0  83921272.330 0        50.000  
        49.000                                                  
  22045406.197    22045402.302   115849134.899 0  90272054.524 0        46.000  
        46.000                                                  
  25137037.041    25137032.753   132095336.928 0 102931431.476 0        37.000  
        38.000                                                  
  22578772.677    22578767.263   118651720.849 0  92456850.918 0        46.000  
        44.000                                                  
  23216469.664                   122003959.31610                        43.000  
                                                                
  21804557.070                   114584473.298 0                        48.000  
                                                                
  22606729.496    22606724.225   118799297.535 0  92570884.313 0        44.000  
        41.000                                                  
  24662674.736    24662670.626   129602983.342 0 100989252.464 0        39.000  
        37.000                                                  
 22  1  1  4  1 21.0000000  0  0
 22  1  1  4  1 22.0010000  0  6E04E07E11E12E19E26
  28598753.542                   150286733.96510                        37.000  
                  28598751.380   115154769.445          41.000  
  27407218.125                   144025616.417 0                        39.000  
                  27407217.392   110357665.612          44.000  
                                                                                
                  27097215.075   109108795.588          38.000  
  22763649.324                   119624115.287 0                        45.000  
                  22763645.553    91659867.589          50.000  
  23705688.257                   124574129.207 0                        45.000  
                  23705686.220    95452907.595          49.000  
  27208278.022                   142979747.692 0                        27.000  
                  27208261.064   109556921.883          39.000  
 22  1  1  4  1 23.0010000  0  9G01G03G04G09G17G19G21G31G32
  20186649.003    20186646.305   106081801.110 0  82660844.587 0        50.000  
        50.000                                                  
  20494395.767    20494392.211   107699372.713 0  83920580.044 0        50.000  
        49.000                                                  
  22044854.312    22044850.488   115846234.710 0  90269794.641 0        46.000  
        46.000                                                  
  25136334.592    25136330.321   132091645.512 0 102928555.073 0        37.000  
        38.000                                                  
  22578682.832    22578677.435   118651248.374 0  92456482.740 0        46.000  
        44.000                                                  
  23216099.364                   122002012.99310                        44.000  
                                                                
  21804943.559                   114586503.980 0                        48.000  
                                                                
  22606628.161    22606622.836   118798765.009 0  92570469.364 0        44.000  
        41.000                                                  
  24663318.861    24663314.733   129606368.108 0 100991889.953 0        39.000  
        37.000                                                  
 22  1  1  4  1 22.0000000  0  0
 22  1  1  4  1 23.0010000  0  6E04E07E11E12E19E26
  28598211.521                   150283885.55410                        37.000  
                  28598209.412   115152586.911          41.000  
  27407730.698                   144028310.669 0                        39.000  
                  27407730.162   110359730.036          44.000  
                                                                                
                  27096655.203   109106541.147          37.000  
  22763366.225                   119622627.011 0                        45.000  
                  22763362.240    91658727.229          50.000  
  23705418.381                   124572709.920 0                        45.000  
                  23705416.166    95451820.085          49.000  
  27208839.162                   142982696.498 0                        27.000  
                  27208822.276   109559181.349          39.000  
 22  1  1  4  1 24.0010000  0  9G01G03G04G09G17G19G21G31G32
  20186875.582    20186872.902   106082991.895 0  82661772.473 0        50.000  
        50.000                                                  
  20494226.709    20494223.063   107698484.461 0  83919887.904 0        50.000  
        49.000                                                  
  22044302.481    22044298.657   115843334.753 0  90267534.919 0        46.000  
        46.000                                                  
  25135632.089    25135627.819   132087954.012 0 102925678.556 0        37.000  
        38.000                                                  
  22578593.004    22578587.590   118650776.350 0  92456114.940 0        46.000  
        44.000                                                  
  23215729.029                   122000067.12210                        44.000  
                                                                
  21805330.030                   114588534.886 0                        48.000  
                                                                
  22606526.987    22606521.590   118798232.999 0  92570054.793 0        44.000  
        41.000                                                  
  24663962.932    24663958.786   129609752.815 0 100994527.397 0        39.000  
        37.000                                                  
 22  1  1  4  1 23.0000000  0  0
 22  1  1  4  1 24.0010000  0  6E04E07E11E12E19E26
  28597669.500                   150281037.09110                        37.000  
                  28597667.409   115150404.308          41.000  
  27408243.503                   144031004.806 0                        39.000  
                  27408242.735   110361794.387          44.000  
                                                                                
                  27096095.223   109104286.612          37.000  
  22763082.947                   119621138.929 0                        45.000  
                  22763079.123    91657586.994          50.000  
  23705148.202                   124571290.803 0                        45.000  
                  23705146.147    95450732.709          49.000  
  27209399.303                   142985645.329 0                        27.000  
                  27209383.435   109561440.818          39.000  
 22  1  1  4  1 25.0010000  0  9G01G03G04G09G17G19G21G31G32
  20187102.126    20187099.571   106084182.993 0  82662700.604 0        50.000  
        50.000                                                  
  20494057.632    20494054.165   107697596.289 0  83919195.824 0        50.000  
        49.000                                                  
  22043750.632    22043746.844   115840434.864 0  90265275.278 0        46.000  
        46.000                                                  
  25134929.533    25134925.423   132084262.326 0 102922801.945 0        37.000  
        38.000                                                  
  22578503.213    22578497.816   118650304.661 0  92455747.397 0        46.000  
        44.000                                                  
  23215358.765                   121998121.60310                        44.000  
                                                                
  21805716.537                   114590565.900 0                        48.000  
                                                                
  22606425.795    22606420.380   118797701.383 0  92569640.576 0        44.000  
        42.000                                                  
  24664606.967    24664602.714   129613137.355 0 100997164.673 0        39.000  
        37.000                                                  
 22  1  1  4  1 24.0000000  0  0
 22  1  1  4  1 25.0010000  0  6E04E07E11E12E19E26
  28597127.443                   150278188.41410                        37.000  
                  28597125.209   115148221.556          41.000  
  27408756.165                   144033698.747 0                        39.000  
                  27408755.451   110363858.562          44.000  
                                                                                
                  27095535.315   109102031.874          37.000  
  22762799.830                   119619650.888 0                        45.000  
                  22762795.935    91656446.818          50.000  
  23704878.040                   124569871.748 0                        45.000  
                  23704876.074    95449645.386          49.000  
  27209959.032                   142988593.989 0                        27.000  
                  27209944.504   109563700.183          39.000  
 22  1  1  4  1 26.0010000  0  9G01G03G04G09G17G19G21G31G32
  20187328.812    20187326.293   106085374.546 0  82663629.085 0        50.000  
        50.000                                                  
  20493888.609    20493885.178   107696708.357 0  83918503.925 0        50.000  
        49.000                                                  
  22043198.819    22043195.120   115837535.265 0  90263015.844 0        46.000  
        46.000                                                  
  25134227.102    25134222.992   132080570.643 0 102919925.295 0        37.000  
        38.000                                                  
  22578413.635    22578408.203   118649833.500 0  92455380.254 0        46.000  
        44.000                                                  
  23214988.751                   121996176.58010                        44.000  
                                                                
  21806103.116                   114592597.178 0                        48.000  
                                                                
  22606324.656    22606319.331   118797170.345 0  92569226.764 0        44.000  
        42.000                                                  
  24665250.967    24665246.767   129616521.886 0 100999801.968 0        39.000  
        37.000                                                  
 22  1  1  4  1 25.0000000  0  0
 22  1  1  4  1 26.0010000  0  6E04E07E11E12E19E26
  28596585.422                   150275339.73910                        37.000  
                  28596583.224   115146038.796          41.000  
  27409268.560                   144036392.630 0                        39.000  
                  27409268.059   110365922.706          44.000  
  27094974.442                   142384736.71310                        27.000  
                  27094975.264   109099777.039          37.000  
  22762516.642                   119618163.084 0                        45.000  
                  22762512.800    91655306.808          50.000  
  23704608.146                   124568452.921 0                        45.000  
                  23704606.181    95448558.229          49.000  
  27210518.868                   142991542.687 0                        28.000  
                  27210505.681   109565959.564          39.000  
 22  1  1  4  1 27.0010000  0  9G01G03G04G09G17G19G21G31G32
  20187555.803    20187553.283   106086567.033 0  82664558.295 0        50.000  
        50.000                                                  
  20493719.729    20493716.387   107695821.123 0  83917812.581 0        50.000  
        49.000                                                  
  22042647.309    22042643.467   115834636.391 0  90260756.978 0        46.000  
        46.000                                                  
  25133524.706    25133520.561   132076879.356 0 102917048.970 0        37.000  
        38.000                                                  
  22578324.165    22578318.840   118649363.304 0  92455013.864 0        46.000  
        44.000                                                  
  23214618.916                   121994232.55510                        44.000  
                                                                
  21806489.694                   114594629.180 0                        48.000  
                                                                
  22606223.803    22606218.460   118796640.336 0  92568813.784 0        44.000  
        42.000                                                  
  24665895.109    24665890.928   129619906.864 0 101002439.619 0        39.000  
        37.000                                                  
 22  1  1  4  1 26.0000000  0  0
 22  1  1  4  1 27.0010000  0  6E04E07E11E12E19E26
  28596043.133                   150272491.47810                        37.000  
                  28596041.328   115143856.360          41.000  
  27409781.472                   144039086.929 0                        39.000  
                  27409780.704   110367987.164          44.000  
  27094412.837                   142381794.392 0                        28.000  
                  27094415.446   109097522.542          37.000  
  22762233.686                   119616675.965 0                        45.000  
                  22762229.808    91654167.322          50.000  
  23704338.217                   124567034.776 0                        45.000  
                  23704336.287    95447471.600          49.000  
  27211078.884                   142994491.837 0                        28.000  
                  27211066.822   109568219.351          39.000  
 22  1  1  4  1 28.0010000  0  9G01G03G04G09G17G19G21G31G32
  20187782.846    20187780.255   106087759.957 0  82665487.846 0        50.000  
        50.000                                                  
  20493551.009    20493547.561   107694934.110 0  83917121.409 0        50.000  
        49.000                                                  
  22042095.746    22042091.851   115831737.763 0  90258498.317 0        46.000  
        46.000                                                  
  25132822.275    25132818.147   132073188.043 0 102914172.629 0        37.000  
        38.000                                                  
  22578234.784    22578229.459   118648893.596 0  92454647.855 0        46.000  
        44.000                                                  
  23214249.063                   121992289.02010                        44.000  
                                                                
  21806876.362                   114596661.436 0                        48.000  
                                                                
  22606122.932    22606117.697   118796110.885 0  92568401.227 0        44.000  
        42.000                                                  
  24666539.412    24666535.106   129623291.826 0 101005077.255 0        39.000  
        37.000                                                  
 22  1  1  4  1 27.0000000  0  0
