     2.11           OBSERVATION DATA    M (Mixed)           RINEX VERSION / TYPE
RTCM3TORINEX on                         2022-01-16 21:59    PGM / RUN BY / DATE
RTCM3TORINEX                                                MARKER NAME
                                                            OBSERVER / AGENCY
                                                            REC # / TYPE / VERS
                                                            ANT # / TYPE
         .0000         .0000         .0000                  APPROX POSITION XYZ
         .0000         .0000         .0000                  ANTENNA: DELTA H/E/N
     1     1                                                WAVELENGTH FACT L1/2
     9    C1    C2    L1    L2    S1    S2    C7    L7    S7# / TYPES OF OBSERV
  2022     1    16    21    59   21.0000000     GPS         TIME OF FIRST OBS
                                                            END OF HEADER
 22  1 16 21 59 21.0000000  0  6E07E12E18E19E24E26
  26891981.394                   141318445.510 0                        39.000  
                  26891980.751   108282968.082          44.000  
  23350376.459                   122707321.454 0                        43.000  
                  23350372.385    94022496.927          48.000  
  17987146.982                    94523098.82610                        51.000  
                  17987144.766    72426780.800          55.000  
  27590257.085                   144987117.836 0                        29.000  
                  27590254.172   111094276.813          36.000  
  25682428.784                   134961790.670 0                        46.000  
                  25682425.854   103412281.192          50.000  
  26531825.501                   139426199.038 0                        40.000  
                  26531823.303   106833293.209          46.000  
 22  1 16 21 59 22.0000000  0  9G08G10G15G16G18G21G23G26G27
  22574932.142    22574928.783   118632135.932 0  92440626.193 0        45.000  
        45.000                                                  
  20838724.728    20838720.708   109508465.719 0  85331275.355 0        51.000  
        48.000                                                  
  24066236.340    24066231.409   126468254.673 0  98546693.604 0        37.000  
        37.000                                                  
  21619362.855                   113611207.358 0                        47.000  
                                                                
  22776065.543    22776059.414   119688621.395 0  93263872.656 0        43.000  
        42.000                                                  
  24391423.396                   128177968.194 0                        39.000  
                                                                
  20985046.849    20985042.256   110277668.482 0  85930295.336 0        46.000  
        48.000                                                  
  23478040.961    23478038.245   123378521.465 0  96139112.300 0        43.000  
        43.000                                                  
  20463824.478    20463820.511   107537760.375 0  83795659.292 0        50.000  
        49.000                                                  
 22  1 16 21 59 21.0000000  0  0
 22  1 16 21 59 22.0000000  0  6E07E12E18E19E24E26
  26892028.622                   141318693.940 0                        39.000  
                  26892027.943   108283158.429          44.000  
  23350081.781                   122705773.318 0                        43.000  
                  23350077.707    94021310.689          48.000  
  17987618.170                    94525574.54410                        51.000  
                  17987615.829    72428677.772          55.000  
  27589684.794                   144984111.755 0                        29.000  
                  27589682.149   111091973.421          36.000  
  25682398.389                   134961630.525 0                        46.000  
                  25682395.262   103412158.479          50.000  
  26532227.697                   139428311.067 0                        40.000  
                  26532225.284   106834911.514          46.000  
 22  1 16 21 59 23.0000000  0  9G08G10G15G16G18G21G23G26G27
  22574392.622    22574389.335   118629300.730 0  92438416.956 0        45.000  
        45.000                                                  
  20838508.549    20838504.617   109507329.859 0  85330390.276 0        51.000  
        48.000                                                  
  24066464.206    24066459.257   126469452.333 0  98547626.859 0        37.000  
        37.000                                                  
  21619764.801                   113613319.735 0                        47.000  
                                                                
  22776588.873    22776582.869   119691372.109 0  93266016.062 0        43.000  
        42.000                                                  
  24390926.101                   128175354.536 0                        39.000  
                                                                
  20985281.112    20985276.519   110278899.729 0  85931254.750 0        46.000  
        48.000                                                  
  23478698.380    23478695.664   123381975.719 0  96141803.924 0        43.000  
        43.000                                                  
  20463588.053    20463584.104   107536518.173 0  83794691.342 0        50.000  
        49.000                                                  
 22  1 16 21 59 22.0000000  0  0
 22  1 16 21 59 23.0000000  0  6E07E12E18E19E24E26
  26892076.064                   141318942.908 0                        39.000  
                  26892075.260   108283349.212          44.000  
  23349787.300                   122704225.394 0                        43.000  
                  23349783.207    94020124.621          48.000  
  17988089.573                    94528051.79710                        51.000  
                  17988087.232    72430575.931          55.000  
  27589112.574                   144981105.691 0                        28.000  
                  27589110.001   111089670.102          36.000  
  25682368.048                   134961470.947 0                        46.000  
                  25682364.992   103412036.200          50.000  
  26532629.714                   139430423.221 0                        40.000  
                  26532627.248   106836529.909          46.000  
 22  1 16 21 59 24.0000000  0  9G08G10G15G16G18G21G23G26G27
  22573853.246    22573849.833   118626466.097 0  92436208.148 0        45.000  
        45.000                                                  
  20838292.584    20838288.581   109506194.917 0  85329505.905 0        52.000  
        48.000                                                  
  24066692.340    24066687.337   126470650.964 0  98548560.857 0        37.000  
        37.000                                                  
  21620166.962                   113615433.002 0                        47.000  
                                                                
  22777112.507    22777106.449   119694123.280 0  93268159.841 0        43.000  
        42.000                                                  
  24390428.806                   128172741.348 0                        39.000  
                                                                
  20985515.553    20985510.979   110280131.898 0  85932214.879 0        46.000  
        48.000                                                  
  23479355.728    23479353.012   123385430.425 0  96144495.907 0        43.000  
        43.000                                                  
  20463351.896    20463347.804   107535276.755 0  83793724.006 0        50.000  
        49.000                                                  
 22  1 16 21 59 23.0000000  0  0
 22  1 16 21 59 24.0000000  0  6E07E12E18E19E24E26
  26892123.542                   141319192.720 0                        39.000  
                  26892122.756   108283540.602          44.000  
  23349492.729                   122702677.945 0                        43.000  
                  23349488.744    94018938.909          48.000  
  17988561.190                    94530530.85710                        51.000  
                  17988559.010    72432475.473          55.000  
  27588540.819                   144978099.942 0                        28.000  
                  27588538.014   111087366.971          36.000  
  25682337.831                   134961312.193 0                        46.000  
                  25682334.776   103411914.565          50.000  
  26533031.820                   139432535.745 0                        40.000  
                  26533029.229   106838148.590          46.000  
 22  1 16 21 59 25.0000000  0  9G08G10G15G16G18G21G23G26G27
  22573313.834    22573310.492   118623631.481 0  92433999.348 0        45.000  
        45.000                                                  
  20838076.708    20838072.705   109505060.398 0  85328621.862 0        52.000  
        48.000                                                  
  24066920.563    24066915.560   126471850.068 0  98549495.196 0        37.000  
        37.000                                                  
  21620569.175                   113617546.635 0                        47.000  
                                                                
  22777635.962    22777629.904   119696874.396 0  93270303.566 0        43.000  
        42.000                                                  
  24389931.547                   128170128.099 0                        39.000  
                                                                
  20985750.120    20985745.492   110281364.487 0  85933175.343 0        46.000  
        48.000                                                  
  23480013.129    23480010.342   123388885.116 0  96147187.874 0        43.000  
        43.000                                                  
  20463115.721    20463111.701   107534035.624 0  83792756.886 0        50.000  
        49.000                                                  
 22  1 16 21 59 24.0000000  0  0
 22  1 16 21 59 25.0000000  0  6E07E12E18E19E24E26
  26892171.146                   141319442.808 0                        39.000  
                  26892170.449   108283732.244          44.000  
  23349198.462                   122701130.463 0                        43.000  
                  23349194.262    94017753.177          48.000  
  17989033.146                    94533011.22610                        51.000  
                  17989031.002    72434376.015          55.000  
  27587969.439                   144975094.016 0                        28.000  
                  27587965.990   111085063.731          36.000  
  25682307.650                   134961153.762 0                        46.000  
                  25682304.488   103411793.172          50.000  
  26533433.838                   139434648.137 0                        40.000  
                  26533431.175   106839767.176          46.000  
 22  1 16 21 59 26.0000000  0  9G08G10G15G16G18G21G23G26G27
  22572774.422    22572771.152   118620796.883 0  92431790.568 0        45.000  
        45.000                                                  
  20837861.011    20837856.955   109503926.280 0  85327738.134 0        52.000  
        48.000                                                  
  24067148.894    24067143.801   126473049.644 0  98550429.947 0        37.000  
        37.000                                                  
  21620971.479                   113619660.635 0                        47.000  
                                                                
  22778159.471    22778153.342   119699625.477 0  93272447.258 0        43.000  
        43.000                                                  
  24389434.199                   128167514.852 0                        39.000  
                                                                
  20985984.776    20985980.166   110282597.489 0  85934136.121 0        46.000  
        48.000                                                  
  23480670.549    23480667.725   123392339.780 0  96149879.816 0        43.000  
        43.000                                                  
  20462879.671    20462875.615   107532794.778 0  83791789.991 0        50.000  
        49.000                                                  
 22  1 16 21 59 25.0000000  0  0
 22  1 16 21 59 26.0000000  0  6E07E12E18E19E24E26
  26892218.606                   141319693.187 0                        39.000  
                  26892218.034   108283924.102          44.000  
  23348903.909                   122699582.941 0                        43.000  
                  23348899.745    94016567.415          48.000  
  17989505.389                    94535492.88310                        51.000  
                  17989503.191    72436277.545          55.000  
  27587397.291                   144972087.858 0                        28.000  
                  27587393.967   111082760.301          36.000  
  25682277.416                   134960995.651 0                        46.000  
                  25682274.593   103411672.022          50.000  
  26533835.873                   139436760.406 0                        40.000  
                  26533833.157   106841385.672          46.000  
 22  1 16 21 59 27.0000000  0  9G08G10G15G16G18G21G23G26G27
  22572235.152    22572231.811   118617962.808 0  92429582.204 0        45.000  
        45.000                                                  
  20837645.368    20837641.240   109502793.081 0  85326855.122 0        52.000  
        48.000                                                  
  24067377.295    24067372.310   126474250.174 0  98551365.423 0        37.000  
        37.000                                                  
  21621373.853                   113621775.519 0                        47.000  
                                                                
  22778683.069    22778676.940   119702376.997 0  93274591.309 0        43.000  
        42.000                                                  
  24388937.029                   128164902.051 0                        39.000  
                                                                
  20986219.521    20986214.982   110283831.407 0  85935097.611 0        46.000  
        48.000                                                  
  23481328.021    23481325.216   123395794.899 0  96152572.121 0        43.000  
        43.000                                                  
  20462643.657    20462639.619   107531554.698 0  83790823.701 0        50.000  
        49.000                                                  
 22  1 16 21 59 26.0000000  0  0
 22  1 16 21 59 27.0000000  0  6E07E12E18E19E24E26
  26892266.477                   141319944.408 0                        39.000  
                  26892265.941   108284116.582          44.000  
  23348609.463                   122698035.876 0                        43.000  
                  23348605.389    94015382.006          48.000  
  17989977.899                    94537976.33910                        51.000  
                  17989975.862    72438180.457          55.000  
  27586825.232                   144969081.944 0                        28.000  
                  27586821.998   111080457.102          36.000  
  25682247.557                   134960838.371 0                        46.000  
                  25682244.626   103411551.508          50.000  
  26534237.658                   139438873.030 0                        40.000  
                  26534235.246   106843004.449          46.000  
 22  1 16 21 59 28.0000000  0  9G08G10G15G16G18G21G23G26G27
  22571695.919    22571692.452   118615128.888 0  92427373.953 0        45.000  
        45.000                                                  
  20837429.778    20837425.757   109501660.387 0  85325972.503 0        52.000  
        48.000                                                  
  24067605.733    24067600.908   126475451.264 0  98552301.312 0        37.000  
        37.000                                                  
  21621776.389                   113623890.860 0                        47.000  
                                                                
  22779206.685    22779200.538   119705128.568 0  93276735.395 0        43.000  
        42.000                                                  
  24388439.823                   128162289.312 0                        39.000  
                                                                
  20986454.338    20986449.889   110285065.842 0  85936059.515 0        46.000  
        48.000                                                  
  23481985.619    23481982.689   123399250.104 0  96155264.486 0        43.000  
        43.000                                                  
  20462407.786    20462403.694   107530315.011 0  83789857.711 0        50.000  
        49.000                                                  
 22  1 16 21 59 27.0000000  0  0
 22  1 16 21 59 28.0000000  0  6E07E12E18E19E24E26
  26892314.205                   141320196.014 0                        39.000  
                  26892313.794   108284309.371          44.000  
  23348315.053                   122696488.885 0                        43.000  
                  23348311.068    94014196.645          48.000  
  17990450.821                    94540461.20110                        51.000  
                  17990448.730    72440084.433          55.000  
  27586252.869                   144966076.030 0                        28.000  
                  27586249.832   111078153.819          36.000  
  25682217.769                   134960681.507 0                        45.000  
                  25682214.821   103411431.305          50.000  
  26534639.764                   139440985.648 0                        40.000  
                  26534637.102   106844623.200          46.000  
 22  1 16 21 59 29.0000000  0  9G08G10G15G16G18G21G23G26G27
  22571156.685    22571153.255   118612294.900 0  92425165.644 0        45.000  
        45.000                                                  
  20837214.260    20837210.185   109500527.986 0  85325090.113 0        52.000  
        48.000                                                  
  24067834.349    24067829.578   126476652.686 0  98553237.524 0        37.000  
        37.000                                                  
  21622179.085                   113626006.453 0                        47.000  
                                                                
  22779730.283    22779724.082   119707879.989 0  93278879.346 0        43.000  
        43.000                                                  
  24387942.600                   128159676.439 0                        39.000  
                                                                
  20986689.334    20986684.831   110286300.573 0  85937021.636 0        46.000  
        48.000                                                  
  23482643.146    23482640.144   123402705.144 0  96157956.725 0        43.000  
        43.000                                                  
  20462172.022    20462167.823   107529075.473 0  83788891.833 0        50.000  
        49.000                                                  
 22  1 16 21 59 28.0000000  0  0
 22  1 16 21 59 29.0000000  0  6E07E12E18E19E24E26
  26892362.040                   141320447.775 0                        39.000  
                  26892361.772   108284502.281          44.000  
  23348020.553                   122694941.723 0                        43.000  
                  23348016.640    94013011.160          48.000  
  17990923.921                    94542947.22710                        51.000  
                  17990921.759    72441989.315          55.000  
  27585680.810                   144963069.682 0                        28.000  
                  27585677.844   111075850.294          36.000  
  25682187.999                   134960524.837 0                        45.000  
                  25682184.944   103411311.261          50.000  
  26535041.871                   139443098.004 0                        40.000  
                  26535039.155   106846241.763          46.000  
 22  1 16 21 59 30.0000000  0  9G08G10G15G16G18G21G23G26G27
  22570617.488    22570614.039   118609461.256 0  92422957.618 0        45.000  
        45.000                                                  
  20836998.938    20836994.864   109499396.311 0  85324208.288 0        52.000  
        48.000                                                  
  24068063.180    24068058.373   126477854.912 0  98554174.291 0        37.000  
        37.000                                                  
  21622581.728                   113628122.733 0                        47.000  
                                                                
  22780253.881    22780247.698   119710631.660 0  93281023.500 0        42.000  
        42.000                                                  
  24387445.430                   128157063.829 0                        39.000  
                                                                
  20986924.454    20986919.862   110287536.016 0  85937984.327 0        46.000  
        48.000                                                  
  23483300.690    23483297.688   123406160.480 0  96160649.190 0        43.000  
        43.000                                                  
  20461936.223    20461932.077   107527836.528 0  83787926.424 0        50.000  
        49.000                                                  
 22  1 16 21 59 29.0000000  0  0
 22  1 16 21 59 30.0000000  0  6E07E12E18E19E24E26
  26892410.215                   141320700.184 0                        39.000  
                  26892409.858   108284695.681          44.000  
  23347726.269                   122693394.849 0                        43.000  
                  23347722.284    94011825.897          48.000  
  17991397.290                    94545434.86510                        51.000  
                  17991395.163    72443895.427          55.000  
  27585108.609                   144960063.504 0                        28.000  
                  27585105.696   111073546.873          36.000  
  25682158.230                   134960368.794 0                        45.000  
                  25682155.263   103411191.705          50.000  
  26535444.049                   139445210.570 0                        40.000  
                  26535441.083   106847860.466          46.000  
 22  1 16 21 59 31.0000000  0  9G08G10G15G16G18G21G23G26G27
  22570078.308    22570074.913   118606628.031 0  92420749.915 0        45.000  
        45.000                                                  
  20836783.813    20836779.721   109498265.430 0  85323327.084 0        52.000  
        48.000                                                  
  24068292.029    24068287.204   126479057.965 0  98555111.767 0        37.000  
        37.000                                                  
  21622984.585                   113630239.771 0                        47.000  
                                                                
  22780777.604    22780771.511   119713383.673 0  93283167.933 0        43.000  
        42.000                                                  
  24386948.314                   128154451.565 0                        39.000  
                                                                
  20987159.682    20987155.072   110288772.282 0  85938947.644 0        46.000  
        48.000                                                  
  23483958.288    23483955.357   123409616.163 0  96163341.928 0        43.000  
        43.000                                                  
  20461700.512    20461696.367   107526598.253 0  83786961.534 0        50.000  
        49.000                                                  
 22  1 16 21 59 30.0000000  0  0
 22  1 16 21 59 31.0000000  0  6E07E12E18E19E24E26
  26892458.426                   141320953.263 0                        39.000  
                  26892457.800   108284889.605          44.000  
  23347431.859                   122691848.331 0                        43.000  
                  23347427.963    94010640.900          48.000  
  17991871.051                    94547924.19310                        51.000  
                  17991868.925    72445802.832          55.000  
  27584536.728                   144957057.476 0                        28.000  
                  27584533.673   111071243.570          36.000  
  25682128.674                   134960213.480 0                        45.000  
                  25682125.744   103411072.689          50.000  
  26535846.013                   139447323.370 0                        41.000  
                  26535843.118   106849479.372          46.000  
 22  1 16 21 59 32.0000000  0  9G08G10G15G16G18G21G23G26G27
  22569539.128    22569535.822   118603794.906 0  92418542.270 0        45.000  
        45.000                                                  
  20836568.723    20836564.631   109497135.019 0  85322446.242 0        52.000  
        48.000                                                  
  24068521.020    24068516.213   126480261.547 0  98556049.609 0        37.000  
        37.000                                                  
  21623387.531                   113632357.228 0                        47.000  
                                                                
  22781301.202    22781295.216   119716135.693 0  93285312.352 0        43.000  
        42.000                                                  
  24386451.233                   128151839.322 0                        39.000  
                                                                
  20987394.946    20987390.443   110290009.002 0  85939911.322 0        46.000  
        48.000                                                  
  23484615.832    23484612.955   123413071.878 0  96166034.702 0        43.000  
        43.000                                                  
  20461464.838    20461460.817   107525360.318 0  83785996.905 0        50.000  
        49.000                                                  
 22  1 16 21 59 31.0000000  0  0
 22  1 16 21 59 32.0000000  0  6E07E12E18E19E24E26
  26892506.601                   141321206.720 0                        39.000  
                  26892505.940   108285083.811          44.000  
  23347137.556                   122690301.835 0                        43.000  
                  23347133.678    94009455.909          48.000  
  17992344.884                    94550414.87310                        51.000  
                  17992342.829    72447711.271          55.000  
  27583964.509                   144954051.345 0                        28.000  
                  27583961.667   111068940.146          36.000  
  25682098.922                   134960058.524 0                        45.000  
                  25682096.188   103410953.958          50.000  
  26536248.084                   139449436.099 0                        41.000  
                  26536245.260   106851098.207          46.000  
 22  1 16 21 59 33.0000000  0  9G08G10G15G16G18G21G23G26G27
  22569000.055    22568996.678   118600961.993 0  92416334.816 0        45.000  
        45.000                                                  
  20836353.759    20836349.685   109496005.212 0  85321565.878 0        52.000  
        48.000                                                  
  24068750.190    24068745.491   126481465.768 0  98556987.973 0        37.000  
        37.000                                                  
  21623790.478                   113634475.239 0                        47.000  
                                                                
  22781824.890    22781818.975   119718887.827 0  93287456.886 0        43.000  
        42.000                                                  
  24385954.171                   128149227.246 0                        39.000  
                                                                
  20987630.316    20987625.867   110291246.324 0  85940875.473 0        46.000  
        48.000                                                  
  23485273.412    23485270.714   123416527.737 0  96168727.584 0        43.000  
        43.000                                                  
  20461229.324    20461225.429   107524122.843 0  83785032.644 0        50.000  
        49.000                                                  
 22  1 16 21 59 32.0000000  0  0
 22  1 16 21 59 33.0000000  0  6E07E12E18E19E24E26
  26892554.919                   141321460.644 0                        39.000  
                  26892554.400   108285278.366          44.000  
  23346843.592                   122688755.469 0                        43.000  
                  23346839.483    94008271.043          48.000  
  17992819.431                    94552907.02410                        51.000  
                  17992817.019    72449620.845          55.000  
  27583392.503                   144951045.158 0                        27.000  
                  27583389.662   111066636.700          36.000  
  25682069.706                   134959904.075 0                        45.000  
                  25682066.794   103410835.617          50.000  
  26536650.119                   139451548.884 0                        41.000  
                  26536647.171   106852717.104          46.000  
 22  1 16 21 59 34.0000000  0  9G08G10G15G16G18G21G23G26G27
  22568461.090    22568457.605   118598129.399 0  92414127.596 0        45.000  
        45.000                                                  
  20836138.866    20836134.792   109494876.057 0  85320686.014 0        52.000  
        48.000                                                  
  24068979.504    24068974.804   126482670.705 0  98557926.892 0        37.000  
        37.000                                                  
  21624193.567                   113636593.881 0                        47.000  
                                                                
  22782348.595    22782342.716   119721640.181 0  93289601.580 0        43.000  
        42.000                                                  
  24385457.126                   128146615.393 0                        39.000  
                                                                
  20987865.902    20987861.470   110292484.324 0  85941840.144 0        46.000  
        48.000                                                  
  23485931.153    23485928.419   123419983.828 0  96171420.632 0        43.000  
        43.000                                                  
  20460993.882    20460990.004   107522885.894 0  83784068.792 0        50.000  
        49.000                                                  
 22  1 16 21 59 33.0000000  0  0
 22  1 16 21 59 34.0000000  0  6E07E12E18E19E24E26
  26892603.236                   141321715.113 0                        39.000  
                  26892602.879   108285473.370          44.000  
  23346549.218                   122687209.329 0                        43.000  
                  23346545.269    94007086.335          48.000  
  17993293.550                    94555400.73010                        51.000  
                  17993291.692    72451531.602          55.000  
  27582820.623                   144948039.041 0                        27.000  
                  27582817.532   111064333.301          36.000  
  25682040.205                   134959750.201 0                        45.000  
                  25682037.614   103410717.716          50.000  
  26537052.047                   139453661.805 0                        41.000  
                  26537049.259   106854336.097          46.000  
 22  1 16 21 59 35.0000000  0  9G08G10G15G16G18G21G23G26G27
  22567922.071    22567918.550   118595296.858 0  92411920.421 0        45.000  
        45.000                                                  
  20835924.205    20835920.006   109493747.345 0  85319806.494 0        52.000  
        48.000                                                  
  24069208.852    24069204.189   126483876.150 0  98558866.179 0        37.000  
        37.000                                                  
  21624596.835                   113638712.914 0                        47.000  
                                                                
  22782872.354    22782866.421   119724392.512 0  93291746.242 0        42.000  
        42.000                                                  
  24384960.171                   128144003.514 0                        39.000  
                                                                
  20988101.594    20988097.091   110293722.758 0  85942805.157 0        46.000  
        48.000                                                  
  23486588.930    23486586.106   123423439.910 0  96174113.687 0        43.000  
        43.000                                                  
  20460758.636    20460754.705   107521649.267 0  83783105.180 0        50.000  
        49.000                                                  
 22  1 16 21 59 34.0000000  0  0
 22  1 16 21 59 35.0000000  0  6E07E12E18E19E24E26
  26892651.840                   141321969.923 0                        39.000  
                  26892651.304   108285668.603          44.000  
  23346255.112                   122685663.171 0                        43.000  
                  23346250.931    94005901.617          48.000  
  17993768.723                    94557895.74810                        51.000  
                  17993766.418    72453443.369          55.000  
  27582248.243                   144945032.752 0                        27.000  
                  27582245.580   111062029.773          36.000  
  25682011.132                   134959596.674 0                        45.000  
                  25682008.326   103410600.067          50.000  
  26537454.332                   139455774.610 0                        41.000  
                  26537451.366   106855954.993          46.000  
 22  1 16 21 59 36.0000000  0  9G08G10G15G16G18G21G23G26G27
  22567383.034    22567379.549   118592464.693 0  92409713.539 0        45.000  
        45.000                                                  
  20835709.599    20835705.328   109492619.372 0  85318927.556 0        52.000  
        48.000                                                  
  24069438.326    24069433.841   126485082.382 0  98559806.120 0        37.000  
        37.000                                                  
  21625000.300                   113640832.666 0                        47.000  
                                                                
  22783396.113    22783390.198   119727145.130 0  93293891.144 0        42.000  
        42.000                                                  
  24384463.179                   128141391.923 0                        39.000  
                                                                
  20988337.394    20988332.873   110294961.932 0  85943770.749 0        46.000  
        48.000                                                  
  23487246.635    23487243.865   123426896.297 0  96176806.967 0        43.000  
        43.000                                                  
  20460523.462    20460519.495   107520413.234 0  83782142.034 0        50.000  
        49.000                                                  
 22  1 16 21 59 35.0000000  0  0
 22  1 16 21 59 36.0000000  0  6E07E12E18E19E24E26
  26892700.229                   141322225.346 0                        39.000  
                  26892699.979   108285864.323          44.000  
  23345960.934                   122684117.315 0                        43.000  
                  23345956.806    94004717.130          48.000  
  17994243.771                    94560392.39710                        51.000  
                  17994241.591    72455356.389          55.000  
  27581676.202                   144942026.532 0                        27.000  
                  27581673.468   111059726.304          36.000  
  25681981.916                   134959443.792 0                        45.000  
                  25681979.289   103410482.926          50.000  
  26537856.492                   139457887.610 0                        41.000  
                  26537853.473   106857574.047          46.000  
 22  1 16 21 59 37.0000000  0  9G08G10G15G16G18G21G23G26G27
  22566844.122    22566840.584   118589632.663 0  92407506.753 0        45.000  
        45.000                                                  
  20835495.081    20835490.703   109491491.928 0  85318049.026 0        52.000  
        48.000                                                  
  24069668.015    24069663.476   126486289.180 0  98560746.494 0        37.000  
        37.000                                                  
  21625403.765                   113642952.872 0                        47.000  
                                                                
  22783919.997    22783914.029   119729897.801 0  93296036.082 0        42.000  
        42.000                                                  
  24383966.260                   128138780.404 0                        39.000  
                                                                
  20988573.175    20988568.780   110296201.625 0  85944736.739 0        46.000  
        48.000                                                  
  23487904.447    23487901.678   123430352.742 0  96179500.313 0        43.000  
        43.000                                                  
  20460288.377    20460284.374   107519177.587 0  83781179.191 0        50.000  
        49.000                                                  
 22  1 16 21 59 36.0000000  0  0
 22  1 16 21 59 37.0000000  0  6E07E12E18E19E24E26
  26892749.101                   141322481.198 0                        39.000  
                  26892748.690   108286060.363          44.000  
  23345666.828                   122682571.518 0                        43.000  
                  23345662.539    94003532.693          48.000  
  17994719.105                    94562890.44610                        51.000  
                  17994716.818    72457270.473          55.000  
  27581104.125                   144939020.240 0                        27.000  
                  27581101.587   111057422.788          36.000  
  25681953.022                   134959291.327 0                        45.000  
                  25681950.341   103410366.111          50.000  
  26538258.402                   139460000.598 0                        41.000  
                  26538255.561   106859193.090          46.000  
 22  1 16 21 59 38.0000000  0  9G08G10G15G16G18G21G23G26G27
  22566305.299    22566301.708   118586800.952 0  92405300.243 0        45.000  
        45.000                                                  
  20835280.706    20835276.221   109490365.188 0  85317171.049 0        52.000  
        48.000                                                  
  24069897.775    24069893.218   126487496.776 0  98561687.459 0        37.000  
        37.000                                                  
  21625807.408                   113645073.777 0                        47.000  
                                                                
  22784443.881    22784437.859   119732650.728 0  93298181.217 0        42.000  
        42.000                                                  
  24383469.358                   128136169.168 0                        39.000  
                                                                
  20988809.243    20988804.776   110297442.057 0  85945703.312 0        46.000  
        48.000                                                  
  23488562.295    23488559.526   123433809.481 0  96182193.871 0        43.000  
        43.000                                                  
  20460053.256    20460049.307   107517942.548 0  83780216.825 0        50.000  
        49.000                                                  
 22  1 16 21 59 37.0000000  0  0
 22  1 16 21 59 38.0000000  0  6E07E12E18E19E24E26
  26892798.080                   141322737.675 0                        39.000  
                  26892797.401   108286256.868          44.000  
  23345372.579                   122681026.006 0                        43.000  
                  23345368.576    94002348.469          48.000  
  17995194.886                    94565390.11210                        51.000  
                  17995192.545    72459185.802          55.000  
  27580531.923                   144936014.074 0                        27.000  
                  27580529.457   111055119.364          36.000  
  25681924.110                   134959139.519 0                        45.000  
                  25681921.394   103410249.786          50.000  
  26538660.545                   139462113.770 0                        40.000  
                  26538657.739   106860812.278          46.000  
 22  1 16 21 59 39.0000000  0  9G08G10G15G16G18G21G23G26G27
  22565766.334    22565762.796   118583969.142 0  92403093.634 0        45.000  
        45.000                                                  
  20835066.296    20835061.954   109489238.717 0  85316293.275 0        52.000  
        48.000                                                  
  24070127.606    24070123.121   126488704.659 0  98562628.697 0        37.000  
        38.000                                                  
  21626211.087                   113647194.899 0                        47.000  
                                                                
  22784967.676    22784961.672   119735403.460 0  93300326.204 0        42.000  
        42.000                                                  
  24382972.420                   128133557.755 0                        39.000  
                                                                
  20989045.275    20989040.843   110298682.727 0  85946670.073 0        46.000  
        48.000                                                  
  23489220.072    23489217.213   123437266.030 0  96184887.283 0        43.000  
        43.000                                                  
  20459818.243    20459814.365   107516707.621 0  83779254.546 0        50.000  
        49.000                                                  
 22  1 16 21 59 38.0000000  0  0
 22  1 16 21 59 39.0000000  0  6E07E12E18E19E24E26
  26892846.755                   141322994.289 0                        39.000  
                  26892846.273   108286453.493          44.000  
  23345078.419                   122679480.302 0                        43.000  
                  23345074.452    94001164.095          48.000  
  17995670.809                    94567890.91010                        51.000  
                  17995668.504    72461101.996          55.000  
  27579959.703                   144933007.494 0                        27.000  
                  27579957.219   111052815.644          36.000  
  25681895.108                   134958987.861 0                        45.000  
                  25681892.624   103410133.578          50.000  
  26539062.562                   139464226.646 0                        40.000  
                  26539059.810   106862431.238          46.000  
 22  1 16 21 59 40.0000000  0  9G08G10G15G16G18G21G23G26G27
  22565227.458    22565223.973   118581137.522 0  92400887.163 0        45.000  
        45.000                                                  
  20834852.082    20834847.722   109488112.793 0  85315415.939 0        52.000  
        48.000                                                  
  24070357.652    24070353.095   126489913.159 0  98563570.348 0        37.000  
        38.000                                                  
  21626614.838                   113649316.508 0                        47.000  
                                                                
  22785491.560    22785485.484   119738156.269 0  93302471.255 0        42.000  
        42.000                                                  
  24382475.590                   128130946.425 0                        39.000  
                                                                
  20989281.557    20989276.947   110299923.961 0  85947637.270 0        46.000  
        48.000                                                  
  23489877.741    23489874.900   123440722.681 0  96187580.768 0        43.000  
        43.000                                                  
  20459583.319    20459579.477   107515473.116 0  83778292.599 0        50.000  
        49.000                                                  
 22  1 16 21 59 39.0000000  0  0
 22  1 16 21 59 40.0000000  0  6E07E12E18E19E24E26
  26892895.574                   141323251.318 0                        39.000  
                  26892895.127   108286650.443          44.000  
  23344784.563                   122677934.696 0                        43.000  
                  23344780.364    93999979.803          48.000  
  17996146.912                    94570393.13510                        51.000  
                  17996144.624    72463019.287          55.000  
  27579387.805                   144930000.896 0                        27.000  
                  27579385.035   111050511.891          36.000  
  25681866.286                   134958836.654 0                        45.000  
                  25681863.820   103410017.728          50.000  
  26539464.794                   139466339.549 0                        40.000  
                  26539461.863   106864050.208          46.000  
 22  1 16 21 59 41.0000000  0  9G08G10G15G16G18G21G23G26G27
  22564688.742    22564685.258   118578306.367 0  92398681.079 0        45.000  
        45.000                                                  
  20834637.993    20834633.580   109486987.731 0  85314539.260 0        52.000  
        48.000                                                  
  24070587.787    24070583.266   126491122.577 0  98564512.768 0        37.000  
        38.000                                                  
  21627018.660                   113651438.951 0                        47.000  
                                                                
  22786015.497    22786009.475   119740909.486 0  93304616.611 0        42.000  
        42.000                                                  
  24381978.742                   128128335.505 0                        38.000  
                                                                
  20989517.964    20989513.300   110301166.060 0  85948605.131 0        46.000  
        48.000                                                  
  23490535.536    23490532.802   123444179.755 0  96190274.603 0        43.000  
        43.000                                                  
  20459348.484    20459344.714   107514239.336 0  83777331.210 0        50.000  
        49.000                                                  
 22  1 16 21 59 40.0000000  0  0
 22  1 16 21 59 41.0000000  0  6E07E12E18E19E24E26
  26892944.660                   141323509.115 0                        39.000  
                  26892944.267   108286847.990          44.000  
  23344490.296                   122676389.510 0                        43.000  
                  23344486.275    93998795.822          48.000  
  17996623.532                    94572897.10610                        51.000  
                  17996621.138    72464937.912          55.000  
  27578816.121                   144926994.556 0                        27.000  
                  27578813.012   111048208.324          36.000  
  25681837.749                   134958686.238 0                        45.000  
                  25681835.158   103409902.457          50.000  
  26539866.757                   139468452.772 0                        40.000  
                  26539863.988   106865669.426          46.000  
 22  1 16 21 59 42.0000000  0  9G08G10G15G16G18G21G23G26G27
  22564150.099    22564146.543   118575475.346 0  92396475.077 0        45.000  
        45.000                                                  
  20834424.047    20834419.669   109485863.163 0  85313662.975 0        52.000  
        48.000                                                  
  24070818.047    24070813.562   126492332.518 0  98565455.597 0        37.000  
        38.000                                                  
  21627422.660                   113653561.845 0                        47.000  
                                                                
  22786539.435    22786533.359   119743662.726 0  93306761.991 0        42.000  
        42.000                                                  
  24381481.858                   128125724.641 0                        38.000  
                                                                
  20989754.443    20989749.779   110302408.646 0  85949573.380 0        46.000  
        48.000                                                  
  23491193.437    23491190.704   123447636.878 0  96192968.459 0        43.000  
        44.000                                                  
  20459113.739    20459109.897   107513005.917 0  83776370.097 0        50.000  
        49.000                                                  
 22  1 16 21 59 41.0000000  0  0
 22  1 16 21 59 42.0000000  0  6E07E12E18E19E24E26
  26892993.728                   141323767.287 0                        39.000  
                  26892993.353   108287045.799          44.000  
  23344196.297                   122674844.361 0                        43.000  
                  23344192.240    93997611.871          48.000  
  17997100.295                    94575402.44710                        51.000  
                  17997097.901    72466857.589          55.000  
  27578244.188                   144923988.050 0                        27.000  
                  27578240.935   111045904.632          36.000  
  25681809.123                   134958536.202 0                        45.000  
                  25681806.585   103409787.504          50.000  
  26540268.882                   139470565.924 0                        41.000  
                  26540266.130   106867288.599          46.000  
 22  1 16 21 59 43.0000000  0  9G08G10G15G16G18G21G23G26G27
  22563611.437    22563607.881   118572644.844 0  92394269.510 0        45.000  
        45.000                                                  
  20834210.191    20834205.867   109484739.495 0  85312787.392 0        52.000  
        48.000                                                  
  24071048.468    24071044.055   126493543.424 0  98566399.158 0        37.000  
        38.000                                                  
  21627826.679                   113655685.591 0                        47.000  
                                                                
  22787063.301    22787057.440   119746416.395 0  93308907.725 0        42.000  
        42.000                                                  
  24380985.135                   128123114.209 0                        38.000  
                                                                
  20989991.118    20989986.418   110303652.136 0  85950542.331 0        46.000  
        48.000                                                  
  23491851.446    23491848.695   123451094.445 0  96195662.665 0        43.000  
        44.000                                                  
  20458879.172    20458875.348   107511773.264 0  83775409.590 0        50.000  
        49.000                                                  
 22  1 16 21 59 42.0000000  0  0
 22  1 16 21 59 43.0000000  0  6E07E12E18E19E24E26
  26893043.100                   141324026.238 0                        39.000  
                  26893042.707   108287244.234          44.000  
  23343902.351                   122673299.659 0                        43.000  
                  23343898.313    93996428.277          48.000  
  17997577.363                    94577909.57510                        51.000  
                  17997575.022    72468778.635          55.000  
  27577672.468                   144920981.839 0                        27.000  
                  27577668.859   111043601.179          36.000  
  25681780.711                   134958386.985 0                        45.000  
                  25681778.191   103409673.169          50.000  
  26540671.042                   139472679.451 0                        40.000  
                  26540668.362   106868908.060          46.000  
 22  1 16 21 59 44.0000000  0  9G08G10G15G16G18G21G23G26G27
  22563072.686    22563069.183   118569814.228 0  92392063.824 0        45.000  
        45.000                                                  
  20833996.477    20833992.082   109483616.076 0  85311911.997 0        52.000  
        48.000                                                  
  24071278.979    24071274.511   126494754.620 0  98567342.959 0        37.000  
        38.000                                                  
  21628230.769                   113657809.553 0                        47.000  
                                                                
  22787587.239    22787581.378   119749169.876 0  93311053.286 0        42.000  
        42.000                                                  
  24380488.287                   128120503.621 0                        39.000  
                                                                
  20990227.865    20990223.094   110304895.882 0  85951511.483 0        46.000  
        48.000                                                  
  23492509.294    23492506.578   123454551.841 0  96198356.735 0        43.000  
        44.000                                                  
  20458644.695    20458640.817   107510540.749 0  83774449.186 0        50.000  
        49.000                                                  
 22  1 16 21 59 43.0000000  0  0
 22  1 16 21 59 44.0000000  0  6E07E12E18E19E24E26
  26893092.472                   141324285.364 0                        39.000  
                  26893091.847   108287442.774          44.000  
  23343608.388                   122671754.768 0                        43.000  
                  23343604.278    93995244.536          48.000  
  17998054.626                    94580417.83910                        51.000  
                  17998052.268    72470700.554          55.000  
  27577100.660                   144917975.277 0                        27.000  
                  27577096.836   111041297.461          36.000  
  25681752.442                   134958237.924 0                        45.000  
                  25681749.726   103409558.954          50.000  
  26541073.167                   139474792.703 0                        40.000  
                  26541070.468   106870527.300          46.000  
 22  1 16 21 59 45.0000000  0  9G08G10G15G16G18G21G23G26G27
  22562533.953    22562530.504   118566983.554 0  92389858.106 0        45.000  
        45.000                                                  
  20833782.764    20833778.440   109482492.972 0  85311036.851 0        52.000  
        48.000                                                  
  24071509.596    24071505.093   126495966.225 0  98568287.034 0        38.000  
        38.000                                                  
  21628635.020                   113659933.789 0                        47.000  
                                                                
  22788111.212    22788105.262   119751923.216 0  93313198.744 0        42.000  
        42.000                                                  
  24379991.474                   128117892.889 0                        39.000  
                                                                
  20990464.647    20990459.840   110306139.941 0  85952480.887 0        46.000  
        48.000                                                  
  23493167.160    23493164.480   123458009.103 0  96201050.710 0        43.000  
        44.000                                                  
  20458410.110    20458406.322   107509308.409 0  83773488.927 0        50.000  
        49.000                                                  
 22  1 16 21 59 44.0000000  0  0
 22  1 16 21 59 45.0000000  0  6E07E12E18E19E24E26
  26893141.684                   141324544.667 0                        39.000  
                  26893141.326   108287641.474          44.000  
  23343314.425                   122670209.743 0                        43.000  
                  23343310.243    93994060.686          48.000  
  17998532.176                    94582927.29710                        51.000  
                  17998529.817    72472623.390          55.000  
  27576528.404                   144914968.394 0                        27.000  
                  27576524.491   111038993.468          36.000  
  25681723.905                   134958089.089 0                        45.000  
                  25681721.546   103409444.913          50.000  
  26541475.434                   139476905.714 0                        40.000  
                  26541472.575   106872146.363          46.000  
 22  1 16 21 59 46.0000000  0  9G08G10G15G16G18G21G23G26G27
  22561995.380    22561991.932   118564153.478 0  92387652.847 0        44.000  
        45.000                                                  
  20833569.301    20833564.851   109481370.854 0  85310162.479 0        52.000  
        48.000                                                  
  24071740.393    24071735.890   126497178.853 0  98569231.935 0        38.000  
        38.000                                                  
  21629039.414                   113662058.957 0                        47.000  
                                                                
  22788635.221    22788629.378   119754677.055 0  93315344.608 0        42.000  
        42.000                                                  
  24379494.823                   128115282.680 0                        39.000  
                                                                
  20990701.662    20990696.694   110307384.989 0  85953451.047 0        46.000  
        48.000                                                  
  23493825.169    23493822.453   123461466.893 0  96203745.091 0        43.000  
        44.000                                                  
  20458175.776    20458171.952   107508076.915 0  83772529.323 0        50.000  
        49.000                                                  
 22  1 16 21 59 45.0000000  0  0
 22  1 16 21 59 46.0000000  0  6E07E12E18E19E24E26
  26893191.092                   141324804.876 0                        39.000  
                  26893190.806   108287840.828          44.000  
  23343020.390                   122668665.261 0                        43.000  
                  23343016.423    93992877.240          48.000  
  17999010.172                    94585438.63910                        51.000  
                  17999007.760    72474547.649          55.000  
  27575956.274                   144911961.879 0                        27.000  
                  27575952.414   111036689.785          36.000  
  25681695.833                   134957941.143 0                        45.000  
                  25681693.421   103409331.545          50.000  
  26541877.505                   139479019.175 0                        40.000  
                  26541874.735   106873765.768          46.000  
 22  1 16 21 59 47.0000000  0  9G08G10G15G16G18G21G23G26G27
  22561456.862    22561453.520   118561323.692 0  92385447.826 0        44.000  
        45.000                                                  
  20833355.891    20833351.441   109480249.425 0  85309288.630 0        52.000  
        48.000                                                  
  24071971.332    24071966.829   126498392.206 0  98570177.399 0        38.000  
        38.000                                                  
  21629443.915                   113664184.775 0                        47.000  
                                                                
  22789159.266    22789153.369   119757431.138 0  93317490.642 0        42.000  
        42.000                                                  
  24378998.153                   128112672.714 0                        39.000  
                                                                
  20990938.677    20990933.745   110308630.724 0  85954421.755 0        46.000  
        48.000                                                  
  23494483.232    23494480.551   123464924.935 0  96206439.676 0        43.000  
        44.000                                                  
  20457941.549    20457937.707   107506845.979 0  83771570.147 0        50.000  
        49.000                                                  
 22  1 16 21 59 46.0000000  0  0
 22  1 16 21 59 47.0000000  0  6E07E12E18E19E24E26
  26893240.892                   141325065.643 0                        39.000  
                  26893240.553   108288040.650          44.000  
  23342726.552                   122667121.001 0                        43.000  
                  23342722.567    93991693.988          48.000  
  17999488.472                    94587951.52710                        51.000  
                  17999485.899    72476473.120          55.000  
  27575384.018                   144908955.401 0                        27.000  
                  27575380.355   111034386.157          36.000  
  25681667.886                   134957793.801 0                        45.000  
                  25681665.277   103409218.649          50.000  
  26542279.612                   139481132.767 0                        40.000  
                  26542276.842   106875385.276          46.000  
 22  1 16 21 59 48.0000000  0  9G08G10G15G16G18G21G23G26G27
  22560918.414    22560915.144   118558494.065 0  92383242.920 0        44.000  
        45.000                                                  
  20833142.588    20833138.175   109479128.527 0  85308415.210 0        52.000  
        48.000                                                  
  24072202.289    24072197.893   126499606.144 0  98571123.342 0        38.000  
        38.000                                                  
  21629848.452                   113666311.079 0                        47.000  
                                                                
  22789683.275    22789677.468   119760185.270 0  93319636.715 0        42.000  
        42.000                                                  
  24378501.573                   128110062.842 0                        38.000  
                                                                
  20991175.834    20991170.867   110309876.996 0  85955392.869 0        46.000  
        48.000                                                  
  23495141.312    23495138.596   123468383.065 0  96209134.309 0        43.000  
        44.000                                                  
  20457707.375    20457703.605   107505615.438 0  83770611.291 0        50.000  
        49.000                                                  
 22  1 16 21 59 47.0000000  0  0
 22  1 16 21 59 48.0000000  0  6E07E12E18E19E24E26
  26893290.658                   141325326.803 0                        39.000  
                  26893290.104   108288240.771          44.000  
  23342432.696                   122665576.839 0                        43.000  
                  23342428.782    93990510.794          48.000  
  17999966.969                    94590465.82710                        51.000  
                  17999964.450    72478399.662          55.000  
  27574811.620                   144905948.906 0                        27.000  
                  27574808.243   111032082.479          36.000  
  25681639.903                   134957646.885 0                        45.000  
                  25681637.365   103409106.077          50.000  
  26542681.951                   139483246.371 0                        40.000  
                  26542679.127   106877004.784          46.000  
 22  1 16 21 59 49.0000000  0  9G08G10G15G16G18G21G23G26G27
  22560380.003    22560376.751   118555664.479 0  92381038.046 0        44.000  
        45.000                                                  
  20832929.357    20832924.926   109478008.058 0  85307542.110 0        52.000  
        48.000                                                  
  24072433.335    24072429.047   126500820.554 0  98572069.628 0        38.000  
        38.000                                                  
  21630253.328                   113668437.770 0                        47.000  
                                                                
  22790207.409    22790201.584   119762939.394 0  93321782.773 0        42.000  
        42.000                                                  
  24378004.814                   128107452.934 0                        38.000  
                                                                
  20991413.099    20991408.042   110311123.694 0  85956364.326 0        46.000  
        48.000                                                  
  23495799.393    23495796.659   123471841.168 0  96211828.943 0        43.000  
        44.000                                                  
  20457473.309    20457469.503   107504385.200 0  83769652.660 0        50.000  
        49.000                                                  
 22  1 16 21 59 48.0000000  0  0
 22  1 16 21 59 49.0000000  0  6E07E12E18E19E24E26
  26893340.351                   141325588.324 0                        39.000  
                  26893339.833   108288441.146          44.000  
  23342139.000                   122664032.650 0                        43.000  
                  23342134.926    93989327.584          48.000  
  18000445.591                    94592981.44510                        51.000  
                  18000443.089    72480327.209          55.000  
  27574239.257                   144902942.159 0                        27.000  
                  27574236.291   111029778.601          36.000  
  25681612.027                   134957500.312 0                        45.000  
                  25681609.526   103408993.766          50.000  
  26543084.093                   139485359.854 0                        40.000  
                  26543081.395   106878624.206          46.000  
 22  1 16 21 59 50.0000000  0  9G08G10G15G16G18G21G23G26G27
  22559841.520    22559838.321   118552835.026 0  92378833.274 0        44.000  
        45.000                                                  
  20832716.108    20832711.784   109476888.096 0  85306669.410 0        52.000  
        48.000                                                  
  24072664.561    24072660.397   126502035.538 0  98573016.381 0        38.000  
        38.000                                                  
  21630658.151                   113670564.937 0                        47.000  
                                                                
  22790731.436    22790725.682   119765693.562 0  93323928.876 0        42.000  
        42.000                                                  
  24377508.216                   128104843.118 0                        38.000  
                                                                
  20991650.489    20991645.343   110312370.902 0  85957336.181 0        46.000  
        48.000                                                  
  23496457.473    23496454.632   123475299.337 0  96214523.631 0        43.000  
        43.000                                                  
  20457239.135    20457235.526   107503155.349 0  83768694.334 0        50.000  
        49.000                                                  
 22  1 16 21 59 49.0000000  0  0
 22  1 16 21 59 50.0000000  0  6E07E12E18E19E24E26
  26893390.063                   141325850.221 0                        39.000  
                  26893389.670   108288641.820          44.000  
  23341845.412                   122662488.526 0                        43.000  
                  23341840.999    93988144.426          48.000  
  18000924.695                    94595498.45910                        51.000  
                  18000922.033    72482255.825          55.000  
  27573667.145                   144899935.385 0                        27.000  
                  27573664.035   111027474.705          36.000  
  25681584.348                   134957354.168 0                        45.000  
                  25681581.686   103408881.781          50.000  
  26543486.128                   139487473.297 0                        40.000  
                  26543483.412   106880243.602          46.000  
 22  1 16 21 59 51.0000000  0  9G08G10G15G16G18G21G23G26G27
  22559303.269    22559299.892   118550005.786 0  92376628.688 0        44.000  
        45.000                                                  
  20832503.020    20832498.785   109475768.728 0  85305797.180 0        52.000  
        48.000                                                  
  24072895.839    24072891.676   126503251.163 0  98573963.626 0        38.000  
        38.000                                                  
  21631063.063                   113672692.644 0                        47.000  
                                                                
  22791255.535    22791249.852   119768447.844 0  93326075.081 0        42.000  
        42.000                                                  
  24377011.511                   128102233.431 0                        38.000  
                                                                
  20991887.968    20991882.769   110313618.715 0  85958308.502 0        46.000  
        48.000                                                  
  23497115.500    23497112.623   123478757.666 0  96217218.412 0        43.000  
        43.000                                                  
  20457005.069    20457001.603   107501925.939 0  83767736.359 0        50.000  
        49.000                                                  
 22  1 16 21 59 50.0000000  0  0
 22  1 16 21 59 51.0000000  0  6E07E12E18E19E24E26
  26893439.989                   141326112.628 0                        39.000  
                  26893439.614   108288842.880          44.000  
  23341551.413                   122660944.551 0                        43.000  
                  23341547.303    93986961.371          48.000  
  18001403.835                    94598016.94110                        51.000  
                  18001401.334    72484185.578          55.000  
  27573095.068                   144896928.556 0                        27.000  
                  27573091.834   111025170.764          36.000  
  25681556.490                   134957208.514 0                        45.000  
                  25681553.899   103408770.182          50.000  
  26543888.181                   139489586.810 0                        40.000  
                  26543885.715   106881863.040          46.000  
 22  1 16 21 59 52.0000000  0  9G08G10G15G16G18G21G23G26G27
  22558764.947    22558761.427   118547176.872 0  92374424.321 0        44.000  
        45.000                                                  
  20832290.057    20832285.840   109474650.045 0  85304925.479 0        52.000  
        48.000                                                  
  24073127.243    24073123.169   126504467.542 0  98574911.456 0        38.000  
        38.000                                                  
  21631468.082                   113674821.003 0                        47.000  
                                                                
  22791779.704    22791773.951   119771202.340 0  93328221.467 0        42.000  
        42.000                                                  
  24376514.949                   128099623.993 0                        38.000  
                                                                
  20992125.573    20992120.284   110314867.211 0  85959281.354 0        46.000  
        48.000                                                  
  23497773.687    23497770.721   123482216.234 0  96219913.420 0        43.000  
        43.000                                                  
  20456771.307    20456767.751   107500697.109 0  83766778.820 0        50.000  
        49.000                                                  
 22  1 16 21 59 51.0000000  0  0
 22  1 16 21 59 52.0000000  0  6E07E12E18E19E24E26
  26893490.005                   141326375.578 0                        39.000  
                  26893489.611   108289044.371          44.000  
  23341257.575                   122659400.817 0                        43.000  
                  23341253.447    93985778.503          48.000  
  18001883.565                    94600536.99210                        51.000  
                  18001880.902    72486116.526          55.000  
  27572522.955                   144893921.823 0                        27.000  
                  27572519.578   111022866.890          36.000  
  25681528.758                   134957063.461 0                        45.000  
                  25681526.292   103408659.040          50.000  
  26544290.574                   139491700.470 0                        40.000  
                  26544287.893   106883482.595          46.000  
 22  1 16 21 59 53.0000000  0  9G08G10G15G16G18G21G23G26G27
  22558226.696    22558223.230   118544348.334 0  92372220.274 0        44.000  
        45.000                                                  
  20832077.344    20832073.127   109473532.138 0  85304054.382 0        52.000  
        48.000                                                  
  24073358.790    24073354.805   126505684.742 0  98575859.905 0        38.000  
        38.000                                                  
  21631873.191                   113676950.077 0                        47.000  
                                                                
  22792303.892    22792298.174   119773957.191 0  93330368.063 0        42.000  
        42.000                                                  
  24376018.476                   128097014.870 0                        38.000  
                                                                
  20992363.302    20992358.013   110316116.473 0  85960254.805 0        46.000  
        48.000                                                  
  23498431.857    23498428.819   123485675.130 0  96222608.637 0        43.000  
        43.000                                                  
  20456537.669    20456534.060   107499468.907 0  83765821.787 0        50.000  
        49.000                                                  
 22  1 16 21 59 52.0000000  0  0
 22  1 16 21 59 53.0000000  0  6E07E12E18E19E24E26
  26893540.234                   141326639.217 0                        39.000  
                  26893539.841   108289246.362          44.000  
  23340963.915                   122657857.397 0                        43.000  
                  23340959.841    93984595.890          48.000  
  18002363.384                    94603058.69910                        51.000  
                  18002360.775    72488048.741          55.000  
  27571951.379                   144890915.158 0                        26.000  
                  27571947.394   111020563.133          36.000  
  25681501.525                   134956919.083 0                        45.000  
                  25681498.845   103408548.404          50.000  
  26544692.698                   139493814.349 0                        40.000  
                  26544690.089   106885102.321          46.000  
 22  1 16 21 59 54.0000000  0  9G08G10G15G16G18G21G23G26G27
  22557688.374    22557685.193   118541520.030 0  92370016.401 0        44.000  
        45.000                                                  
  20831864.846    20831860.486   109472414.811 0  85303183.743 0        52.000  
        48.000                                                  
  24073590.623    24073586.477   126506902.571 0  98576808.867 0        38.000  
        38.000                                                  
  21632278.424                   113679079.694 0                        47.000  
                                                                
  22792828.152    22792822.416   119776712.140 0  93332514.790 0        42.000  
        42.000                                                  
  24375521.949                   128094405.901 0                        38.000  
                                                                
  20992601.085    20992595.868   110317366.325 0  85961228.723 0        46.000  
        47.000                                                  
  23499089.991    23499087.061   123489134.158 0  96225304.004 0        43.000  
        43.000                                                  
  20456304.103    20456300.369   107498241.158 0  83764865.101 0        50.000  
        49.000                                                  
 22  1 16 21 59 53.0000000  0  0
 22  1 16 21 59 54.0000000  0  6E07E12E18E19E24E26
  26893590.518                   141326903.297 0                        39.000  
                  26893590.071   108289448.727          44.000  
  23340670.363                   122656314.112 0                        43.000  
                  23340666.128    93983413.372          48.000  
  18002843.471                    94605581.86110                        51.000  
                  18002840.898    72489982.077          55.000  
  27571379.284                   144887908.510 0                        27.000  
                  27571375.353   111018259.338          36.000  
  25681474.114                   134956775.193 0                        45.000  
                  25681471.505   103408438.157          50.000  
  26545094.983                   139495928.270 0                        40.000  
                  26545092.357   106886722.081          46.000  
 22  1 16 21 59 55.0000000  0  9G08G10G15G16G18G21G23G26G27
  22557150.105    22557146.925   118538691.653 0  92367812.478 0        44.000  
        45.000                                                  
  20831652.205    20831647.773   109471297.805 0  85302313.346 0        52.000  
        48.000                                                  
  24073822.491    24073818.292   126508120.736 0  98577758.103 0        38.000  
        38.000                                                  
  21632683.765                   113681209.579 0                        47.000  
                                                                
  22793352.375    22793346.603   119779466.938 0  93334661.393 0        42.000  
        42.000                                                  
  24375025.333                   128091796.789 0                        38.000  
                                                                
  20992839.011    20992833.812   110318616.491 0  85962202.874 0        46.000  
        47.000                                                  
  23499748.196    23499745.373   123492593.045 0  96227999.245 0        43.000  
        43.000                                                  
  20456070.573    20456066.803   107497013.599 0  83763908.559 0        50.000  
        49.000                                                  
 22  1 16 21 59 54.0000000  0  0
 22  1 16 21 59 55.0000000  0  6E07E12E18E19E24E26
  26893640.748                   141327167.597 0                        39.000  
                  26893640.354   108289651.240          44.000  
  23340376.704                   122654770.689 0                        43.000  
                  23340372.415    93982230.756          48.000  
  18003323.790                    94608106.22310                        51.000  
                  18003321.235    72491916.329          55.000  
  27570807.297                   144884901.599 0                        26.000  
                  27570803.044   111015955.303          36.000  
  25681446.757                   134956631.534 0                        45.000  
                  25681444.166   103408328.079          50.000  
  26545497.036                   139498041.962 0                        40.000  
                  26545494.713   106888341.666          46.000  
 22  1 16 21 59 56.0000000  0  9G08G10G15G16G18G21G23G26G27
  22556611.890    22556608.799   118535863.670 0  92365608.859 0        44.000  
        45.000                                                  
  20831439.813    20831435.364   109470181.564 0  85301443.548 0        52.000  
        48.000                                                  
  24074054.467    24074050.107   126509339.765 0  98578707.989 0        38.000  
        38.000                                                  
  21633089.249                   113683340.197 0                        47.000  
                                                                
  22793876.688    22793870.881   119782222.042 0  93336808.232 0        42.000  
        42.000                                                  
  24374528.914                   128089187.986 0                        38.000  
                                                                
  20993077.116    20993071.827   110319867.429 0  85963177.637 0        46.000  
        47.000                                                  
  23500406.348    23500403.704   123496052.275 0  96230694.752 0        43.000  
        43.000                                                  
  20455837.132    20455833.451   107495786.671 0  83762952.509 0        50.000  
        49.000                                                  
 22  1 16 21 59 55.0000000  0  0
 22  1 16 21 59 56.0000000  0  6E07E12E18E19E24E26
  26893690.924                   141327432.557 0                        39.000  
                  26893690.834   108289854.260          44.000  
  23340082.901                   122653227.582 0                        43.000  
                  23340078.720    93981048.383          48.000  
  18003804.556                    94610632.23410                        51.000  
                  18003801.947    72493851.839          55.000  
  27570234.898                   144881894.828 0                        26.000  
                  27570230.878   111013651.400          36.000  
  25681419.774                   134956488.553 0                        45.000  
                  25681417.005   103408218.519          50.000  
  26545899.232                   139500155.883 0                        40.000  
                  26545896.892   106889961.425          46.000  
 22  1 16 21 59 57.0000000  0  9G08G10G15G16G18G21G23G26G27
  22556073.675    22556070.656   118533035.654 0  92363405.197 0        44.000  
        45.000                                                  
  20831227.458    20831223.026   109469065.643 0  85300573.999 0        51.000  
        48.000                                                  
  24074286.568    24074282.208   126510559.157 0  98579658.181 0        38.000  
        38.000                                                  
  21633494.822                   113685471.090 0                        47.000  
                                                                
  22794400.983    22794395.193   119784977.005 0  93338954.951 0        42.000  
        42.000                                                  
  24374032.316                   128086579.064 0                        38.000  
                                                                
  20993315.185    20993309.932   110321118.686 0  85964152.632 0        46.000  
        47.000                                                  
  23501064.590    23501061.945   123499511.377 0  96233390.151 0        43.000  
        43.000                                                  
  20455603.584    20455599.939   107494559.927 0  83761996.605 0        50.000  
        49.000                                                  
 22  1 16 21 59 56.0000000  0  0
 22  1 16 21 59 57.0000000  0  6E07E12E18E19E24E26
  26893741.618                   141327697.714 0                        39.000  
                  26893741.314   108290057.441          44.000  
  23339789.385                   122651684.365 0                        43.000  
                  23339785.168    93979865.909          48.000  
  18004285.358                    94613159.44310                        51.000  
                  18004282.892    72495788.276          55.000  
  27569662.822                   144878887.722 0                        26.000  
                  27569658.658   111011347.275          36.000  
  25681392.417                   134956345.795 0                        45.000  
                  25681389.826   103408109.138          50.000  
  26546301.482                   139502269.602 0                        40.000  
                  26546299.123   106891581.012          46.000  
 22  1 16 21 59 58.0000000  0  9G08G10G15G16G18G21G23G26G27
  22555535.621    22555532.601   118530208.104 0  92361201.918 0        45.000  
        45.000                                                  
  20831015.263    20831010.832   109467950.565 0  85299705.107 0        51.000  
        48.000                                                  
  24074518.847    24074514.416   126511779.451 0  98580609.043 0        38.000  
        38.000                                                  
  21633900.431                   113687602.776 0                        47.000  
                                                                
  22794925.278    22794919.542   119787732.364 0  93341101.971 0        42.000  
        42.000                                                  
  24373535.879                   128083970.560 0                        38.000  
                                                                
  20993553.344    20993548.108   110322370.783 0  85965128.305 0        46.000  
        47.000                                                  
  23501722.974    23501720.186   123502970.880 0  96236085.863 0        43.000  
        43.000                                                  
  20455370.268    20455366.641   107493333.909 0  83761041.269 0        50.000  
        49.000                                                  
 22  1 16 21 59 57.0000000  0  0
 22  1 16 21 59 58.0000000  0  6E07E12E18E19E24E26
  26893792.241                   141327963.625 0                        39.000  
                  26893791.794   108290261.184          44.000  
  23339495.814                   122650141.540 0                        43.000  
                  23339491.579    93978683.740          48.000  
  18004766.589                    94615688.37110                        51.000  
                  18004764.141    72497726.027          55.000  
  27569090.673                   144875880.831 0                        26.000  
                  27569086.260   111009043.318          36.000  
  25681365.345                   134956203.797 0                        45.000  
                  25681362.790   103408000.330          50.000  
  26546703.642                   139504383.590 0                        40.000  
                  26546701.426   106893200.837          46.000  
 22  1 16 21 59 59.0000000  0  9G08G10G15G16G18G21G23G26G27
  22554997.692    22554994.601   118527380.942 0  92358998.928 0        45.000  
        45.000                                                  
  20830803.194    20830798.744   109466836.231 0  85298836.793 0        51.000  
        48.000                                                  
  24074751.216    24074746.749   126513000.513 0  98581560.517 0        38.000  
        37.000                                                  
  21634306.237                   113689735.164 0                        47.000  
                                                                
  22795449.644    22795443.908   119790487.987 0  93343249.214 0        42.000  
        42.000                                                  
  24373039.585                   128081362.331 0                        38.000  
                                                                
  20993791.770    20993786.552   110323623.631 0  85966104.544 0        46.000  
        47.000                                                  
  23502381.340    23502378.660   123506430.674 0  96238781.809 0        43.000  
        43.000                                                  
  20455137.184    20455133.450   107492108.492 0  83760086.398 0        50.000  
        49.000                                                  
 22  1 16 21 59 58.0000000  0  0
 22  1 16 21 59 59.0000000  0  6E07E12E18E19E24E26
  26893842.882                   141328230.158 0                        39.000  
                  26893842.560   108290465.408          44.000  
  23339202.316                   122648599.001 0                        44.000  
                  23339198.081    93977501.798          48.000  
  18005248.087                    94618218.93110                        51.000  
                  18005245.657    72499665.025          55.000  
  27568518.900                   144872874.113 0                        26.000  
                  27568514.129   111006739.460          36.000  
  25681338.417                   134956062.433 0                        45.000  
                  25681335.951   103407892.023          50.000  
  26547105.945                   139506497.822 0                        40.000  
                  26547103.730   106894820.822          46.000  
 22  1 16 22  0  0.0000000  0  9G08G10G15G16G18G21G23G26G27
  22554459.674    22554456.690   118524553.654 0  92356795.860 0        45.000  
        45.000                                                  
  20830591.142    20830586.871   109465722.162 0  85297968.689 0        51.000  
        48.000                                                  
  24074983.638    24074979.225   126514221.909 0  98582512.255 0        38.000  
        38.000                                                  
  21634712.096                   113691867.774 0                        47.000  
                                                                
  22795973.886    22795968.239   119793243.422 0  93345396.302 0        42.000  
        42.000                                                  
  24372543.183                   128078753.923 0                        38.000  
                                                                
  20994030.303    20994025.068   110324876.738 0  85967080.992 0        46.000  
        47.000                                                  
  23503039.742    23503036.972   123509890.280 0  96241477.606 0        43.000  
        43.000                                                  
  20454903.922    20454900.295   107490883.213 0  83759131.631 0        50.000  
        49.000                                                  
 22  1 16 21 59 59.0000000  0  0
 22  1 16 22  0  0.0000000  0  6E07E12E18E19E24E26
  26893893.451                   141328496.847 0                        39.000  
                  26893893.326   108290669.754          44.000  
  23338908.674                   122647056.270 0                        44.000  
                  23338904.546    93976319.713          48.000  
  18005729.890                    94620750.62610                        51.000  
                  18005727.460    72501604.895          55.000  
  27567946.949                   144869866.999 0                        26.000  
                  27567941.802   111004435.323          36.000  
  25681311.792                   134955921.254 0                        45.000  
                  25681309.147   103407783.836          50.000  
  26547508.284                   139508611.749 0                        40.000  
                  26547506.104   106896440.591          46.000  
 22  1 16 22  0  1.0000000  0  9G08G10G15G16G18G21G23G26G27
  22553921.709    22553918.725   118521726.756 0  92354593.085 0        45.000  
        45.000                                                  
  20830379.323    20830375.088   109464608.856 0  85297101.180 0        51.000  
        48.000                                                  
  24075216.150    24075211.933   126515444.137 0  98583464.612 0        38.000  
        38.000                                                  
  21635118.134                   113694001.098 0                        47.000  
                                                                
  22796498.306    22796492.659   119795999.145 0  93347543.621 0        42.000  
        42.000                                                  
  24372046.853                   128076145.844 0                        39.000  
                                                                
  20994268.873    20994263.566   110326130.610 0  85968058.033 0        46.000  
        47.000                                                  
  23503698.162    23503695.356   123513350.206 0  96244173.645 0        43.000  
        43.000                                                  
  20454670.767    20454667.301   107489658.559 0  83758177.353 0        50.000  
        49.000                                                  
 22  1 16 22  0  0.0000000  0  0
 22  1 16 22  0  1.0000000  0  6E07E12E18E19E24E26
  26893944.378                   141328764.189 0                        39.000  
                  26893944.217   108290874.599          44.000  
  23338615.247                   122645513.868 0                        44.000  
                  23338610.940    93975137.866          48.000  
  18006211.889                    94623283.96510                        51.000  
                  18006209.548    72503546.025          55.000  
  27567374.693                   144866860.064 0                        26.000  
                  27567369.797   111002131.310          36.000  
  25681285.096                   134955780.723 0                        45.000  
                  25681282.397   103407676.161          50.000  
  26547910.445                   139510725.907 0                        40.000  
                  26547908.479   106898060.512          46.000  
 22  1 16 22  0  2.0000000  0  9G08G10G15G16G18G21G23G26G27
  22553383.762    22553380.778   118518899.993 0  92352390.403 0        45.000  
        45.000                                                  
  20830167.628    20830163.268   109463496.048 0  85296234.058 0        51.000  
        48.000                                                  
  24075448.822    24075444.588   126516666.880 0  98584417.434 0        38.000  
        38.000                                                  
  21635524.207                   113696134.882 0                        47.000  
                                                                
  22797022.655    22797017.097   119798754.900 0  93349690.979 0        42.000  
        42.000                                                  
  24371550.487                   128073537.806 0                        38.000  
                                                                
  20994507.603    20994502.296   110327384.981 0  85969035.468 0        46.000  
        47.000                                                  
  23504356.528    23504353.812   123516810.194 0  96246869.741 0        43.000  
        43.000                                                  
  20454437.898    20454434.342   107488434.284 0  83757223.377 0        50.000  
        49.000                                                  
 22  1 16 22  0  1.0000000  0  0
 22  1 16 22  0  2.0000000  0  6E07E12E18E19E24E26
  26893995.430                   141329031.914 0                        39.000  
                  26893995.090   108291079.736          44.000  
  23338321.873                   122643971.513 0                        44.000  
                  23338317.388    93973956.061          48.000  
  18006694.174                    94625818.68610                        51.000  
                  18006691.887    72505488.211          55.000  
  27566802.759                   144863853.050 0                        26.000  
                  27566797.613   110999827.205          36.000  
  25681258.453                   134955640.632 0                        45.000  
                  25681255.558   103407568.819          50.000  
  26548312.801                   139512840.010 0                        40.000  
                  26548310.675   106899680.420          46.000  
 22  1 16 22  0  3.0000000  0  9G08G10G15G16G18G21G23G26G27
  22552845.851    22552842.956   118516073.694 0  92350188.094 0        45.000  
        45.000                                                  
  20829956.005    20829951.735   109462384.066 0  85295367.571 0        51.000  
        48.000                                                  
  24075681.745    24075677.403   126517890.545 0  98585370.937 0        38.000  
        38.000                                                  
  21635930.299                   113698269.455 0                        47.000  
                                                                
  22797547.182    22797541.499   119801511.040 0  93351838.622 0        42.000  
        42.000                                                  
  24371054.175                   128070930.150 0                        38.000  
                                                                
  20994746.458    20994741.115   110328640.194 0  85970013.549 0        47.000  
        47.000                                                  
  23505015.145    23505012.357   123520270.557 0  96249566.122 0        43.000  
        43.000                                                  
  20454204.993    20454201.527   107487210.704 0  83756269.933 0        50.000  
        49.000                                                  
 22  1 16 22  0  2.0000000  0  0
 22  1 16 22  0  3.0000000  0  6E07E12E18E19E24E26
  26894046.660                   141329300.354 0                        39.000  
                  26894046.231   108291285.429          44.000  
  23338028.571                   122642429.549 0                        44.000  
                  23338023.961    93972774.552          48.000  
  18007177.031                    94628355.10810                        51.000  
                  18007174.565    72507431.709          55.000  
  27566230.522                   144860846.205 0                        27.000  
                  27566225.304   110997523.251          36.000  
  25681231.989                   134955501.272 0                        45.000  
                  25681229.094   103407462.030          50.000  
  26548715.140                   139514954.409 0                        40.000  
                  26548713.032   106901300.551          46.000  
 22  1 16 22  0  4.0000000  0  9G08G10G15G16G18G21G23G26G27
  22552307.957    22552305.081   118513247.157 0  92347985.591 0        45.000  
        45.000                                                  
  20829744.365    20829740.130   109461272.227 0  85294501.205 0        51.000  
        48.000                                                  
  24075914.632    24075910.290   126519114.366 0  98586324.563 0        38.000  
        38.000                                                  
  21636336.515                   113700404.111 0                        47.000  
                                                                
  22798071.584    22798065.955   119804266.851 0  93353986.003 0        42.000  
        42.000                                                  
  24370557.899                   128068322.200 0                        38.000  
                                                                
  20994985.385    20994980.042   110329895.528 0  85970991.733 0        47.000  
        47.000                                                  
  23505673.600    23505670.777   123523730.618 0  96252262.277 0        43.000  
        43.000                                                  
  20453972.088    20453968.675   107485987.130 0  83755316.497 0        50.000  
        49.000                                                  
 22  1 16 22  0  3.0000000  0  0
 22  1 16 22  0  4.0000000  0  6E07E12E18E19E24E26
  26894097.962                   141329568.827 0                        39.000  
                  26894097.248   108291491.144          44.000  
  23337734.983                   122640887.253 0                        44.000  
                  23337730.516    93971592.794          48.000  
  18007659.834                    94630892.55210                        51.000  
                  18007657.350    72509375.977          55.000  
  27565658.177                   144857838.880 0                        27.000  
                  27565653.209   110995218.968          36.000  
  25681205.453                   134955361.942 0                        46.000  
                  25681202.612   103407355.279          51.000  
  26549117.443                   139517068.409 0                        40.000  
                  26549115.353   106902920.361          46.000  
 22  1 16 22  0  5.0000000  0  9G08G10G15G16G18G21G23G26G27
  22551770.118    22551767.384   118510421.004 0  92345783.408 0        45.000  
        45.000                                                  
  20829532.867    20829528.703   109460161.156 0  85293635.443 0        51.000  
        48.000                                                  
  24076147.716    24076143.391   126520339.055 0  98587278.852 0        38.000  
        38.000                                                  
  21636742.875                   113702539.509 0                        47.000  
                                                                
  22798596.022    22798590.483   119807022.979 0  93356133.626 0        42.000  
        42.000                                                  
  24370061.765                   128065714.576 0                        38.000  
                                                                
  20995224.365    20995219.058   110331151.642 0  85971970.530 0        47.000  
        47.000                                                  
  23506332.038    23506329.286   123527190.996 0  96254958.678 0        43.000  
        43.000                                                  
  20453739.273    20453735.949   107484764.196 0  83754363.568 0        50.000  
        49.000                                                  
 22  1 16 22  0  4.0000000  0  0
 22  1 16 22  0  5.0000000  0  6E07E12E18E19E24E26
  26894149.139                   141329837.957 0                        39.000  
                  26894148.478   108291697.367          44.000  
  23337441.609                   122639345.297 0                        44.000  
                  23337437.089    93970411.296          48.000  
  18008143.048                    94633431.64810                        51.000  
                  18008140.618    72511321.520          55.000  
  27565086.208                   144854831.719 0                        27.000  
                  27565080.936   110992914.764          36.000  
  25681179.061                   134955223.313 0                        46.000  
                  25681176.273   103407249.052          50.000  
  26549519.800                   139519182.644 0                        40.000  
                  26549517.745   106904540.365          46.000  
 22  1 16 22  0  6.0000000  0  9G08G10G15G16G18G21G23G26G27
  22551232.296    22551229.633   118507595.083 0  92343581.373 0        45.000  
        45.000                                                  
  20829321.530    20829317.402   109459050.676 0  85292770.131 0        51.000  
        48.000                                                  
  24076380.889    24076376.618   126521564.351 0  98588233.634 0        38.000  
        38.000                                                  
  21637149.341                   113704675.438 0                        47.000  
                                                                
  22799120.442    22799114.885   119809779.218 0  93358281.354 0        42.000  
        42.000                                                  
  24369565.614                   128063107.077 0                        38.000  
                                                                
  20995463.488    20995458.253   110332408.340 0  85972949.771 0        47.000  
        47.000                                                  
  23506990.601    23506987.813   123530651.517 0  96257655.191 0        43.000  
        43.000                                                  
  20453506.690    20453503.241   107483541.725 0  83753410.986 0        50.000  
        49.000                                                  
 22  1 16 22  0  5.0000000  0  0
 22  1 16 22  0  6.0000000  0  6E07E12E18E19E24E26
  26894200.388                   141330107.577 0                        39.000  
                  26894199.798   108291903.948          44.000  
  23337148.146                   122637803.473 0                        44.000  
                  23337143.661    93969229.901          48.000  
  18008626.405                    94635972.20310                        51.000  
                  18008624.082    72513268.175          55.000  
  27564513.934                   144851824.511 0                        27.000  
                  27564508.556   110990610.580          36.000  
  25681152.811                   134955085.165 0                        46.000  
                  25681150.041   103407143.203          50.000  
  26549922.157                   139521296.941 0                        40.000  
                  26549919.995   106906160.400          46.000  
 22  1 16 22  0  7.0000000  0  9G08G10G15G16G18G21G23G26G27
  22550694.528    22550691.776   118504769.415 0  92341379.563 0        45.000  
        45.000                                                  
  20829110.282    20829106.190   109457940.809 0  85291905.304 0        51.000  
        48.000                                                  
  24076614.169    24076609.862   126522790.308 0  98589188.938 0        38.000  
        38.000                                                  
  21637555.951                   113706811.943 0                        47.000  
                                                                
  22799645.023    22799639.448   119812535.622 0  93360429.192 0        42.000  
        42.000                                                  
  24369069.445                   128060499.735 0                        38.000  
                                                                
  20995702.719    20995697.483   110333665.660 0  85973929.501 0        47.000  
        47.000                                                  
  23507649.199    23507646.323   123534112.218 0  96260351.825 0        43.000  
        43.000                                                  
  20453274.232    20453270.694   107482319.724 0  83752458.782 0        50.000  
        49.000                                                  
 22  1 16 22  0  6.0000000  0  0
 22  1 16 22  0  7.0000000  0  6E07E12E18E19E24E26
  26894251.761                   141330377.693 0                        39.000  
                  26894251.118   108292110.917          44.000  
  23336854.773                   122636261.811 0                        44.000  
                  23336850.341    93968048.629          48.000  
  18009110.155                    94638514.24810                        51.000  
                  18009107.832    72515215.975          55.000  
  27563942.108                   144848817.288 0                        27.000  
                  27563936.211   110988306.364          36.000  
  25681126.562                   134954947.539 0                        46.000  
                  25681123.756   103407037.747          50.000  
  26550324.693                   139523411.278 0                        40.000  
                  26550322.298   106907780.479          46.000  
 22  1 16 22  0  8.0000000  0  9G08G10G15G16G18G21G23G26G27
  22550156.920    22550154.115   118501943.972 0  92339177.919 0        45.000  
        45.000                                                  
  20828899.267    20828895.122   109456831.570 0  85291040.955 0        51.000  
        48.000                                                  
  24076847.627    24076843.303   126524016.957 0  98590144.764 0        38.000  
        38.000                                                  
  21637962.632                   113708949.025 0                        47.000  
                                                                
  22800169.658    22800163.975   119815292.166 0  93362577.148 0        42.000  
        42.000                                                  
  24368573.258                   128057892.604 0                        38.000  
                                                                
  20995942.146    20995936.892   110334923.591 0  85974909.714 0        47.000  
        47.000                                                  
  23508307.798    23508304.921   123537573.071 0  96263048.607 0        43.000  
        43.000                                                  
  20453041.756    20453038.271   107481098.227 0  83751506.964 0        50.000  
        49.000                                                  
 22  1 16 22  0  7.0000000  0  0
 22  1 16 22  0  8.0000000  0  6E07E12E18E19E24E26
  26894303.402                   141330648.311 0                        39.000  
                  26894302.688   108292318.285          44.000  
  23336561.542                   122634720.324 0                        44.000  
                  23336557.021    93966867.493          48.000  
  18009594.084                    94641057.79610                        51.000  
                  18009591.886    72517164.930          55.000  
  27563369.763                   144845810.127 0                        27.000  
                  27563364.063   110986002.135          36.000  
  25681100.491                   134954810.453 0                        46.000  
                  25681097.649   103406932.703          50.000  
  26550727.174                   139525525.710 0                        40.000  
                  26550724.566   106909400.632          46.000  
 22  1 16 22  0  9.0000000  0  9G08G10G15G16G18G21G23G26G27
  22549619.474    22549616.436   118499118.979 0  92336976.614 0        45.000  
        45.000                                                  
  20828688.270    20828684.196   109455723.149 0  85290177.251 0        51.000  
        48.000                                                  
  24077081.158    24077076.958   126525244.458 0  98591101.274 0        38.000  
        38.000                                                  
  21638369.456                   113711086.885 0                        47.000  
                                                                
  22800694.292    22800688.645   119818049.092 0  93364725.400 0        42.000  
        42.000                                                  
  24368077.089                   128055285.833 0                        38.000  
                                                                
  20996181.770    20996176.445   110336182.355 0  85975890.569 0        47.000  
        47.000                                                  
  23508966.450    23508963.609   123541034.318 0  96265745.689 0        43.000  
        43.000                                                  
  20452809.458    20452805.938   107479877.421 0  83750555.686 0        50.000  
        49.000                                                  
 22  1 16 22  0  8.0000000  0  0
 22  1 16 22  0  9.0000000  0  6E07E12E18E19E24E26
  26894355.187                   141330919.659 0                        39.000  
                  26894354.311   108292526.190          44.000  
  23336268.276                   122633179.225 0                        44.000  
                  23336263.666    93965686.641          48.000  
  18010078.620                    94643603.05110                        51.000  
                  18010076.208    72519115.188          55.000  
  27562797.811                   144842803.104 0                        27.000  
                  27562791.789   110983698.104          36.000  
  25681074.509                   134954674.095 0                        46.000  
                  25681071.757   103406828.223          51.000  
  26551129.603                   139527640.432 0                        40.000  
                  26551127.101   106911020.994          46.000  
 22  1 16 22  0 10.0000000  0  9G08G10G15G16G18G21G23G26G27
  22549082.027    22549078.775   118496294.024 0  92334775.362 0        45.000  
        45.000                                                  
  20828477.397    20828473.466   109454615.157 0  85289313.885 0        51.000  
        48.000                                                  
  24077314.938    24077310.560   126526472.457 0  98592058.131 0        38.000  
        38.000                                                  
  21638776.227                   113713225.124 0                        47.000  
                                                                
  22801218.909    22801213.262   119820805.974 0  93366873.613 0        42.000  
        42.000                                                  
  24367581.063                   128052679.025 0                        38.000  
                                                                
  20996421.483    20996416.032   110337441.535 0  85976871.748 0        47.000  
        48.000                                                  
  23509625.085    23509622.225   123544495.541 0  96268442.737 0        43.000  
        43.000                                                  
  20452577.232    20452573.766   107478656.910 0  83749604.639 0        50.000  
        49.000                                                  
 22  1 16 22  0  9.0000000  0  0
 22  1 16 22  0 10.0000000  0  6E07E12E18E19E24E26
  26894406.793                   141331191.304 0                        39.000  
                  26894405.953   108292734.347          44.000  
  23335975.027                   122631638.085 0                        44.000  
                  23335970.506    93964505.775          48.000  
  18010563.050                    94646149.59810                        51.000  
                  18010560.798    72521066.438          55.000  
  27562225.556                   144839795.975 0                        27.000  
                  27562219.498   110981393.914          36.000  
  25681048.670                   134954538.072 0                        46.000  
                  25681045.901   103406723.993          51.000  
  26551531.906                   139529755.034 0                        40.000  
                  26551529.529   106912641.276          46.000  
 22  1 16 22  0 11.0000000  0  9G08G10G15G16G18G21G23G26G27
  22548544.437    22548541.293   118493469.153 0  92332574.162 0        45.000  
        45.000                                                  
  20828266.632    20828262.647   109453507.606 0  85288450.855 0        51.000  
        48.000                                                  
  24077548.736    24077544.341   126527700.937 0  98593015.412 0        38.000  
        38.000                                                  
  21639183.140                   113715363.756 0                        47.000  
                                                                
  22801743.418    22801737.825   119823562.824 0  93369021.826 0        42.000  
        42.000                                                  
  24367085.001                   128050072.231 0                        38.000  
                                                                
  20996661.160    20996655.674   110338701.174 0  85977853.285 0        47.000  
        48.000                                                  
  23510283.701    23510280.824   123547956.764 0  96271139.794 0        43.000  
        43.000                                                  
  20452345.060    20452341.594   107477436.719 0  83748653.841 0        50.000  
        49.000                                                  
 22  1 16 22  0 10.0000000  0  0
 22  1 16 22  0 11.0000000  0  6E07E12E18E19E24E26
  26894458.559                   141331463.310 0                        39.000  
                  26894457.684   108292942.749          44.000  
  23335681.779                   122630096.951 0                        44.000  
                  23335677.222    93963324.901          48.000  
  18011048.069                    94648697.47710                        51.000  
                  18011045.585    72523018.707          55.000  
  27561653.229                   144836788.588 0                        27.000  
                  27561647.332   110979089.597          36.000  
  25681022.885                   134954402.395 0                        46.000  
                  25681020.009   103406620.032          51.000  
  26551934.138                   139531869.530 0                        40.000  
                  26551931.940   106914261.470          46.000  
 22  1 16 22  0 12.0000000  0  9G08G10G15G16G18G21G23G26G27
  22548007.027    22548003.721   118490644.424 0  92330373.076 0        45.000  
        45.000                                                  
  20828055.956    20828052.007   109452400.567 0  85287588.237 0        51.000  
        48.000                                                  
  24077782.713    24077778.282   126528930.011 0  98593973.099 0        38.000  
        38.000                                                  
  21639590.304                   113717502.866 0                        47.000  
                                                                
  22802267.981    22802262.495   119826319.738 0  93371170.055 0        42.000  
        42.000                                                  
  24366588.957                   128047465.481 0                        38.000  
                                                                
  20996901.016    20996895.494   110339961.314 0  85978835.208 0        47.000  
        48.000                                                  
  23510942.389    23510939.423   123551418.040 0  96273836.890 0        43.000  
        43.000                                                  
  20452112.942    20452109.439   107476216.899 0  83747703.334 0        50.000  
        49.000                                                  
 22  1 16 22  0 11.0000000  0  0
 22  1 16 22  0 12.0000000  0  6E07E12E18E19E24E26
  26894510.540                   141331735.691 0                        39.000  
                  26894509.611   108293151.453          44.000  
  23335388.441                   122628555.876 0                        44.000  
                  23335383.974    93962144.084          48.000  
  18011533.266                    94651246.73510                        51.000  
                  18011530.729    72524972.041          55.000  
  27561080.741                   144833781.168 0                        27.000  
                  27561075.130   110976785.195          36.000  
  25680997.351                   134954267.137 0                        46.000  
                  25680994.313   103406516.396          51.000  
  26552336.637                   139533983.999 0                        40.000  
                  26552334.279   106915881.648          46.000  
 22  1 16 22  0 13.0000000  0  9G08G10G15G16G18G21G23G26G27
  22547469.562    22547466.310   118487820.067 0  92328172.286 0        45.000  
        45.000                                                  
  20827845.406    20827841.457   109451294.283 0  85286726.191 0        51.000  
        48.000                                                  
  24078016.780    24078012.312   126530159.853 0  98594931.424 0        38.000  
        38.000                                                  
  21639997.431                   113719642.675 0                        47.000  
                                                                
  22802792.598    22802787.183   119829076.934 0  93373318.526 0        42.000  
        42.000                                                  
  24366093.038                   128044859.066 0                        38.000  
                                                                
  20997140.907    20997135.386   110341222.205 0  85979817.727 0        47.000  
        48.000                                                  
  23511601.184    23511598.021   123554879.635 0  96276534.239 0        43.000  
        43.000                                                  
  20451880.966    20451877.392   107474997.706 0  83746753.307 0        50.000  
        49.000                                                  
 22  1 16 22  0 12.0000000  0  0
 22  1 16 22  0 13.0000000  0  6E07E12E18E19E24E26
  26894562.557                   141332008.718 0                        39.000  
                  26894561.520   108293360.662          44.000  
  23335095.264                   122627015.103 0                        44.000  
                  23335090.707    93960963.487          48.000  
  18012018.428                    94653797.63010                        51.000  
                  18012016.159    72526926.617          55.000  
  27560508.861                   144830773.919 0                        27.000  
                  27560502.785   110974480.870          36.000  
  25680971.726                   134954132.546 0                        46.000  
                  25680968.742   103406413.263          51.000  
  26552739.101                   139536098.692 0                        40.000  
                  26552736.778   106917501.990          46.000  
 22  1 16 22  0 14.0000000  0  9G08G10G15G16G18G21G23G26G27
  22546932.116    22546928.881   118484995.983 0  92325971.685 0        45.000  
        45.000                                                  
  20827634.927    20827631.085   109450188.639 0  85285864.645 0        51.000  
        48.000                                                  
  24078250.935    24078246.397   126531390.387 0  98595890.289 0        38.000  
        38.000                                                  
  21640404.702                   113721783.073 0                        47.000  
                                                                
  22803317.340    22803311.907   119831834.298 0  93375467.137 0        42.000  
        42.000                                                  
  24365597.154                   128042252.842 0                        38.000  
                                                                
  20997380.978    20997375.420   110342483.736 0  85980800.736 0        47.000  
        48.000                                                  
  23512259.854    23512256.834   123558341.410 0  96279231.735 0        43.000  
        43.000                                                  
  20451648.919    20451645.434   107473779.018 0  83745803.679 0        50.000  
        49.000                                                  
 22  1 16 22  0 13.0000000  0  0
 22  1 16 22  0 14.0000000  0  6E07E12E18E19E24E26
  26894614.574                   141332282.264 0                        39.000  
                  26894613.484   108293570.271          44.000  
  23334802.301                   122625474.520 0                        44.000  
                  23334797.637    93959783.050          48.000  
  18012504.108                    94656350.03410                        51.000  
                  18012501.874    72528882.354          55.000  
  27559936.266                   144827766.620 0                        27.000  
                  27559930.566   110972176.596          35.000  
  25680946.317                   134953998.500 0                        46.000  
                  25680943.243   103406310.550          51.000  
  26553141.512                   139538213.461 0                        40.000  
                  26553139.064   106919122.402          46.000  
 22  1 16 22  0 15.0000000  0  9G08G10G15G16G18G21G23G26G27
  22546394.615    22546391.542   118482171.911 0  92323771.114 0        45.000  
        45.000                                                  
  20827424.733    20827420.802   109449083.394 0  85285003.415 0        51.000  
        48.000                                                  
  24078485.306    24078480.606   126532621.365 0  98596849.493 0        38.000  
        38.000                                                  
  21640812.187                   113723923.824 0                        47.000  
                                                                
  22803842.028    22803836.613   119834591.608 0  93377615.684 0        42.000  
        42.000                                                  
  24365101.217                   128039646.541 0                        38.000  
                                                                
  20997621.155    20997615.705   110343745.658 0  85981784.045 0        47.000  
        48.000                                                  
  23512918.685    23512915.665   123561803.138 0  96281929.178 0        43.000  
        44.000                                                  
  20451417.140    20451413.637   107472560.599 0  83744854.263 0        50.000  
        49.000                                                  
 22  1 16 22  0 14.0000000  0  0
 22  1 16 22  0 15.0000000  0  6E07E12E18E19E24E26
  26894666.715                   141332556.116 0                        39.000  
                  26894665.661   108293780.081          44.000  
  23334509.213                   122623933.879 0                        44.000  
                  23334504.424    93958602.552          48.000  
  18012990.092                    94658903.70810                        51.000  
                  18012987.787    72530839.068          55.000  
  27559364.135                   144824759.113 0                        27.000  
                  27559358.131   110969872.171          36.000  
  25680920.961                   134953864.754 0                        46.000  
                  25680917.762   103406208.072          51.000  
  26553543.940                   139540328.092 0                        40.000  
                  26553541.492   106920742.694          46.000  
 22  1 16 22  0 16.0000000  0  9G08G10G15G16G18G21G23G26G27
  22545857.312    22545854.220   118479348.009 0  92321570.675 0        45.000  
        45.000                                                  
  20827214.433    20827210.573   109447978.682 0  85284142.601 0        51.000  
        48.000                                                  
  24078719.676    24078715.101   126533852.944 0  98597809.149 0        38.000  
        38.000                                                  
  21641219.780                   113726065.079 0                        47.000  
                                                                
  22804366.716    22804361.266   119837349.007 0  93379764.297 0        42.000  
        42.000                                                  
  24364605.263                   128037040.369 0                        38.000  
                                                                
  20997861.458    20997855.847   110345008.131 0  85982767.795 0        47.000  
        48.000                                                  
  23513577.373    23513574.478   123565264.953 0  96284626.695 0        43.000  
        43.000                                                  
  20451185.396    20451181.805   107471342.589 0  83743905.159 0        50.000  
        49.000                                                  
 22  1 16 22  0 15.0000000  0  0
 22  1 16 22  0 16.0000000  0  6E07E12E18E19E24E26
  26894719.179                   141332830.381 0                        39.000  
                  26894717.892   108293990.243          44.000  
  23334216.001                   122622393.346 0                        44.000  
                  23334211.230    93957422.141          48.000  
  18013476.344                    94661458.80910                        51.000  
                  18013474.003    72532796.870          55.000  
  27558792.059                   144821751.535 0                        27.000  
                  27558785.751   110967567.652          35.000  
  25680895.604                   134953731.465 0                        46.000  
                  25680892.406   103406105.942          51.000  
  26553946.511                   139542442.746 0                        40.000  
                  26553943.867   106922363.019          46.000  
 22  1 16 22  0 17.0000000  0  9G08G10G15G16G18G21G23G26G27
  22545320.062    22545317.024   118476524.589 0  92319370.605 0        45.000  
        45.000                                                  
  20827004.364    20827000.451   109446874.834 0  85283282.462 0        51.000  
        48.000                                                  
  24078954.224    24078949.668   126535085.430 0  98598769.518 0        38.000  
        38.000                                                  
  21641627.336                   113728207.132 0                        47.000  
                                                                
  22804891.475    22804886.061   119840106.790 0  93381913.225 0        42.000  
        42.000                                                  
  24364109.397                   128034434.585 0                        38.000  
                                                                
  20998101.778    20998096.292   110346271.455 0  85983752.205 0        47.000  
        48.000                                                  
  23514236.222    23514233.327   123568727.189 0  96287324.552 0        43.000  
        44.000                                                  
  20450953.832    20450950.240   107470125.306 0  83742956.636 0        50.000  
        49.000                                                  
 22  1 16 22  0 16.0000000  0  0
 22  1 16 22  0 17.0000000  0  6E07E12E18E19E24E26
  26894771.482                   141333105.404 0                        39.000  
                  26894770.356   108294200.979          44.000  
  23333922.734                   122620853.213 0                        44.000  
                  23333918.178    93956242.039          48.000  
  18013962.595                    94664015.63510                        51.000  
                  18013960.630    72534755.997          55.000  
  27558219.464                   144818744.192 0                        26.000  
                  27558213.513   110965263.329          35.000  
  25680870.427                   134953598.931 0                        46.000  
                  25680867.193   103406004.396          50.000  
  26554348.922                   139544557.680 0                        40.000  
                  26554346.474   106923983.568          46.000  
 22  1 16 22  0 18.0000000  0  9G08G10G15G16G18G21G23G26G27
  22544782.740    22544779.702   118473701.288 0  92317170.631 0        45.000  
        45.000                                                  
  20826794.457    20826790.544   109445771.496 0  85282422.716 0        51.000  
        48.000                                                  
  24079188.898    24079184.270   126536318.470 0  98599730.338 0        38.000  
        38.000                                                  
  21642035.054                   113730349.658 0                        47.000  
                                                                
  22805416.324    22805410.964   119842864.614 0  93384062.174 0        42.000  
        42.000                                                  
  24363613.425                   128031828.848 0                        38.000  
                                                                
  20998342.260    20998336.917   110347535.281 0  85984737.005 0        47.000  
        48.000                                                  
  23514895.017    23514892.247   123572189.480 0  96290022.448 0        43.000  
        44.000                                                  
  20450722.231    20450718.640   107468908.423 0  83742008.409 0        50.000  
        49.000                                                  
 22  1 16 22  0 17.0000000  0  0
 22  1 16 22  0 18.0000000  0  6E07E12E18E19E24E26
  26894823.766                   141333380.808 0                        40.000  
                  26894822.658   108294412.010          44.000  
  23333629.521                   122619313.135 0                        44.000  
                  23333625.054    93955061.986          48.000  
  18014449.634                    94666573.85210                        51.000  
                  18014447.418    72536716.184          55.000  
  27557646.833                   144815736.770 0                        27.000  
                  27557641.276   110962958.920          35.000  
  25680845.267                   134953466.816 0                        46.000  
                  25680841.997   103405903.165          51.000  
  26554751.421                   139546672.604 0                        40.000  
                  26554748.812   106925604.083          46.000  
 22  1 16 22  0 19.0000000  0  9G08G10G15G16G18G21G23G26G27
  22544245.454    22544242.434   118470878.020 0  92314970.691 0        45.000  
        45.000                                                  
  20826584.550    20826580.672   109444668.545 0  85281563.276 0        51.000  
        48.000                                                  
  24079423.662    24079418.926   126537551.942 0  98600691.490 0        38.000  
        38.000                                                  
  21642442.789                   113732492.527 0                        47.000  
                                                                
  22805941.120    22805935.759   119845622.367 0  93386211.076 0        42.000  
        43.000                                                  
  24363117.488                   128029223.075 0                        38.000  
                                                                
  20998582.830    20998577.452   110348799.509 0  85985722.110 0        47.000  
        48.000                                                  
  23515553.919    23515551.060   123575651.736 0  96292720.289 0        43.000  
        44.000                                                  
  20450490.631    20450487.093   107467691.786 0  83741060.378 0        50.000  
        49.000                                                  
 22  1 16 22  0 18.0000000  0  0
 22  1 16 22  0 19.0000000  0  6E07E12E18E19E24E26
  26894876.319                   141333656.537 0                        40.000  
                  26894875.104   108294623.270          44.000  
  23333336.362                   122617773.013 0                        44.000  
                  23333331.966    93953881.886          48.000  
  18014936.654                    94669133.33910                        51.000  
                  18014934.456    72538677.348          55.000  
  27557074.577                   144812729.113 0                        27.000  
                  27557068.770   110960654.406          35.000  
  25680820.197                   134953335.007 0                        46.000  
                  25680816.963   103405802.164          51.000  
  26555153.850                   139548787.385 0                        40.000  
                  26555151.241   106927224.495          46.000  
 22  1 16 22  0 20.0000000  0  9G08G10G15G16G18G21G23G26G27
  22543708.347    22543705.345   118468055.674 0  92312771.453 0        45.000  
        45.000                                                  
  20826374.910    20826371.015   109443566.883 0  85280704.838 0        51.000  
        48.000                                                  
  24079658.603    24079653.975   126538786.758 0  98601653.682 0        38.000  
        38.000                                                  
  21642850.936                   113734636.644 0                        47.000  
                                                                
  22806466.112    22806460.697   119848380.945 0  93388360.612 0        42.000  
        42.000                                                  
  24362621.783                   128026618.150 0                        38.000  
                                                                
  20998823.740    20998818.344   110350065.013 0  85986708.227 0        47.000  
        48.000                                                  
  23516212.893    23516210.141   123579114.805 0  96295418.791 0        43.000  
        44.000                                                  
  20450259.424    20450255.761   107466476.299 0  83740113.245 0        50.000  
        49.000                                                  
 22  1 16 22  0 19.0000000  0  0
 22  1 16 22  0 20.0000000  0  6E07E12E18E19E24E26
  26894929.158                   141333933.399 0                        39.000  
                  26894927.800   108294835.406          44.000  
  23333043.507                   122616233.704 0                        44.000  
                  23333039.129    93952702.422          48.000  
  18015424.210                    94671694.97810                        51.000  
                  18015421.994    72540640.162          55.000  
  27556502.501                   144809722.133 0                        27.000  
                  27556496.586   110958350.301          35.000  
  25680795.520                   134953204.394 0                        46.000  
                  25680792.089   103405702.080          51.000  
  26555556.224                   139550902.899 0                        40.000  
                  26555553.812   106928845.471          46.000  
 22  1 16 22  0 21.0000000  0  9G08G10G15G16G18G21G23G26G27
  22543171.222    22543168.274   118465233.078 0  92310572.030 0        45.000  
        45.000                                                  
  20826165.271    20826161.447   109442465.347 0  85279846.500 0        51.000  
        48.000                                                  
  24079893.635    24079888.899   126540021.759 0  98602616.018 0        38.000  
        38.000                                                  
  21643259.046                   113736780.836 0                        47.000  
                                                                
  22806990.943    22806985.618   119851139.192 0  93390509.893 0        42.000  
        42.000                                                  
  24362125.972                   128024012.903 0                        38.000  
                                                                
  20999064.579    20999059.147   110351330.652 0  85987694.437 0        47.000  
        48.000                                                  
  23516871.831    23516869.097   123582577.556 0  96298117.039 0        43.000  
        44.000                                                  
  20450028.056    20450024.553   107465260.819 0  83739166.122 0        50.000  
        49.000                                                  
 22  1 16 22  0 20.0000000  0  0
 22  1 16 22  0 21.0000000  0  6E07E12E18E19E24E26
  26894981.818                   141334210.276 0                        40.000  
                  26894980.460   108295047.574          44.000  
  23332750.669                   122614694.099 0                        43.000  
                  23332746.220    93951522.729          48.000  
  18015911.766                    94674257.62610                        51.000  
                  18015909.604    72542603.754          55.000  
  27555930.174                   144806714.682 0                        27.000  
                  27555924.313   110956045.890          35.000  
  25680770.486                   134953073.814 0                        46.000  
                  25680767.233   103405602.025          51.000  
  26555958.795                   139553018.003 0                        40.000  
                  26555956.294   106930466.139          46.000  
 22  1 16 22  0 22.0000000  0  9G08G10G15G16G18G21G23G26G27
  22542634.115    22542631.113   118462410.273 0  92308372.437 0        45.000  
        45.000                                                  
  20825955.667    20825951.790   109441363.969 0  85278988.284 0        51.000  
        48.000                                                  
  24080128.737    24080123.895   126541256.951 0  98603578.509 0        38.000  
        38.000                                                  
  21643667.085                   113738925.135 0                        47.000  
                                                                
  22807515.774    22807510.395   119853897.139 0  93392658.929 0        42.000  
        42.000                                                  
  24361630.196                   128021407.362 0                        38.000  
                                                                
  20999305.507    20999300.111   110352596.438 0  85988680.768 0        47.000  
        48.000                                                  
  23517530.751    23517527.964   123586040.018 0  96300815.059 0        43.000  
        44.000                                                  
  20449796.830    20449793.203   107464045.352 0  83738219.003 0        50.000  
        49.000                                                  
 22  1 16 22  0 21.0000000  0  0
 22  1 16 22  0 22.0000000  0  6E07E12E18E19E24E26
  26895034.388                   141334487.221 0                        40.000  
                  26895033.191   108295259.763          44.000  
  23332457.671                   122613154.188 0                        43.000  
                  23332452.971    93950342.791          48.000  
  18016399.787                    94676821.29810                        51.000  
                  18016397.375    72544568.119          55.000  
  27555358.079                   144803706.687 0                        27.000  
                  27555351.807   110953741.115          35.000  
  25680745.612                   134952943.287 0                        46.000  
                  25680742.431   103405502.013          51.000  
  26556361.134                   139555132.719 0                        40.000  
                  26556358.686   106932086.495          46.000  
 22  1 16 22  0 23.0000000  0  9G08G10G15G16G18G21G23G26G27
  22542097.097    22542094.006   118459587.933 0  92306173.206 0        45.000  
        45.000                                                  
  20825746.242    20825742.400   109440263.445 0  85278130.730 0        51.000  
        48.000                                                  
  24080364.037    24080359.087   126542493.049 0  98604541.716 0        38.000  
        38.000                                                  
  21644075.357                   113741070.243 0                        47.000  
                                                                
  22808040.712    22808035.333   119856655.441 0  93394808.274 0        42.000  
        42.000                                                  
  24361134.437                   128018802.226 0                        38.000  
                                                                
  20999546.560    20999541.057   110353863.081 0  85989667.758 0        47.000  
        48.000                                                  
  23518189.671    23518186.955   123589502.893 0  96303513.394 0        43.000  
        44.000                                                  
  20449565.659    20449562.067   107462830.617 0  83737272.449 0        50.000  
        49.000                                                  
 22  1 16 22  0 22.0000000  0  0
 22  1 16 22  0 23.0000000  0  6E07E12E18E19E24E26
  26895087.602                   141334764.881 0                        40.000  
                  26895085.994   108295472.529          44.000  
  23332164.815                   122611614.686 0                        44.000  
                  23332160.098    93949163.174          48.000  
  18016887.987                    94679386.70410                        51.000  
                  18016885.592    72546533.818          55.000  
  27554785.556                   144800699.004 0                        27.000  
                  27554779.516   110951436.524          35.000  
  25680721.042                   134952813.523 0                        46.000  
                  25680717.736   103405402.588          51.000  
  26556763.598                   139557247.731 0                        40.000  
                  26556761.150   106933707.096          46.000  
 22  1 16 22  0 24.0000000  0  9G08G10G15G16G18G21G23G26G27
  22541560.062    22541557.042   118456765.733 0  92303974.092 0        45.000  
        45.000                                                  
  20825536.978    20825532.993   109439163.432 0  85277273.577 0        51.000  
        48.000                                                  
  24080599.354    24080594.440   126543729.719 0  98605505.319 0        38.000  
        37.000                                                  
  21644483.628                   113743215.812 0                        47.000  
                                                                
  22808565.615    22808560.307   119859413.823 0  93396957.655 0        42.000  
        42.000                                                  
  24360638.679                   128016197.155 0                        38.000  
                                                                
  20999787.667    20999782.181   110355130.229 0  85990655.151 0        47.000  
        48.000                                                  
  23518848.699    23518846.001   123592965.809 0  96306211.789 0        43.000  
        44.000                                                  
  20449334.594    20449331.021   107461616.275 0  83736326.206 0        50.000  
        49.000                                                  
 22  1 16 22  0 23.0000000  0  0
 22  1 16 22  0 24.0000000  0  6E07E12E18E19E24E26
  26895140.423                   141335042.958 0                        40.000  
                  26895138.940   108295685.601          44.000  
  23331871.674                   122610075.257 0                        44.000  
                  23331867.135    93947983.594          48.000  
  18017376.419                    94681953.48110                        51.000  
                  18017373.971    72548500.578          55.000  
  27554212.961                   144797691.229 0                        27.000  
                  27554207.225   110949131.827          35.000  
  25680696.579                   134952684.187 0                        46.000  
                  25680693.041   103405303.484          51.000  
  26557166.473                   139559362.735 0                        40.000  
                  26557163.632   106935327.681          46.000  
 22  1 16 22  0 25.0000000  0  9G08G10G15G16G18G21G23G26G27
  22541023.062    22541020.114   118453943.905 0  92301775.270 0        45.000  
        45.000                                                  
  20825327.786    20825323.783   109438064.158 0  85276417.000 0        51.000  
        48.000                                                  
  24080834.850    24080829.900   126544967.164 0  98606469.573 0        38.000  
        37.000                                                  
  21644892.025                   113745362.067 0                        47.000  
                                                                
  22809090.499    22809085.281   119862172.445 0  93399107.242 0        42.000  
        42.000                                                  
  24360142.992                   128013592.360 0                        38.000  
                                                                
  21000028.881    21000023.484   110356398.116 0  85991643.110 0        47.000  
        48.000                                                  
  23519507.708    23519504.975   123596429.033 0  96308910.384 0        43.000  
        44.000                                                  
  20449103.655    20449100.064   107460402.525 0  83735380.429 0        50.000  
        49.000                                                  
 22  1 16 22  0 24.0000000  0  0
 22  1 16 22  0 25.0000000  0  6E07E12E18E19E24E26
  26895193.262                   141335321.666 0                        40.000  
                  26895192.011   108295899.152          44.000  
  23331578.819                   122608536.086 0                        44.000  
                  23331574.334    93946804.254          48.000  
  18017865.172                    94684521.89210                        51.000  
                  18017862.760    72550468.572          55.000  
  27553640.884                   144794683.546 0                        27.000  
                  27553634.862   110946827.257          35.000  
  25680672.099                   134952555.491 0                        46.000  
                  25680668.579   103405204.879          51.000  
  26557568.991                   139561477.926 0                        40.000  
                  26557566.150   106936948.409          46.000  
 22  1 16 22  0 26.0000000  0  9G08G10G15G16G18G21G23G26G27
  22540486.134    22540483.060   118451122.275 0  92299576.597 0        45.000  
        45.000                                                  
  20825118.772    20825114.626   109436965.451 0  85275560.867 0        51.000  
        48.000                                                  
  24081070.453    24081065.432   126546205.246 0  98607434.345 0        38.000  
        37.000                                                  
  21645300.493                   113747508.845 0                        47.000  
                                                                
  22809615.598    22809610.220   119864931.205 0  93401256.916 0        42.000  
        42.000                                                  
  24359647.306                   128010987.693 0                        38.000  
                                                                
  21000270.113    21000264.806   110357666.564 0  85992631.524 0        47.000  
        48.000                                                  
  23520166.718    23520164.020   123599892.366 0  96311609.092 0        43.000  
        44.000                                                  
  20448872.841    20448869.142   107459189.213 0  83734434.996 0        50.000  
        49.000                                                  
 22  1 16 22  0 25.0000000  0  0
 22  1 16 22  0 26.0000000  0  6E07E12E18E19E24E26
  26895246.422                   141335600.820 0                        40.000  
                  26895245.154   108296113.059          44.000  
  23331285.981                   122606997.055 0                        44.000  
                  23331281.425    93945624.992          48.000  
  18018354.390                    94687091.73810                        51.000  
                  18018351.817    72552437.673          55.000  
  27553068.485                   144791675.836 0                        27.000  
                  27553062.410   110944522.645          35.000  
  25680647.493                   134952427.279 0                        46.000  
                  25680644.187   103405106.634          51.000  
  26557971.491                   139563593.150 0                        40.000  
                  26557968.650   106938569.168          46.000  
 22  1 16 22  0 27.0000000  0  9G08G10G15G16G18G21G23G26G27
  22539949.169    22539946.132   118448300.785 0  92297378.022 0        45.000  
        45.000                                                  
  20824909.811    20824905.683   109435867.251 0  85274705.129 0        51.000  
        48.000                                                  
  24081306.181    24081301.124   126547443.865 0  98608399.484 0        38.000  
        37.000                                                  
  21645709.068                   113749656.072 0                        47.000  
                                                                
  22810140.644    22810135.176   119867689.997 0  93403406.629 0        42.000  
        42.000                                                  
  24359151.619                   128008383.109 0                        38.000  
                                                                
  21000511.523    21000506.252   110358935.528 0  85993620.316 0        47.000  
        48.000                                                  
  23520825.835    23520823.083   123603355.767 0  96314307.836 0        43.000  
        44.000                                                  
  20448642.081    20448638.257   107457976.282 0  83733489.848 0        50.000  
        49.000                                                  
 22  1 16 22  0 26.0000000  0  0
 22  1 16 22  0 27.0000000  0  6E07E12E18E19E24E26
  26895299.636                   141335880.374 0                        40.000  
                  26895298.368   108296327.259          44.000  
  23330993.108                   122605458.087 0                        43.000  
                  23330988.516    93944445.776          48.000  
  18018843.573                    94689662.95510                        51.000  
                  18018841.053    72554407.832          55.000  
  27552495.926                   144788668.012 0                        27.000  
                  27552490.190   110942217.947          35.000  
  25680623.227                   134952299.475 0                        46.000  
                  25680619.850   103405008.709          51.000  
  26558373.830                   139565708.333 0                        40.000  
                  26558371.149   106940189.894          46.000  
 22  1 16 22  0 28.0000000  0  9G08G10G15G16G18G21G23G26G27
  22539412.527    22539409.436   118445480.507 0  92295180.409 0        45.000  
        45.000                                                  
  20824701.030    20824696.973   109434770.636 0  85273850.622 0        51.000  
        48.000                                                  
  24081542.195    24081537.174   126548684.122 0  98609365.934 0        38.000  
        37.000                                                  
  21646117.858                   113751804.857 0                        47.000  
                                                                
  22810665.814    22810660.382   119870449.925 0  93405557.216 0        42.000  
        42.000                                                  
  24358656.254                   128005779.629 0                        38.000  
                                                                
  21000753.380    21000748.109   110360206.073 0  85994610.356 0        46.000  
        48.000                                                  
  23521485.202    23521482.414   123606820.303 0  96317007.484 0        43.000  
        44.000                                                  
  20448411.481    20448407.621   107456764.813 0  83732545.848 0        50.000  
        49.000                                                  
 22  1 16 22  0 27.0000000  0  0
 22  1 16 22  0 28.0000000  0  6E07E12E18E19E24E26
  26895353.029                   141336161.400 0                        40.000  
                  26895351.832   108296542.587          44.000  
  23330700.378                   122603920.239 0                        43.000  
                  23330695.982    93943267.432          48.000  
  18019333.434                    94692236.64210                        51.000  
                  18019330.825    72556379.872          55.000  
  27551924.010                   144785661.150 0                        27.000  
                  27551917.917   110939913.985          35.000  
  25680599.336                   134952173.165 0                        46.000  
                  25680595.834   103404911.923          51.000  
  26558776.580                   139567824.575 0                        40.000  
                  26558773.703   106941811.428          46.000  
 22  1 16 22  0 29.0000000  0  9G08G10G15G16G18G21G23G26G27
  22538875.724    22538872.543   118442659.370 0  92292982.116 0        45.000  
        45.000                                                  
  20824492.212    20824488.192   109433673.546 0  85272995.746 0        51.000  
        48.000                                                  
  24081778.102    24081773.099   126549923.941 0  98610332.004 0        38.000  
        37.000                                                  
  21646526.665                   113753953.102 0                        47.000  
                                                                
  22811190.896    22811185.499   119873208.888 0  93407707.059 0        42.000  
        42.000                                                  
  24358160.585                   128003175.247 0                        38.000  
                                                                
  21000995.095    21000989.698   110361476.138 0  85995600.013 0        46.000  
        48.000                                                  
  23522144.265    23522141.549   123610283.902 0  96319706.391 0        43.000  
        44.000                                                  
  20448180.720    20448177.075   107455552.721 0  83731601.366 0        50.000  
        49.000                                                  
 22  1 16 22  0 28.0000000  0  0
 22  1 16 22  0 29.0000000  0  6E07E12E18E19E24E26
  26895406.511                   141336441.851 0                        39.000  
                  26895405.242   108296757.476          44.000  
  23330407.611                   122602381.476 0                        43.000  
                  23330403.073    93942088.377          48.000  
  18019823.278                    94694810.72010                        51.000  
                  18019820.651    72558352.217          55.000  
  27551351.701                   144782653.147 0                        27.000  
                  27551345.519   110937609.176          35.000  
  25680575.070                   134952046.291 0                        46.000  
                  25680571.728   103404814.708          51.000  
  26559179.169                   139569939.772 0                        40.000  
                  26559176.310   106943432.164          46.000  
 22  1 16 22  0 30.0000000  0  9G08G10G15G16G18G21G23G26G27
  22538338.777    22538335.454   118439837.807 0  92290783.500 0        45.000  
        45.000                                                  
  20824283.466    20824279.428   109432576.385 0  85272140.811 0        51.000  
        48.000                                                  
  24082014.027    24082008.970   126551163.777 0  98611298.101 0        38.000  
        37.000                                                  
  21646935.348                   113756101.242 0                        47.000  
                                                                
  22811715.852    22811710.473   119875967.340 0  93409856.502 0        42.000  
        42.000                                                  
  24357664.845                   128000570.358 0                        38.000  
                                                                
  21001236.684    21001231.377   110362746.132 0  85996589.621 0        46.000  
        48.000                                                  
  23522803.346    23522800.469   123613746.983 0  96322404.904 0        43.000  
        44.000                                                  
  20447949.995    20447946.439   107454340.457 0  83730656.730 0        50.000  
        49.000                                                  
 22  1 16 22  0 29.0000000  0  0
 22  1 16 22  0 30.0000000  0  6E07E12E18E19E24E26
  26895459.671                   141336722.111 0                        40.000  
                  26895458.545   108296972.212          44.000  
  23330114.542                   122600842.199 0                        43.000  
                  23330110.325    93940908.927          48.000  
  18020313.211                    94697385.60410                        51.000  
                  18020310.655    72560325.185          55.000  
  27550779.321                   144779644.583 0                        27.000  
                  27550772.834   110935303.857          35.000  
  25680550.929                   134951919.264 0                        46.000  
                  25680547.587   103404717.365          51.000  
  26559581.633                   139572054.386 0                        40.000  
                  26559578.613   106945052.447          46.000  
 22  1 16 22  0 31.0000000  0  9G08G10G15G16G18G21G23G26G27
  22537802.117    22537798.650   118437017.147 0  92288585.583 0        45.000  
        45.000                                                  
  20824074.917    20824070.896   109431480.509 0  85271286.884 0        51.000  
        48.000                                                  
  24082250.237    24082245.162   126552404.917 0  98612265.250 0        37.000  
        37.000                                                  
  21647344.459                   113758250.602 0                        47.000  
                                                                
  22812240.808    22812235.483   119878726.607 0  93412006.553 0        42.000  
        42.000                                                  
  24357169.176                   127997966.278 0                        38.000  
                                                                
  21001478.648    21001473.288   110364017.405 0  85997580.221 0        46.000  
        48.000                                                  
  23523462.534    23523459.586   123617210.900 0  96325104.060 0        43.000  
        44.000                                                  
  20447719.592    20447715.947   107453129.322 0  83729712.998 0        50.000  
        49.000                                                  
 22  1 16 22  0 30.0000000  0  0
 22  1 16 22  0 31.0000000  0  6E07E12E18E19E24E26
  26895513.296                   141337003.531 0                        39.000  
                  26895512.081   108297187.858          44.000  
  23329821.865                   122599303.739 0                        44.000  
                  23329817.398    93939730.106          48.000  
  18020803.697                    94699962.63710                        51.000  
                  18020801.035    72562299.790          55.000  
  27550207.012                   144776636.588 0                        27.000  
                  27550200.507   110932999.068          35.000  
  25680527.002                   134951793.397 0                        46.000  
                  25680523.625   103404620.930          51.000  
  26559984.257                   139574169.718 0                        40.000  
                  26559981.166   106946673.282          46.000  
 22  1 16 22  0 32.0000000  0  9G08G10G15G16G18G21G23G26G27
  22537265.385    22537261.954   118434197.128 0  92286388.172 0        45.000  
        45.000                                                  
  20823866.510    20823862.472   109430385.649 0  85270433.746 0        51.000  
        48.000                                                  
  24082486.644    24082481.516   126553647.113 0  98613233.165 0        37.000  
        37.000                                                  
  21647753.624                   113760400.942 0                        47.000  
                                                                
  22812765.996    22812760.671   119881486.412 0  93414157.062 0        42.000  
        42.000                                                  
  24356673.740                   127995362.765 0                        38.000  
                                                                
  21001720.863    21001715.413   110365289.688 0  85998571.615 0        46.000  
        48.000                                                  
  23524121.812    23524118.899   123620675.374 0  96327803.660 0        43.000  
        44.000                                                  
  20447489.296    20447485.687   107451919.073 0  83728769.949 0        50.000  
        49.000                                                  
 22  1 16 22  0 31.0000000  0  0
 22  1 16 22  0 32.0000000  0  6E07E12E18E19E24E26
  26895567.046                   141337285.857 0                        40.000  
                  26895565.795   108297404.197          44.000  
  23329529.295                   122597765.844 0                        44.000  
                  23329524.864    93938551.731          48.000  
  18021294.524                    94702541.56210                        51.000  
                  18021291.808    72564275.850          55.000  
  27549635.310                   144773629.025 0                        27.000  
                  27549628.145   110930694.579          35.000  
  25680503.236                   134951668.472 0                        46.000  
                  25680499.752   103404525.206          51.000  
  26560386.954                   139576285.532 0                        40.000  
                  26560383.719   106948294.494          46.000  
 22  1 16 22  0 33.0000000  0  9G08G10G15G16G18G21G23G26G27
  22536728.689    22536725.365   118431377.070 0  92284190.713 0        45.000  
        45.000                                                  
  20823658.301    20823654.209   109429291.099 0  85269580.848 0        51.000  
        48.000                                                  
  24082723.141    24082717.923   126554889.664 0  98614201.396 0        37.000  
        37.000                                                  
  21648162.896                   113762551.544 0                        47.000  
                                                                
  22813291.203    22813285.824   119884246.053 0  93416307.445 0        42.000  
        42.000                                                  
  24356178.374                   127992759.143 0                        38.000  
                                                                
  21001962.935    21001957.645   110366562.282 0  85999563.237 0        46.000  
        48.000                                                  
  23524781.018    23524778.123   123624139.713 0  96330503.136 0        43.000  
        44.000                                                  
  20447259.036    20447255.409   107450709.009 0  83727827.040 0        50.000  
        49.000                                                  
 22  1 16 22  0 32.0000000  0  0
 22  1 16 22  0 33.0000000  0  6E07E12E18E19E24E26
  26895620.814                   141337568.397 0                        40.000  
                  26895619.492   108297620.671          44.000  
  23329236.637                   122596227.835 0                        43.000  
                  23329232.044    93937373.239          48.000  
  18021785.600                    94705121.66710                        51.000  
                  18021782.777    72566252.815          55.000  
  27549063.233                   144770621.166 0                        27.000  
                  27549055.710   110928389.842          35.000  
  25680479.453                   134951543.761 0                        46.000  
                  25680476.022   103404429.644          51.000  
  26560789.489                   139578401.108 0                        40.000  
                  26560786.380   106949915.520          46.000  
 22  1 16 22  0 34.0000000  0  9G08G10G15G16G18G21G23G26G27
  22536192.100    22536188.866   118428557.326 0  92281993.529 0        45.000  
        45.000                                                  
  20823450.109    20823446.052   109428197.251 0  85268728.501 0        51.000  
        48.000                                                  
  24082959.745    24082954.455   126556132.987 0  98615170.215 0        37.000  
        37.000                                                  
  21648572.275                   113764702.800 0                        47.000  
                                                                
  22813816.320    22813810.977   119887005.948 0  93418458.004 0        42.000  
        42.000                                                  
  24355683.009                   127990155.765 0                        38.000  
                                                                
  21002205.221    21002199.985   110367835.578 0  86000555.416 0        46.000  
        48.000                                                  
  23525440.242    23525437.419   123627604.320 0  96333202.829 0        43.000  
        44.000                                                  
  20447028.865    20447025.166   107449499.520 0  83726884.582 0        50.000  
        49.000                                                  
 22  1 16 22  0 33.0000000  0  0
 22  1 16 22  0 34.0000000  0  6E07E12E18E19E24E26
  26895674.671                   141337851.519 0                        40.000  
                  26895673.313   108297837.617          44.000  
  23328943.960                   122594690.049 0                        43.000  
                  23328939.457    93936194.948          48.000  
  18022276.677                    94707703.35710                        51.000  
                  18022274.032    72568230.989          55.000  
  27548490.567                   144767613.388 0                        27.000  
                  27548483.312   110926085.195          35.000  
  25680455.830                   134951419.666 0                        46.000  
                  25680452.471   103404334.563          51.000  
  26561192.132                   139580516.851 0                        40.000  
                  26561189.094   106951536.678          46.000  
 22  1 16 22  0 35.0000000  0  9G08G10G15G16G18G21G23G26G27
  22535655.529    22535652.348   118425737.664 0  92279796.374 0        45.000  
        45.000                                                  
  20823242.042    20823237.896   109427103.847 0  85267876.495 0        51.000  
        48.000                                                  
  24083196.348    24083191.131   126557376.800 0  98616139.419 0        37.000  
        37.000                                                  
  21648981.762                   113766854.452 0                        47.000  
                                                                
  22814341.490    22814336.112   119889765.820 0  93420608.549 0        42.000  
        42.000                                                  
  24355187.644                   127987552.393 0                        37.000  
                                                                
  21002447.578    21002442.378   110369109.307 0  86001547.937 0        46.000  
        48.000                                                  
  23526099.520    23526096.678   123631068.917 0  96335902.504 0        43.000  
        44.000                                                  
  20446798.712    20446795.031   107448290.355 0  83725942.372 0        50.000  
        49.000                                                  
 22  1 16 22  0 34.0000000  0  0
 22  1 16 22  0 35.0000000  0  6E07E12E18E19E24E26
  26895728.689                   141338134.978 0                        40.000  
                  26895727.206   108298054.798          44.000  
  23328651.408                   122593152.275 0                        43.000  
                  23328646.834    93935016.645          48.000  
  18022768.182                    94710286.34910                        51.000  
                  18022765.573    72570210.167          55.000  
  27547918.222                   144764605.412 0                        27.000  
                  27547910.878   110923780.395          35.000  
  25680432.332                   134951295.914 0                        46.000  
                  25680428.919   103404239.731          51.000  
  26561594.721                   139582632.491 0                        41.000  
                  26561591.612   106953157.747          46.000  
 22  1 16 22  0 36.0000000  0  9G08G10G15G16G18G21G23G26G27
  22535118.958    22535115.795   118422917.868 0  92277599.137 0        45.000  
        45.000                                                  
  20823033.993    20823029.847   109426010.700 0  85267024.691 0        51.000  
        48.000                                                  
  24083433.059    24083427.806   126558620.898 0  98617108.883 0        37.000  
        37.000                                                  
  21649391.320                   113769006.318 0                        47.000  
                                                                
  22814866.625    22814861.336   119892525.481 0  93422758.945 0        42.000  
        42.000                                                  
  24354692.244                   127984948.801 0                        37.000  
                                                                
  21002689.918    21002684.861   110370383.301 0  86002540.659 0        46.000  
        48.000                                                  
  23526758.708    23526755.956   123634533.304 0  96338602.033 0        43.000  
        44.000                                                  
  20446568.648    20446564.878   107447081.297 0  83725000.247 0        50.000  
        49.000                                                  
 22  1 16 22  0 35.0000000  0  0
 22  1 16 22  0 36.0000000  0  6E07E12E18E19E24E26
  26895782.475                   141338418.575 0                        40.000  
                  26895781.224   108298272.112          44.000  
  23328358.499                   122591614.295 0                        43.000  
                  23328354.246    93933838.202          48.000  
  18023259.777                    94712870.47710                        51.000  
                  18023257.364    72572190.215          55.000  
  27547345.627                   144761597.162 0                        27.000  
                  27547338.408   110921475.334          35.000  
  25680408.834                   134951172.330 0                        46.000  
                  25680405.314   103404145.043          51.000  
  26561997.364                   139584747.853 0                        40.000  
                  26561994.129   106954778.613          46.000  
 22  1 16 22  0 37.0000000  0  9G08G10G15G16G18G21G23G26G27
  22534582.494    22534579.278   118420098.685 0  92275402.375 0        45.000  
        45.000                                                  
  20822826.051    20822822.012   109424918.525 0  85266173.647 0        51.000  
        48.000                                                  
  24083670.003    24083664.803   126559866.052 0  98618079.085 0        37.000  
        37.000                                                  
  21649800.931                   113771159.097 0                        47.000  
                                                                
  22815391.867    22815386.578   119895285.659 0  93424909.726 0        42.000  
        42.000                                                  
  24354196.950                   127982345.769 0                        38.000  
                                                                
  21002932.579    21002927.469   110371658.257 0  86003534.134 0        46.000  
        48.000                                                  
  23527418.111    23527415.377   123637998.224 0  96341301.973 0        43.000  
        44.000                                                  
  20446338.763    20446334.939   107445873.094 0  83724058.795 0        50.000  
        49.000                                                  
 22  1 16 22  0 36.0000000  0  0
 22  1 16 22  0 37.0000000  0  6E07E12E18E19E24E26
  26895836.672                   141338703.040 0                        40.000  
                  26895835.528   108298490.082          44.000  
  23328065.947                   122590076.864 0                        43.000  
                  23328061.623    93932660.164          48.000  
  18023751.961                    94715456.45110                        51.000  
                  18023749.459    72574171.676          55.000  
  27546773.032                   144758589.144 0                        27.000  
                  27546766.099   110919170.518          35.000  
  25680385.390                   134951049.635 0                        46.000  
                  25680382.067   103404051.023          51.000  
  26562399.828                   139586863.649 0                        41.000  
                  26562396.826   106956399.809          46.000  
 22  1 16 22  0 38.0000000  0  9G08G10G15G16G18G21G23G26G27
  22534046.156    22534042.903   118417279.836 0  92273205.867 0        45.000  
        45.000                                                  
  20822618.341    20822614.357   109423827.068 0  85265323.162 0        51.000  
        48.000                                                  
  24083907.071    24083901.871   126561111.966 0  98619049.943 0        37.000  
        37.000                                                  
  21650210.900                   113773312.554 0                        47.000  
                                                                
  22815917.234    22815911.784   119898046.089 0  93427060.713 0        42.000  
        42.000                                                  
  24353701.764                   127979742.984 0                        38.000  
                                                                
  21003175.384    21003170.273   110372933.932 0  86004528.166 0        46.000  
        48.000                                                  
  23528077.549    23528074.869   123641463.412 0  96344002.117 0        43.000  
        44.000                                                  
  20446109.057    20446105.215   107444665.477 0  83723117.795 0        50.000  
        49.000                                                  
 22  1 16 22  0 37.0000000  0  0
 22  1 16 22  0 38.0000000  0  6E07E12E18E19E24E26
  26895891.083                   141338988.092 0                        40.000  
                  26895889.814   108298708.498          44.000  
  23327773.503                   122588539.677 0                        43.000  
                  23327769.072    93931482.317          48.000  
  18024244.610                    94718044.01010                        51.000  
                  18024241.769    72576154.351          55.000  
  27546200.616                   144755581.296 0                        27.000  
                  27546193.629   110916865.821          35.000  
  25680362.250                   134950927.541 0                        46.000  
                  25680358.730   103403957.480          51.000  
  26562802.506                   139588979.609 0                        41.000  
                  26562799.415   106958021.119          46.000  
 22  1 16 22  0 39.0000000  0  9G08G10G15G16G18G21G23G26G27
  22533509.674    22533506.565   118414461.281 0  92271009.579 0        45.000  
        45.000                                                  
  20822410.721    20822406.790   109422736.272 0  85264473.186 0        51.000  
        48.000                                                  
  24084144.282    24084139.064   126562358.581 0  98620021.317 0        37.000  
        37.000                                                  
  21650620.834                   113775466.618 0                        47.000  
                                                                
  22816442.566    22816437.134   119900806.724 0  93429211.843 0        42.000  
        42.000                                                  
  24353206.434                   127977140.418 0                        38.000  
                                                                
  21003418.134    21003413.095   110374210.268 0  86005522.716 0        46.000  
        48.000                                                  
  23528737.059    23528734.343   123644928.816 0  96346702.432 0        43.000  
        44.000                                                  
  20445879.262    20445875.509   107443458.386 0  83722177.207 0        50.000  
        49.000                                                  
 22  1 16 22  0 38.0000000  0  0
 22  1 16 22  0 39.0000000  0  6E07E12E18E19E24E26
  26895945.494                   141339273.705 0                        39.000  
                  26895944.118   108298927.347          44.000  
  23327480.934                   122587002.704 0                        43.000  
                  23327476.609    93930304.643          48.000  
  18024737.223                    94720633.10610                        51.000  
                  18024734.436    72578138.203          55.000  
  27545628.575                   144752573.489 0                        27.000  
                  27545621.302   110914561.174          35.000  
  25680339.109                   134950806.032 0                        46.000  
                  25680335.732   103403864.371          51.000  
  26563205.113                   139591095.693 0                        41.000  
                  26563202.004   106959642.531          46.000  
 22  1 16 22  0 40.0000000  0  9G08G10G15G16G18G21G23G26G27
  22532973.317    22532970.244   118411642.608 0  92268813.215 0        45.000  
        45.000                                                  
  20822203.244    20822199.188   109421645.740 0  85263623.423 0        51.000  
        48.000                                                  
  24084381.529    24084376.276   126563605.490 0  98620992.948 0        37.000  
        37.000                                                  
  21651030.820                   113777620.896 0                        47.000  
                                                                
  22816967.826    22816962.572   119903567.112 0  93431362.830 0        42.000  
        42.000                                                  
  24352711.159                   127974537.677 0                        38.000  
                                                                
  21003661.046    21003655.935   110375486.847 0  86006517.453 0        46.000  
        48.000                                                  
  23529396.462    23529393.745   123648394.018 0  96349402.601 0        43.000  
        44.000                                                  
  20445649.734    20445645.821   107442251.427 0  83721236.717 0        50.000  
        49.000                                                  
 22  1 16 22  0 39.0000000  0  0
 22  1 16 22  0 40.0000000  0  6E07E12E18E19E24E26
  26895999.780                   141339559.476 0                        40.000  
                  26895998.404   108299146.310          44.000  
  23327188.507                   122585465.537 0                        43.000  
                  23327184.290    93929126.818          48.000  
  18025229.890                    94723223.32610                        51.000  
                  18025227.335    72580122.922          55.000  
  27545055.837                   144749565.325 0                        27.000  
                  27545048.814   110912256.186          35.000  
  25680315.969                   134950684.683 0                        46.000  
                  25680312.610   103403771.394          51.000  
  26563607.988                   139593211.498 0                        41.000  
                  26563604.736   106961263.737          46.000  
 22  1 16 22  0 41.0000000  0  9G08G10G15G16G18G21G23G26G27
  22532436.996    22532433.941   118408824.138 0  92266617.007 0        45.000  
        45.000                                                  
  20821995.927    20821991.782   109420555.783 0  85262774.108 0        51.000  
        48.000                                                  
  24084618.901    24084613.701   126564853.059 0  98621965.096 0        37.000  
        37.000                                                  
  21651440.861                   113779775.703 0                        47.000  
                                                                
  22817493.103    22817487.957   119906327.654 0  93433513.889 0        42.000  
        42.000                                                  
  24352215.901                   127971935.074 0                        38.000  
                                                                
  21003904.047    21003898.990   110376764.021 0  86007512.647 0        46.000  
        48.000                                                  
  23530055.954    23530053.220   123651859.347 0  96352102.850 0        43.000  
        44.000                                                  
  20445420.046    20445416.204   107441044.917 0  83720296.586 0        50.000  
        49.000                                                  
 22  1 16 22  0 40.0000000  0  0
 22  1 16 22  0 41.0000000  0  6E07E12E18E19E24E26
  26896054.227                   141339845.694 0                        40.000  
                  26896052.798   108299365.631          44.000  
  23326896.223                   122583928.517 0                        43.000  
                  23326891.613    93927949.093          48.000  
  18025723.200                    94725815.00110                        51.000  
                  18025720.591    72582108.747          55.000  
  27544483.885                   144746557.178 0                        27.000  
                  27544476.380   110909951.230          35.000  
  25680293.132                   134950563.828 0                        46.000  
                  25680289.577   103403678.793          51.000  
  26564010.577                   139595327.343 0                        41.000  
                  26564007.343   106962884.971          46.000  
 22  1 16 22  0 42.0000000  0  9G08G10G15G16G18G21G23G26G27
  22531900.765    22531897.691   118406006.295 0  92264421.283 0        45.000  
        45.000                                                  
  20821788.611    20821784.519   109419466.839 0  85261925.578 0        51.000  
        48.000                                                  
  24084856.452    24084851.216   126566101.672 0  98622938.007 0        37.000  
        37.000                                                  
  21651851.026                   113781931.472 0                        47.000  
                                                                
  22818018.542    22818013.414   119909088.738 0  93435665.368 0        42.000  
        42.000                                                  
  24351720.732                   127969333.010 0                        38.000  
                                                                
  21004147.244    21004142.276   110378042.188 0  86008508.627 0        46.000  
        48.000                                                  
  23530715.481    23530712.837   123655325.244 0  96354803.545 0        43.000  
        44.000                                                  
  20445190.607    20445186.783   107439839.299 0  83719357.141 0        50.000  
        49.000                                                  
 22  1 16 22  0 41.0000000  0  0
 22  1 16 22  0 42.0000000  0  6E07E12E18E19E24E26
  26896108.799                   141340132.832 0                        40.000  
                  26896107.423   108299585.639          44.000  
  23326603.600                   122582392.043 0                        43.000  
                  23326599.258    93926771.803          48.000  
  18026216.671                    94728408.55510                        51.000  
                  18026214.062    72584096.017          55.000  
  27543911.272                   144743549.391 0                        27.000  
                  27543904.035   110907646.554          35.000  
  25680270.224                   134950443.891 0                        46.000  
                  25680266.722   103403586.889          51.000  
  26564413.327                   139597443.641 0                        41.000  
                  26564410.075   106964506.557          46.000  
 22  1 16 22  0 43.0000000  0  9G08G10G15G16G18G21G23G26G27
  22531364.569    22531361.496   118403188.474 0  92262225.590 0        45.000  
        45.000                                                  
  20821581.473    20821577.363   109418378.264 0  85261077.349 0        51.000  
        48.000                                                  
  24085094.074    24085088.821   126567350.703 0  98623911.289 0        37.000  
        37.000                                                  
  21652261.263                   113784087.572 0                        47.000  
                                                                
  22818543.856    22818538.745   119911849.725 0  93437816.786 0        42.000  
        42.000                                                  
  24351225.546                   127966730.882 0                        38.000  
                                                                
  21004390.549    21004385.545   110379320.748 0  86009504.901 0        46.000  
        48.000                                                  
  23531375.009    23531372.418   123658791.057 0  96357504.185 0        43.000  
        44.000                                                  
  20444961.330    20444957.452   107438633.927 0  83718417.895 0        50.000  
        49.000                                                  
 22  1 16 22  0 42.0000000  0  0
 22  1 16 22  0 43.0000000  0  6E07E12E18E19E24E26
  26896163.603                   141340420.244 0                        40.000  
                  26896162.263   108299805.855          44.000  
  23326311.192                   122580855.510 0                        43.000  
                  23326306.849    93925594.455          48.000  
  18026710.553                    94731003.36410                        51.000  
                  18026707.819    72586084.248          55.000  
  27543339.178                   144740541.321 0                        27.000  
                  27543331.637   110905341.698          35.000  
  25680247.370                   134950324.225 0                        46.000  
                  25680243.903   103403495.199          51.000  
  26564815.845                   139599559.786 0                        41.000  
                  26564812.753   106966128.014          46.000  
 22  1 16 22  0 44.0000000  0  9G08G10G15G16G18G21G23G26G27
  22530828.338    22530825.282   118400370.499 0  92260029.756 0        45.000  
        45.000                                                  
  20821374.389    20821370.262   109417289.913 0  85260229.276 0        51.000  
        48.000                                                  
  24085331.840    24085326.568   126568600.021 0  98624884.770 0        37.000  
        37.000                                                  
  21652671.608                   113786243.832 0                        47.000  
                                                                
  22819069.258    22819064.112   119914610.469 0  93439968.006 0        42.000  
        42.000                                                  
  24350730.234                   127964128.537 0                        39.000  
                                                                
  21004633.853    21004628.814   110380599.501 0  86010501.337 0        46.000  
        48.000                                                  
  23532034.376    23532031.982   123662256.640 0  96360204.635 0        43.000  
        44.000                                                  
  20444731.963    20444728.121   107437428.635 0  83717478.697 0        50.000  
        49.000                                                  
 22  1 16 22  0 43.0000000  0  0
 22  1 16 22  0 44.0000000  0  6E07E12E18E19E24E26
  26896218.372                   141340707.720 0                        39.000  
                  26896216.871   108300026.135          44.000  
  23326018.729                   122579318.719 0                        43.000  
                  23326014.423    93924416.923          48.000  
  18027204.453                    94733599.25710                        51.000  
                  18027201.880    72588073.304          55.000  
  27542766.761                   144737532.927 0                        28.000  
                  27542759.096   110903036.549          35.000  
  25680224.498                   134950204.716 0                        46.000  
                  25680221.228   103403403.620          51.000  
  26565218.380                   139601675.609 0                        41.000  
                  26565215.450   106967749.220          46.000  
 22  1 16 22  0 45.0000000  0  9G08G10G15G16G18G21G23G26G27
  22530292.106    22530289.015   118397552.681 0  92257834.060 0        45.000  
        45.000                                                  
  20821167.377    20821163.213   109416202.104 0  85259381.638 0        51.000  
        48.000                                                  
  24085569.623    24085564.387   126569849.922 0  98625858.740 0        37.000  
        37.000                                                  
  21653081.970                   113788400.587 0                        47.000  
                                                                
  22819594.572    22819589.533   119917371.271 0  93442119.303 0        42.000  
        42.000                                                  
  24350235.102                   127961526.268 0                        39.000  
                                                                
  21004877.265    21004872.226   110381878.797 0  86011498.193 0        46.000  
        48.000                                                  
  23532693.904    23532691.527   123665722.315 0  96362905.165 0        43.000  
        44.000                                                  
  20444502.650    20444498.862   107436223.762 0  83716539.839 0        50.000  
        49.000                                                  
 22  1 16 22  0 44.0000000  0  0
 22  1 16 22  0 45.0000000  0  6E07E12E18E19E24E26
  26896273.033                   141340995.640 0                        40.000  
                  26896271.640   108300246.765          44.000  
  23325726.356                   122577782.045 0                        43.000  
                  23325721.978    93923239.467          48.000  
  18027698.728                    94736196.55710                        51.000  
                  18027696.083    72590063.450          55.000  
  27542194.184                   144734524.393 0                        27.000  
                  27542186.679   110900731.322          35.000  
  25680202.018                   134950085.625 0                        46.000  
                  25680198.534   103403312.375          51.000  
  26565621.130                   139603791.425 0                        41.000  
                  26565617.967   106969370.434          46.000  
 22  1 16 22  0 46.0000000  0  9G08G10G15G16G18G21G23G26G27
  22529755.982    22529752.926   118394735.587 0  92255638.917 0        45.000  
        45.000                                                  
  20820960.668    20820956.486   109415115.381 0  85258534.836 0        51.000  
        48.000                                                  
  24085807.674    24085802.492   126571100.922 0  98626833.554 0        37.000  
        37.000                                                  
  21653492.671                   113790558.389 0                        47.000  
                                                                
  22820120.029    22820114.989   119920132.719 0  93444271.072 0        42.000  
        42.000                                                  
  24349740.094                   127958924.639 0                        39.000  
                                                                
  21005120.838    21005115.870   110383159.182 0  86012495.891 0        46.000  
        48.000                                                  
  23533353.449    23533351.126   123669188.617 0  96365606.178 0        43.000  
        44.000                                                  
  20444273.444    20444269.709   107435019.840 0  83715601.716 0        50.000  
        49.000                                                  
 22  1 16 22  0 45.0000000  0  0
 22  1 16 22  0 46.0000000  0  6E07E12E18E19E24E26
  26896327.927                   141341284.548 0                        39.000  
                  26896326.766   108300468.122          44.000  
  23325434.055                   122576245.999 0                        43.000  
                  23325429.713    93922062.492          48.000  
  18028193.521                    94738795.81010                        51.000  
                  18028190.787    72592055.085          55.000  
  27541621.965                   144731516.407 0                        28.000  
                  27541614.156   110898426.466          35.000  
  25680179.539                   134949967.533 0                        46.000  
                  25680176.108   103403221.883          51.000  
  26566023.791                   139605907.770 0                        41.000  
                  26566020.807   106970992.054          46.000  
 22  1 16 22  0 47.0000000  0  9G08G10G15G16G18G21G23G26G27
  22529219.875    22529216.981   118391918.619 0  92253443.882 0        45.000  
        45.000                                                  
  20820753.941    20820749.778   109414029.159 0  85257688.430 0        51.000  
        48.000                                                  
  24086045.814    24086040.596   126572352.517 0  98627808.793 0        37.000  
        37.000                                                  
  21653903.284                   113792716.641 0                        48.000  
                                                                
  22820645.521    22820640.482   119922894.179 0  93446422.861 0        42.000  
        42.000                                                  
  24349245.015                   127956323.104 0                        39.000  
                                                                
  21005364.571    21005359.586   110384440.054 0  86013493.978 0        46.000  
        48.000                                                  
  23534013.031    23534010.761   123672654.984 0  96368307.232 0        43.000  
        44.000                                                  
  20444044.327    20444040.753   107433816.282 0  83714663.881 0        50.000  
        49.000                                                  
 22  1 16 22  0 46.0000000  0  0
 22  1 16 22  0 47.0000000  0  6E07E12E18E19E24E26
  26896382.928                   141341573.852 0                        39.000  
                  26896381.766   108300689.795          44.000  
  23325141.896                   122574710.006 0                        43.000  
                  23325137.393    93920885.563          48.000  
  18028688.297                    94741396.43510                        51.000  
                  18028685.616    72594047.770          55.000  
  27541049.298                   144728508.233 0                        28.000  
                  27541041.829   110896121.551          35.000  
  25680157.131                   134949849.853 0                        46.000  
                  25680153.629   103403131.717          51.000  
  26566426.612                   139608024.091 0                        41.000  
                  26566423.449   106972613.648          46.000  
 22  1 16 22  0 48.0000000  0  9G08G10G15G16G18G21G23G26G27
  22528683.876    22528681.089   118389102.141 0  92251249.227 0        45.000  
        45.000                                                  
  20820547.393    20820543.230   109412943.771 0  85256842.684 0        51.000  
        48.000                                                  
  24086284.241    24086278.951   126573604.981 0  98628784.769 0        37.000  
        37.000                                                  
  21654314.146                   113794875.685 0                        47.000  
                                                                
  22821171.138    22821166.010   119925656.041 0  93448574.968 0        42.000  
        42.000                                                  
  24348750.025                   127953721.900 0                        39.000  
                                                                
  21005608.501    21005603.498   110385721.783 0  86014492.728 0        46.000  
        48.000                                                  
  23534672.684    23534670.486   123676121.733 0  96371008.599 0        43.000  
        44.000                                                  
  20443815.461    20443811.851   107432613.451 0  83713726.615 0        50.000  
        49.000                                                  
 22  1 16 22  0 47.0000000  0  0
 22  1 16 22  0 48.0000000  0  6E07E12E18E19E24E26
  26896438.072                   141341863.875 0                        39.000  
                  26896437.017   108300912.018          44.000  
  23324849.595                   122573174.415 0                        43.000  
                  23324845.253    93919708.936          48.000  
  18029183.465                    94743998.79210                        51.000  
                  18029180.838    72596041.779          55.000  
  27540476.435                   144725500.330 0                        28.000  
                  27540469.359   110893816.787          35.000  
  25680134.706                   134949732.924 0                        46.000  
                  25680131.436   103403042.124          51.000  
  26566829.273                   139610140.709 0                        41.000  
                  26566826.217   106974235.470          46.000  
 22  1 16 22  0 49.0000000  0  9G08G10G15G16G18G21G23G26G27
  22528147.805    22528145.089   118386285.631 0  92249054.541 0        45.000  
        45.000                                                  
  20820340.916    20820336.771   109411858.703 0  85255997.170 0        51.000  
        48.000                                                  
  24086522.596    24086517.253   126574857.820 0  98629761.023 0        37.000  
        37.000                                                  
  21654725.009                   113797034.978 0                        47.000  
                                                                
  22821696.702    22821691.395   119928417.738 0  93450726.933 0        42.000  
        42.000                                                  
  24348255.107                   127951120.600 0                        39.000  
                                                                
  21005852.503    21005847.499   110387003.800 0  86015491.704 0        46.000  
        48.000                                                  
  23535332.301    23535330.174   123679588.344 0  96373709.851 0        42.000  
        44.000                                                  
  20443586.630    20443582.896   107431410.794 0  83712789.475 0        50.000  
        49.000                                                  
 22  1 16 22  0 48.0000000  0  0
 22  1 16 22  0 49.0000000  0  6E07E12E18E19E24E26
  26896493.215                   141342154.075 0                        39.000  
                  26896492.108   108301134.392          44.000  
  23324557.293                   122571638.663 0                        43.000  
                  23324553.023    93918532.200          48.000  
  18029678.973                    94746602.30210                        51.000  
                  18029676.185    72598036.683          55.000  
  27539904.090                   144722492.142 0                        28.000  
                  27539896.978   110891511.799          34.000  
  25680112.459                   134949616.213 0                        46.000  
                  25680109.242   103402952.691          51.000  
  26567232.183                   139612257.095 0                        41.000  
                  26567229.003   106975857.123          46.000  
 22  1 16 22  0 50.0000000  0  9G08G10G15G16G18G21G23G26G27
  22527611.860    22527609.126   118383469.112 0  92246859.847 0        45.000  
        45.000                                                  
  20820134.440    20820130.241   109410774.017 0  85255151.955 0        51.000  
        48.000                                                  
  24086761.022    24086755.715   126576111.088 0  98630737.568 0        37.000  
        37.000                                                  
  21655136.032                   113799194.609 0                        48.000  
                                                                
  22822222.265    22822216.923   119931179.354 0  93452878.830 0        42.000  
        42.000                                                  
  24347760.081                   127948519.191 0                        39.000  
                                                                
  21006096.451    21006091.590   110388286.192 0  86016490.975 0        46.000  
        48.000                                                  
  23535991.954    23535989.863   123683054.881 0  96376411.045 0        42.000  
        44.000                                                  
  20443357.746    20443354.029   107430208.386 0  83711852.531 0        50.000  
        49.000                                                  
 22  1 16 22  0 49.0000000  0  0
 22  1 16 22  0 50.0000000  0  6E07E12E18E19E24E26
  26896548.556                   141342444.576 0                        39.000  
                  26896547.573   108301356.975          44.000  
  23324264.920                   122570102.843 0                        43.000  
                  23324260.811    93917355.405          48.000  
  18030174.463                    94749207.07110                        51.000  
                  18030171.944    72600032.536          55.000  
  27539331.281                   144719483.701 0                        28.000  
                  27539324.473   110889206.612          35.000  
  25680090.337                   134949499.791 0                        46.000  
                  25680087.103   103402863.479          51.000  
  26567634.790                   139614373.311 0                        41.000  
                  26567631.627   106977478.639          46.000  
 22  1 16 22  0 51.0000000  0  9G08G10G15G16G18G21G23G26G27
  22527075.986    22527073.180   118380653.136 0  92244665.584 0        45.000  
        45.000                                                  
  20819928.106    20819924.068   109409690.246 0  85254307.460 0        51.000  
        48.000                                                  
  24086999.752    24086994.373   126577365.318 0  98631714.890 0        37.000  
        37.000                                                  
  21655547.162                   113801355.120 0                        48.000  
                                                                
  22822747.919    22822742.451   119933941.415 0  93455031.090 0        42.000  
        42.000                                                  
  24347265.145                   127945918.292 0                        39.000  
                                                                
  21006340.613    21006335.770   110389569.520 0  86017490.964 0        46.000  
        48.000                                                  
  23536651.642    23536649.641   123686521.879 0  96379112.613 0        42.000  
        44.000                                                  
  20443129.147    20443125.395   107429006.773 0  83710916.210 0        50.000  
        49.000                                                  
 22  1 16 22  0 50.0000000  0  0
 22  1 16 22  0 51.0000000  0  6E07E12E18E19E24E26
  26896604.003                   141342735.873 0                        39.000  
                  26896602.896   108301580.172          44.000  
  23323972.976                   122568567.513 0                        43.000  
                  23323968.598    93916178.984          48.000  
  18030670.650                    94751813.63310                        51.000  
                  18030667.916    72602029.776          55.000  
  27538758.722                   144716475.569 0                        28.000  
                  27538751.949   110886901.648          35.000  
  25680068.322                   134949384.186 0                        46.000  
                  25680065.017   103402774.907          51.000  
  26568037.647                   139616489.937 0                        41.000  
                  26568034.449   106979100.456          46.000  
 22  1 16 22  0 52.0000000  0  9G08G10G15G16G18G21G23G26G27
  22526540.183    22526537.378   118377837.331 0  92242471.448 0        45.000  
        45.000                                                  
  20819721.862    20819717.931   109408607.021 0  85253463.393 0        51.000  
        48.000                                                  
  24087238.536    24087233.157   126578620.138 0  98632692.683 0        37.000  
        37.000                                                  
  21655958.472                   113803516.124 0                        48.000  
                                                                
  22823273.518    22823268.211   119936703.564 0  93457183.421 0        42.000  
        42.000                                                  
  24346770.191                   127943317.494 0                        39.000  
                                                                
  21006585.008    21006580.076   110390853.379 0  86018491.379 0        47.000  
        48.000                                                  
  23537311.456    23537309.401   123689988.988 0  96381814.252 0        42.000  
        44.000                                                  
  20442900.549    20442896.761   107427805.578 0  83709980.222 0        50.000  
        49.000                                                  
 22  1 16 22  0 51.0000000  0  0
 22  1 16 22  0 52.0000000  0  6E07E12E18E19E24E26
  26896659.612                   141343027.613 0                        39.000  
                  26896658.361   108301803.711          44.000  
  23323680.728                   122567032.268 0                        43.000  
                  23323676.351    93915002.623          48.000  
  18031166.784                    94754421.60410                        51.000  
                  18031164.121    72604028.096          55.000  
  27538186.145                   144713467.298 0                        28.000  
                  27538179.479   110884596.704          35.000  
  25680046.451                   134949269.047 0                        46.000  
                  25680043.270   103402686.677          51.000  
  26568440.308                   139618606.531 0                        41.000  
                  26568437.252   106980722.278          46.000  
 22  1 16 22  0 53.0000000  0  9G08G10G15G16G18G21G23G26G27
  22526004.309    22526001.504   118375021.484 0  92240277.288 0        45.000  
        45.000                                                  
  20819515.814    20819511.812   109407524.127 0  85252619.582 0        51.000  
        48.000                                                  
  24087477.445    24087472.048   126579875.345 0  98633670.756 0        37.000  
        37.000                                                  
  21656369.709                   113805677.404 0                        48.000  
                                                                
  22823799.100    22823793.864   119939465.573 0  93459335.631 0        42.000  
        42.000                                                  
  24346275.148                   127940716.557 0                        39.000  
                                                                
  21006829.259    21006824.417   110392137.573 0  86019492.045 0        47.000  
        48.000                                                  
  23537971.216    23537969.197   123693455.960 0  96384515.784 0        42.000  
        44.000                                                  
  20442672.076    20442668.198   107426604.581 0  83709044.376 0        50.000  
        49.000                                                  
 22  1 16 22  0 52.0000000  0  0
 22  1 16 22  0 53.0000000  0  6E07E12E18E19E24E26
  26896715.042                   141343319.550 0                        39.000  
                  26896713.916   108302027.409          44.000  
  23323388.427                   122565496.906 0                        43.000  
                  23323384.210    93913826.172          48.000  
  18031663.489                    94757030.76910                        51.000  
                  18031660.666    72606027.326          55.000  
  27537613.371                   144710458.911 0                        27.000  
                  27537606.938   110882291.479          34.000  
  25680024.597                   134949154.134 0                        46.000  
                  25680021.291   103402598.631          51.000  
  26568843.147                   139620722.920 0                        41.000  
                  26568839.895   106982343.920          46.000  
 22  1 16 22  0 54.0000000  0  9G08G10G15G16G18G21G23G26G27
  22525468.578    22525465.719   118372205.954 0  92238083.357 0        45.000  
        45.000                                                  
  20819309.838    20819305.961   109406441.926 0  85251776.306 0        51.000  
        48.000                                                  
  24087716.425    24087711.011   126581131.292 0  98634649.434 0        37.000  
        37.000                                                  
  21656781.108                   113807839.332 0                        48.000  
                                                                
  22824324.663    22824319.517   119942227.819 0  93461488.026 0        42.000  
        42.000                                                  
  24345780.301                   127938115.893 0                        39.000  
                                                                
  21007073.815    21007068.901   110393422.451 0  86020493.246 0        46.000  
        48.000                                                  
  23538630.940    23538628.832   123696923.181 0  96387217.505 0        42.000  
        44.000                                                  
  20442443.692    20442439.761   107425404.157 0  83708108.976 0        50.000  
        49.000                                                  
 22  1 16 22  0 53.0000000  0  0
 22  1 16 22  0 54.0000000  0  6E07E12E18E19E24E26
  26896770.578                   141343612.076 0                        39.000  
                  26896769.667   108302251.567          44.000  
  23323096.304                   122563961.785 0                        43.000  
                  23323092.087    93912649.917          48.000  
  18032159.980                    94759641.51210                        51.000  
                  18032157.496    72608027.764          55.000  
  27537040.401                   144707450.455 0                        27.000  
                  27537034.450   110879986.306          34.000  
  25680002.725                   134949039.831 0                        46.000  
                  25679999.580   103402511.044          51.000  
  26569245.736                   139622839.470 0                        41.000  
                  26569242.699   106983965.694          46.000  
 22  1 16 22  0 55.0000000  0  9G08G10G15G16G18G21G23G26G27
  22524932.793    22524929.988   118369390.600 0  92235889.582 0        45.000  
        45.000                                                  
  20819104.094    20819100.091   109405360.279 0  85250933.465 0        51.000  
        48.000                                                  
  24087955.405    24087950.062   126582387.838 0  98635628.542 0        37.000  
        37.000                                                  
  21657192.613                   113810001.766 0                        48.000  
                                                                
  22824850.281    22824845.206   119944990.153 0  93463640.503 0        42.000  
        42.000                                                  
  24345285.472                   127935515.309 0                        39.000  
                                                                
  21007318.549    21007313.492   110394707.865 0  86021494.872 0        47.000  
        47.000                                                  
  23539290.700    23539288.592   123700390.505 0  96389919.318 0        42.000  
        44.000                                                  
  20442215.290    20442211.484   107424204.147 0  83707173.910 0        50.000  
        49.000                                                  
 22  1 16 22  0 54.0000000  0  0
 22  1 16 22  0 55.0000000  0  6E07E12E18E19E24E26
  26896826.294                   141343905.051 0                        39.000  
                  26896825.436   108302476.043          44.000  
  23322804.324                   122562426.775 0                        44.000  
                  23322800.125    93911473.740          48.000  
  18032656.917                    94762253.67310                        51.000  
                  18032654.630    72610029.290          55.000  
  27536467.305                   144704442.038 0                        27.000  
                  27536461.945   110877681.157          35.000  
  25679980.978                   134948925.983 0                        46.000  
                  25679977.851   103402423.819          51.000  
  26569648.415                   139624956.038 0                        41.000  
                  26569645.466   106985587.473          46.000  
 22  1 16 22  0 56.0000000  0  9G08G10G15G16G18G21G23G26G27
  22524397.062    22524394.364   118366575.672 0  92233696.120 0        45.000  
        45.000                                                  
  20818898.386    20818894.401   109404279.416 0  85250091.232 0        51.000  
        48.000                                                  
  24088194.636    24088189.329   126583645.205 0  98636608.320 0        37.000  
        37.000                                                  
  21657604.334                   113812164.927 0                        48.000  
                                                                
  22825375.987    22825370.859   119947752.798 0  93465793.200 0        42.000  
        42.000                                                  
  24344790.678                   127932915.053 0                        39.000  
                                                                
  21007563.211    21007558.226   110395994.081 0  86022497.102 0        47.000  
        47.000                                                  
  23539950.621    23539948.602   123703858.145 0  96392621.378 0        43.000  
        44.000                                                  
  20441987.067    20441983.171   107423004.796 0  83706239.349 0        50.000  
        49.000                                                  
 22  1 16 22  0 55.0000000  0  0
 22  1 16 22  0 56.0000000  0  6E07E12E18E19E24E26
  26896882.313                   141344198.693 0                        39.000  
                  26896881.241   108302701.032          44.000  
  23322512.184                   122560892.070 0                        43.000  
                  23322508.002    93910297.807          48.000  
  18033154.337                    94764867.47410                        51.000  
                  18033151.907    72612032.070          55.000  
  27535894.925                   144701433.665 0                        27.000  
                  27535889.564   110875376.099          34.000  
  25679959.393                   134948812.825 0                        46.000  
                  25679956.391   103402337.107          51.000  
  26570051.147                   139627072.820 0                        40.000  
                  26570048.216   106987209.432          46.000  
 22  1 16 22  0 57.0000000  0  9G08G10G15G16G18G21G23G26G27
  22523861.349    22523858.686   118363760.990 0  92231502.859 0        45.000  
        45.000                                                  
  20818692.767    20818688.764   109403199.175 0  85249249.486 0        51.000  
        48.000                                                  
  24088434.081    24088428.756   126584903.261 0  98637588.612 0        37.000  
        37.000                                                  
  21658016.090                   113814328.660 0                        48.000  
                                                                
  22825901.676    22825896.565   119950515.587 0  93467946.032 0        42.000  
        42.000                                                  
  24344295.975                   127930314.985 0                        39.000  
                                                                
  21007808.142    21007803.067   110397280.898 0  86023499.824 0        47.000  
        47.000                                                  
  23540610.453    23540608.469   123707325.959 0  96395323.569 0        42.000  
        44.000                                                  
  20441758.879    20441754.966   107421805.936 0  83705305.170 0        50.000  
        49.000                                                  
 22  1 16 22  0 56.0000000  0  0
 22  1 16 22  0 57.0000000  0  6E07E12E18E19E24E26
  26896938.065                   141344492.842 0                        39.000  
                  26896937.189   108302926.423          44.000  
  23322220.097                   122559357.565 0                        43.000  
                  23322215.933    93909122.006          48.000  
  18033652.043                    94767482.76310                        51.000  
                  18033649.613    72614035.995          55.000  
  27535322.008                   144698425.398 0                        27.000  
                  27535317.005   110873071.015          34.000  
  25679938.093                   134948700.210 0                        46.000  
                  25679934.948   103402250.808          51.000  
  26570454.022                   139629189.702 0                        40.000  
                  26570451.198   106988831.453          46.000  
 22  1 16 22  0 58.0000000  0  9G08G10G15G16G18G21G23G26G27
  22523325.725    22523322.991   118360945.991 0  92229309.358 0        45.000  
        45.000                                                  
  20818487.255    20818483.253   109402118.987 0  85248407.783 0        51.000  
        48.000                                                  
  24088673.490    24088668.111   126586161.406 0  98638568.983 0        37.000  
        37.000                                                  
  21658427.881                   113816492.399 0                        48.000  
                                                                
  22826427.293    22826422.236   119953277.983 0  93470098.560 0        42.000  
        42.000                                                  
  24343801.146                   127927714.532 0                        39.000  
                                                                
  21008053.126    21008047.944   110398567.768 0  86024502.570 0        47.000  
        48.000                                                  
  23541270.302    23541268.229   123710793.380 0  96398025.459 0        42.000  
        44.000                                                  
  20441530.656    20441526.850   107420607.009 0  83704370.943 0        50.000  
        49.000                                                  
 22  1 16 22  0 57.0000000  0  0
 22  1 16 22  0 58.0000000  0  6E07E12E18E19E24E26
  26896994.048                   141344786.938 0                        39.000  
                  26896993.173   108303151.772          44.000  
  23321928.099                   122557822.672 0                        44.000  
                  23321923.900    93907945.915          48.000  
  18034149.713                    94770098.98810                        51.000  
                  18034147.515    72616040.635          55.000  
  27534749.110                   144695416.605 0                        27.000  
                  27534744.481   110870765.534          35.000  
  25679916.418                   134948587.539 0                        46.000  
                  25679913.577   103402164.478          51.000  
  26570856.593                   139631306.087 0                        40.000  
                  26570853.966   106990453.107          46.000  
 22  1 16 22  0 59.0000000  0  9G08G10G15G16G18G21G23G26G27
  22522790.136    22522787.331   118358131.400 0  92227116.163 0        45.000  
        45.000                                                  
  20818281.887    20818277.831   109401039.577 0  85247566.679 0        51.000  
        48.000                                                  
  24088913.113    24088907.717   126587420.381 0  98639549.986 0        38.000  
        37.000                                                  
  21658839.780                   113818656.866 0                        48.000  
                                                                
  22826953.018    22826947.943   119956040.687 0  93472251.309 0        42.000  
        42.000                                                  
  24343306.442                   127925114.417 0                        39.000  
                                                                
  21008298.146    21008292.911   110399855.413 0  86025505.937 0        47.000  
        47.000                                                  
  23541930.152    23541928.043   123714261.126 0  96400727.606 0        42.000  
        44.000                                                  
  20441302.612    20441298.752   107419408.721 0  83703437.210 0        50.000  
        49.000                                                  
 22  1 16 22  0 58.0000000  0  0
 22  1 16 22  0 59.0000000  0  6E07E12E18E19E24E26
  26897049.979                   141345081.701 0                        39.000  
                  26897049.228   108303377.633          44.000  
  23321636.191                   122556288.079 0                        44.000  
                  23321631.902    93906770.069          48.000  
  18034647.687                    94772716.84210                        51.000  
                  18034645.668    72618046.523          55.000  
  27534175.746                   144692407.862 0                        27.000  
                  27534172.101   110868460.197          34.000  
  25679895.136                   134948475.551 0                        46.000  
                  25679892.241   103402078.676          51.000  
  26571259.414                   139633422.720 0                        40.000  
                  26571256.627   106992074.928          46.000  
 22  1 16 22  1  0.0000000  0  9G08G10G15G16G18G21G23G26G27
  22522254.655    22522251.886   118355317.587 0  92224923.582 0        45.000  
        45.000                                                  
  20818076.697    20818072.712   109399961.314 0  85246726.479 0        51.000  
        48.000                                                  
  24089152.826    24089147.519   126588680.560 0  98640531.957 0        38.000  
        37.000                                                  
  21659251.947                   113820822.430 0                        48.000  
                                                                
  22827478.867    22827473.739   119958804.072 0  93474404.596 0        42.000  
        42.000                                                  
  24342811.827                   127922514.998 0                        39.000  
                                                                
  21008543.470    21008538.127   110401144.205 0  86026510.193 0        47.000  
        47.000                                                  
  23542590.144    23542588.143   123717729.568 0  96403430.277 0        42.000  
        44.000                                                  
  20441074.925    20441070.886   107418211.454 0  83702504.270 0        50.000  
        49.000                                                  
 22  1 16 22  0 59.0000000  0  0
 22  1 16 22  1  0.0000000  0  6E07E12E18E19E24E26
  26897106.320                   141345377.481 0                        39.000  
                  26897105.515   108303604.264          44.000  
  23321344.300                   122554754.196 0                        44.000  
                  23321340.029    93905594.754          48.000  
  18035146.233                    94775336.72110                        51.000  
                  18035144.249    72620053.965          55.000  
  27533602.508                   144689399.709 0                        27.000  
                  27533599.631   110866155.224          35.000  
  25679873.997                   134948364.626 0                        46.000  
                  25679871.048   103401993.681          51.000  
  26571662.254                   139635539.948 0                        40.000  
                  26571659.591   106993697.209          45.000  
 22  1 16 22  1  1.0000000  0  9G08G10G15G16G18G21G23G26G27
  22521719.389    22521716.476   118352504.014 0  92222731.190 0        45.000  
        45.000                                                  
  20817871.596    20817867.647   109398883.661 0  85245886.752 0        51.000  
        48.000                                                  
  24089392.682    24089387.429   126589941.363 0  98641514.429 0        38.000  
        37.000                                                  
  21659664.150                   113822988.534 0                        48.000  
                                                                
  22828004.717    22827999.535   119961567.595 0  93476557.992 0        42.000  
        42.000                                                  
  24342317.230                   127919915.728 0                        39.000  
                                                                
  21008788.830    21008783.469   110402433.593 0  86027514.908 0        47.000  
        47.000                                                  
  23543250.083    23543248.296   123721198.159 0  96406133.073 0        42.000  
        44.000                                                  
  20440847.237    20440843.145   107417014.663 0  83701571.715 0        50.000  
        49.000                                                  
 22  1 16 22  1  0.0000000  0  0
 22  1 16 22  1  1.0000000  0  6E07E12E18E19E24E26
  26897162.553                   141345673.775 0                        39.000  
                  26897161.964   108303831.301          44.000  
  23321052.499                   122553220.468 0                        44.000  
                  23321048.139    93904419.564          48.000  
  18035645.100                    94777958.07510                        51.000  
                  18035643.045    72622062.537          55.000  
  27533029.180                   144686391.524 0                        27.000  
                  27533027.054   110863850.307          34.000  
  25679853.126                   134948254.215 0                        46.000  
                  25679850.052   103401909.080          51.000  
  26572065.147                   139637657.220 0                        40.000  
                  26572062.466   106995319.563          45.000  
 22  1 16 22  1  2.0000000  0  9G08G10G15G16G18G21G23G26G27
  22521183.872    22521181.031   118349689.993 0  92220538.443 0        45.000  
        45.000                                                  
  20817666.531    20817662.475   109397805.926 0  85245046.961 0        51.000  
        48.000                                                  
  24089632.610    24089627.303   126591202.161 0  98642496.868 0        38.000  
        37.000                                                  
  21660076.352                   113825154.521 0                        48.000  
                                                                
  22828530.513    22828525.367   119964330.598 0  93478710.968 0        42.000  
        42.000                                                  
  24341822.437                   127917315.936 0                        39.000  
                                                                
  21009034.207    21009028.757   110403722.896 0  86028519.557 0        47.000  
        47.000                                                  
  23543910.021    23543908.252   123724666.222 0  96408835.464 0        42.000  
        44.000                                                  
  20440619.479    20440615.298   107415817.672 0  83700638.997 0        50.000  
        49.000                                                  
 22  1 16 22  1  1.0000000  0  0
 22  1 16 22  1  2.0000000  0  6E07E12E18E19E24E26
  26897219.216                   141345969.888 0                        39.000  
                  26897218.251   108304058.181          44.000  
  23320760.465                   122551686.206 0                        44.000  
                  23320756.123    93903243.963          48.000  
  18036144.039                    94780580.21610                        51.000  
                  18036142.020    72624071.708          55.000  
  27532455.853                   144683382.717 0                        27.000  
                  27532454.459   110861544.796          34.000  
  25679832.040                   134948143.636 0                        46.000  
                  25679829.092   103401824.349          51.000  
  26572467.968                   139639773.890 0                        40.000  
                  26572465.198   106996941.427          45.000  
 22  1 16 22  1  3.0000000  0  9G08G10G15G16G18G21G23G26G27
  22520648.462    22520645.550   118346876.209 0  92218345.884 0        45.000  
        45.000                                                  
  20817461.574    20817457.499   109396728.816 0  85244207.650 0        51.000  
        48.000                                                  
  24089872.716    24089867.373   126592463.621 0  98643479.813 0        38.000  
        37.000                                                  
  21660488.644                   113827321.092 0                        48.000  
                                                                
  22829056.327    22829051.199   119967093.722 0  93480864.061 0        42.000  
        42.000                                                  
  24341327.769                   127914716.320 0                        39.000  
                                                                
  21009279.710    21009274.170   110405012.821 0  86029524.696 0        47.000  
        48.000                                                  
  23544570.032    23544568.209   123728134.444 0  96411537.977 0        42.000  
        44.000                                                  
  20440391.756    20440387.646   107414621.171 0  83699706.656 0        50.000  
        49.000                                                  
 22  1 16 22  1  2.0000000  0  0
 22  1 16 22  1  3.0000000  0  6E07E12E18E19E24E26
  26897275.629                   141346266.487 0                        39.000  
                  26897274.628   108304285.450          44.000  
  23320468.557                   122550152.130 0                        44.000  
                  23320464.233    93902068.497          48.000  
  18036643.300                    94783203.83910                        51.000  
                  18036641.155    72626082.016          55.000  
  27531882.775                   144680373.851 0                        27.000  
                  27531881.900   110859239.360          34.000  
  25679811.062                   134948033.576 0                        46.000  
                  25679808.078   103401740.018          51.000  
  26572870.771                   139641890.643 0                        40.000  
                  26572868.127   106998563.346          45.000  
 22  1 16 22  1  4.0000000  0  9G08G10G15G16G18G21G23G26G27
  22520113.035    22520110.069   118344062.704 0  92216153.540 0        44.000  
        45.000                                                  
  20817256.795    20817252.649   109395652.314 0  85243368.826 0        51.000  
        48.000                                                  
  24090112.875    24090107.497   126593725.766 0  98644463.298 0        38.000  
        37.000                                                  
  21660901.043                   113829488.208 0                        48.000  
                                                                
  22829582.230    22829577.048   119969857.004 0  93483017.261 0        42.000  
        42.000                                                  
  24340833.083                   127912116.868 0                        39.000  
                                                                
  21009525.355    21009519.744   110406303.347 0  86030530.301 0        46.000  
        47.000                                                  
  23545229.935    23545228.344   123731602.836 0  96414240.602 0        42.000  
        45.000                                                  
  20440164.105    20440160.138   107413425.149 0  83698774.691 0        50.000  
        49.000                                                  
 22  1 16 22  1  3.0000000  0  0
 22  1 16 22  1  4.0000000  0  6E07E12E18E19E24E26
  26897332.130                   141346563.594 0                        39.000  
                  26897331.112   108304513.095          44.000  
  23320176.595                   122548618.202 0                        44.000  
                  23320172.396    93900893.151          48.000  
  18037142.596                    94785828.94410                        51.000  
                  18037140.845    72628093.458          55.000  
  27531309.573                   144677364.982 0                        27.000  
                  27531309.251   110856933.865          34.000  
  25679790.084                   134947924.042 0                        46.000  
                  25679787.207   103401656.087          51.000  
  26573273.682                   139644007.466 0                        40.000  
                  26573270.984   107000185.318          45.000  
 22  1 16 22  1  5.0000000  0  9G08G10G15G16G18G21G23G26G27
  22519577.697    22519574.766   118341249.938 0  92213961.791 0        44.000  
        45.000                                                  
  20817052.230    20817048.031   109394576.953 0  85242530.878 0        51.000  
        48.000                                                  
  24090353.321    24090347.853   126594989.075 0  98645447.693 0        38.000  
        37.000                                                  
  21661313.603                   113831656.413 0                        48.000  
                                                                
  22830108.258    22830102.969   119972620.963 0  93485171.012 0        42.000  
        42.000                                                  
  24340338.629                   127909518.112 0                        39.000  
                                                                
  21009771.197    21009765.515   110407595.015 0  86031536.793 0        46.000  
        47.000                                                  
  23545890.106    23545888.533   123735071.897 0  96416943.775 0        42.000  
        45.000                                                  
  20439936.775    20439932.576   107412230.142 0  83697843.516 0        50.000  
        49.000                                                  
 22  1 16 22  1  4.0000000  0  0
 22  1 16 22  1  5.0000000  0  6E07E12E18E19E24E26
  26897388.900                   141346861.725 0                        39.000  
                  26897387.846   108304741.544          44.000  
  23319884.776                   122547084.974 0                        44.000  
                  23319880.631    93899718.337          48.000  
  18037642.678                    94788456.06110                        51.000  
                  18037640.659    72630106.444          55.000  
  27530736.424                   144674356.697 0                        27.000  
                  27530736.888   110854628.804          34.000  
  25679769.534                   134947815.553 0                        46.000  
                  25679766.693   103401572.961          51.000  
  26573676.593                   139646124.893 0                        40.000  
                  26573673.823   107001807.763          45.000  
 22  1 16 22  1  6.0000000  0  9G08G10G15G16G18G21G23G26G27
  22519042.448    22519039.553   118338437.302 0  92211770.113 0        44.000  
        45.000                                                  
  20816847.612    20816843.520   109393502.068 0  85241693.302 0        51.000  
        48.000                                                  
  24090593.820    24090588.370   126596252.901 0  98646432.506 0        38.000  
        37.000                                                  
  21661726.181                   113833825.047 0                        48.000  
                                                                
  22830634.180    22830628.890   119975384.929 0  93487324.740 0        42.000  
        42.000                                                  
  24339844.086                   127906919.396 0                        39.000  
                                                                
  21010017.200    21010011.321   110408887.150 0  86032543.644 0        46.000  
        47.000                                                  
  23546550.241    23546548.704   123738540.990 0  96419646.960 0        42.000  
        45.000                                                  
  20439709.410    20439705.210   107411035.478 0  83696912.609 0        50.000  
        49.000                                                  
 22  1 16 22  1  5.0000000  0  0
 22  1 16 22  1  6.0000000  0  6E07E12E18E19E24E26
  26897445.688                   141347160.223 0                        39.000  
                  26897444.705   108304970.254          44.000  
  23319593.082                   122545551.760 0                        44.000  
                  23319588.847    93898543.539          48.000  
  18038142.636                    94791084.50510                        51.000  
                  18038140.920    72632120.447          55.000  
  27530163.221                   144671348.198 0                        27.000  
                  27530164.472   110852323.625          34.000  
  25679748.913                   134947707.436 0                        46.000  
                  25679746.037   103401490.122          51.000  
  26574079.236                   139648242.233 0                        40.000  
                  26574076.645   107003430.151          45.000  
 22  1 16 22  1  7.0000000  0  9G08G10G15G16G18G21G23G26G27
  22518507.253    22518504.430   118335624.603 0  92209578.404 0        44.000  
        45.000                                                  
  20816643.190    20816638.991   109392427.478 0  85240855.960 0        51.000  
        48.000                                                  
  24090834.337    24090828.923   126597517.099 0  98647417.559 0        38.000  
        37.000                                                  
  21662138.866                   113835993.921 0                        48.000  
                                                                
  22831160.154    22831154.793   119978148.728 0  93489478.358 0        42.000  
        42.000                                                  
  24339349.543                   127904320.505 0                        39.000  
                                                                
  21010263.149    21010257.235   110410179.572 0  86033550.731 0        46.000  
        47.000                                                  
  23547210.341    23547208.911   123742009.930 0  96422350.031 0        42.000  
        44.000                                                  
  20439482.116    20439477.881   107409840.984 0  83695981.837 0        50.000  
        49.000                                                  
 22  1 16 22  1  6.0000000  0  0
 22  1 16 22  1  7.0000000  0  6E07E12E18E19E24E26
  26897502.512                   141347458.897 0                        39.000  
                  26897501.511   108305199.120          44.000  
  23319301.442                   122544018.405 0                        44.000  
                  23319297.064    93897368.632          48.000  
  18038643.111                    94793714.13210                        51.000  
                  18038641.235    72634135.349          55.000  
  27529590.323                   144668339.490 0                        27.000  
                  27529591.824   110850018.161          34.000  
  25679728.221                   134947599.548 0                        46.000  
                  25679725.434   103401407.444          51.000  
  26574482.146                   139650359.329 0                        40.000  
                  26574479.537   107005052.346          45.000  
 22  1 16 22  1  8.0000000  0  9G08G10G15G16G18G21G23G26G27
  22517972.022    22517969.128   118332811.967 0  92207386.735 0        44.000  
        45.000                                                  
  20816438.715    20816434.605   109391353.324 0  85240018.961 0        51.000  
        48.000                                                  
  24091075.086    24091069.511   126598781.738 0  98648403.019 0        38.000  
        37.000                                                  
  21662551.730                   113838163.186 0                        48.000  
                                                                
  22831686.075    22831680.697   119980912.503 0  93491631.940 0        42.000  
        42.000                                                  
  24338855.071                   127901721.605 0                        39.000  
                                                                
  21010509.134    21010503.238   110411472.431 0  86034558.158 0        46.000  
        47.000                                                  
  23547870.458    23547869.046   123745478.845 0  96425053.081 0        42.000  
        44.000                                                  
  20439254.822    20439250.658   107408646.799 0  83695051.299 0        50.000  
        49.000                                                  
 22  1 16 22  1  7.0000000  0  0
 22  1 16 22  1  8.0000000  0  6E07E12E18E19E24E26
  26897559.335                   141347757.920 0                        39.000  
                  26897558.388   108305428.221          44.000  
  23319009.730                   122542485.041 0                        44.000  
                  23319005.173    93896193.704          48.000  
  18039143.855                    94796345.03510                        51.000  
                  18039141.836    72636151.236          55.000  
  27529017.209                   144665330.574 0                        27.000  
                  27529019.175   110847712.606          34.000  
  25679707.725                   134947491.977 0                        46.000  
                  25679705.081   103401325.021          51.000  
  26574884.753                   139652476.331 0                        40.000  
                  26574882.448   107006674.453          45.000  
 22  1 16 22  1  9.0000000  0  9G08G10G15G16G18G21G23G26G27
  22517436.774    22517433.950   118329999.815 0  92205195.447 0        44.000  
        45.000                                                  
  20816234.490    20816230.291   109390280.055 0  85239182.639 0        51.000  
        48.000                                                  
  24091315.854    24091310.350   126600047.325 0  98649389.206 0        38.000  
        37.000                                                  
  21662964.719                   113840333.278 0                        48.000  
                                                                
  22832212.032    22832206.779   119983676.668 0  93493785.853 0        42.000  
        42.000                                                  
  24338360.528                   127899123.139 0                        39.000  
                                                                
  21010755.226    21010749.508   110412766.168 0  86035566.256 0        46.000  
        47.000                                                  
  23548530.647    23548529.343   123748948.196 0  96427756.458 0        42.000  
        44.000                                                  
  20439027.688    20439023.561   107407453.367 0  83694121.350 0        50.000  
        49.000                                                  
 22  1 16 22  1  8.0000000  0  0
 22  1 16 22  1  9.0000000  0  6E07E12E18E19E24E26
  26897616.284                   141348057.689 0                        39.000  
                  26897615.587   108305657.909          44.000  
  23318718.054                   122540952.091 0                        44.000  
                  23318713.515    93895019.110          48.000  
  18039644.777                    94798977.69910                        51.000  
                  18039642.883    72638168.476          55.000  
  27528444.329                   144662321.911 0                        27.000  
                  27528446.634   110845407.293          34.000  
  25679687.498                   134947385.198 0                        45.000  
                  25679684.674   103401243.211          51.000  
  26575287.843                   139654593.656 0                        40.000  
                  26575285.359   107008296.821          45.000  
 22  1 16 22  1 10.0000000  0  9G08G10G15G16G18G21G23G26G27
  22516901.632    22516898.845   118327187.944 0  92203004.382 0        44.000  
        45.000                                                  
  20816030.426    20816026.209   109389207.438 0  85238346.844 0        51.000  
        48.000                                                  
  24091556.835    24091551.350   126601313.621 0  98650375.881 0        38.000  
        37.000                                                  
  21663377.744                   113842503.966 0                        48.000  
                                                                
  22832738.114    22832732.789   119986441.042 0  93495939.886 0        42.000  
        42.000                                                  
  24337866.075                   127896524.873 0                        39.000  
                                                                
  21011001.587    21010995.726   110414060.547 0  86036574.865 0        46.000  
        47.000                                                  
  23549190.800    23549189.406   123752417.744 0  96430460.002 0        42.000  
        44.000                                                  
  20438800.627    20438796.535   107406260.458 0  83693191.810 0        50.000  
        49.000                                                  
 22  1 16 22  1  9.0000000  0  0
 22  1 16 22  1 10.0000000  0  6E07E12E18E19E24E26
  26897673.464                   141348357.986 0                        39.000  
                  26897672.678   108305888.027          44.000  
  23318426.306                   122539419.346 0                        44.000  
                  23318421.839    93893844.676          48.000  
  18040145.825                    94801611.88910                        51.000  
                  18040144.109    72640186.875          55.000  
  27527871.340                   144659313.224 0                        27.000  
                  27527874.199   110843101.956          34.000  
  25679667.449                   134947279.004 0                        45.000  
                  25679664.482   103401161.834          51.000  
  26575690.896                   139656711.124 0                        40.000  
                  26575688.216   107009919.293          45.000  
 22  1 16 22  1 11.0000000  0  9G08G10G15G16G18G21G23G26G27
  22516366.508    22516363.935   118324376.155 0  92200813.373 0        44.000  
        45.000                                                  
  20815826.326    20815822.216   109388135.270 0  85237511.391 0        51.000  
        48.000                                                  
  24091797.871    24091792.367   126602580.393 0  98651363.006 0        38.000  
        37.000                                                  
  21663790.929                   113844675.056 0                        48.000  
                                                                
  22833264.160    22833258.907   119989205.401 0  93498093.936 0        42.000  
        42.000                                                  
  24337371.639                   127893926.633 0                        39.000  
                                                                
  21011247.947    21011242.068   110415355.369 0  86037583.822 0        46.000  
        47.000                                                  
  23549851.061    23549849.649   123755887.272 0  96433163.532 0        42.000  
        44.000                                                  
  20438573.690    20438569.598   107405067.872 0  83692262.527 0        50.000  
        49.000                                                  
 22  1 16 22  1 10.0000000  0  0
 22  1 16 22  1 11.0000000  0  6E07E12E18E19E24E26
  26897730.663                   141348658.646 0                        39.000  
                  26897729.859   108306118.392          44.000  
  23318134.613                   122537886.611 0                        44.000  
                  23318130.217    93892670.236          48.000  
  18040647.337                    94804247.38510                        51.000  
                  18040645.711    72642206.283          55.000  
  27527298.424                   144656304.484 0                        27.000  
                  27527301.605   110840796.540          34.000  
  25679647.078                   134947173.146 0                        45.000  
                  25679644.362   103401080.720          51.000  
  26576093.718                   139658828.470 0                        40.000  
                  26576091.091   107011541.665          45.000  
 22  1 16 22  1 12.0000000  0  9G08G10G15G16G18G21G23G26G27
  22515831.438    22515829.008   118321564.464 0  92198622.458 0        44.000  
        45.000                                                  
  20815622.369    20815618.277   109387063.606 0  85236676.319 0        51.000  
        48.000                                                  
  24092038.995    24092033.456   126603847.714 0  98652350.540 0        38.000  
        37.000                                                  
  21664204.186                   113846846.609 0                        48.000  
                                                                
  22833790.224    22833785.006   119991969.777 0  93500248.000 0        42.000  
        42.000                                                  
  24336877.167                   127891328.437 0                        39.000  
                                                                
  21011494.468    21011488.625   110416650.696 0  86038593.168 0        46.000  
        47.000                                                  
  23550511.410    23550509.766   123759356.861 0  96435867.108 0        42.000  
        44.000                                                  
  20438346.879    20438342.787   107403875.667 0  83691333.532 0        50.000  
        49.000                                                  
 22  1 16 22  1 11.0000000  0  0
 22  1 16 22  1 12.0000000  0  6E07E12E18E19E24E26
  26897787.933                   141348959.689 0                        39.000  
                  26897787.111   108306349.054          44.000  
  23317843.062                   122536353.928 0                        44.000  
                  23317838.523    93891495.840          48.000  
  18041149.331                    94806884.24510                        51.000  
                  18041147.401    72644226.736          55.000  
  27526725.757                   144653295.518 0                        27.000  
                  27526729.010   110838490.998          34.000  
  25679626.993                   134947067.700 0                        46.000  
                  25679624.277   103400999.924          51.000  
  26576496.486                   139660945.786 0                        40.000  
                  26576494.127   107013164.024          45.000  
 22  1 16 22  1 13.0000000  0  9G08G10G15G16G18G21G23G26G27
  22515296.386    22515294.045   118318753.248 0  92196431.898 0        44.000  
        45.000                                                  
  20815418.572    20815414.498   109385992.767 0  85235841.902 0        51.000  
        48.000                                                  
  24092280.424    24092274.705   126605115.927 0  98653338.751 0        38.000  
        37.000                                                  
  21664617.443                   113849018.920 0                        48.000  
                                                                
  22834316.431    22834311.213   119994734.512 0  93502402.337 0        42.000  
        42.000                                                  
  24336382.749                   127888730.596 0                        39.000  
                                                                
  21011741.114    21011735.235   110417946.828 0  86039603.134 0        46.000  
        47.000                                                  
  23551171.724    23551169.955   123762826.814 0  96438570.956 0        43.000  
        44.000                                                  
  20438120.049    20438116.029   107402684.146 0  83690405.069 0        50.000  
        49.000                                                  
 22  1 16 22  1 12.0000000  0  0
 22  1 16 22  1 13.0000000  0  6E07E12E18E19E24E26
  26897845.418                   141349261.423 0                        39.000  
                  26897844.668   108306580.265          44.000  
  23317551.528                   122534821.591 0                        44.000  
                  23317546.847    93890321.717          48.000  
  18041651.522                    94809522.79210                        51.000  
                  18041649.539    72646248.471          55.000  
  27526153.341                   144650286.802 0                        27.000  
                  27526156.540   110836185.615          34.000  
  25679607.159                   134946962.972 0                        45.000  
                  25679604.353   103400919.680          51.000  
  26576899.468                   139663063.360 0                        40.000  
                  26576897.038   107014786.597          45.000  
 22  1 16 22  1 14.0000000  0  9G08G10G15G16G18G21G23G26G27
  22514761.513    22514759.083   118315942.146 0  92194241.424 0        44.000  
        45.000                                                  
  20815214.937    20815210.881   109384922.415 0  85235007.854 0        51.000  
        48.000                                                  
  24092521.888    24092516.134   126606384.659 0  98654327.380 0        38.000  
        37.000                                                  
  21665030.878                   113851191.670 0                        48.000  
                                                                
  22834842.549    22834837.367   119997499.296 0  93504556.717 0        42.000  
        42.000                                                  
  24335888.474                   127886132.788 0                        39.000  
                                                                
  21011987.903    21011982.060   110419243.452 0  86040613.495 0        46.000  
        47.000                                                  
  23551832.128    23551830.144   123766296.799 0  96441274.838 0        43.000  
        44.000                                                  
  20437893.506    20437889.396   107401492.989 0  83689476.899 0        50.000  
        49.000                                                  
 22  1 16 22  1 13.0000000  0  0
 22  1 16 22  1 14.0000000  0  6E07E12E18E19E24E26
  26897902.992                   141349563.572 0                        39.000  
                  26897902.116   108306811.772          44.000  
  23317259.781                   122533289.316 0                        44.000  
                  23317255.349    93889147.642          48.000  
  18042153.713                    94812162.69510                        51.000  
                  18042151.891    72648271.252          55.000  
  27525580.299                   144647278.006 0                        27.000  
                  27525583.927   110833880.161          34.000  
  25679587.217                   134946858.659 0                        46.000  
                  25679584.590   103400839.749          51.000  
  26577302.611                   139665180.911 0                        40.000  
                  26577299.984   107016409.122          45.000  
 22  1 16 22  1 15.0000000  0  9G08G10G15G16G18G21G23G26G27
  22514226.639    22514224.245   118313131.152 0  92192051.033 0        44.000  
        45.000                                                  
  20815011.373    20815007.263   109383852.527 0  85234174.187 0        51.000  
        48.000                                                  
  24092763.352    24092757.687   126607653.890 0  98655316.394 0        38.000  
        37.000                                                  
  21665444.475                   113853364.841 0                        48.000  
                                                                
  22835368.666    22835363.556   120000264.054 0  93506711.078 0        42.000  
        42.000                                                  
  24335394.163                   127883535.044 0                        39.000  
                                                                
  21012234.817    21012228.813   110420540.528 0  86041624.208 0        46.000  
        47.000                                                  
  23552492.513    23552490.494   123769766.793 0  96443978.741 0        43.000  
        44.000                                                  
  20437666.909    20437662.799   107400302.169 0  83688548.988 0        50.000  
        49.000                                                  
 22  1 16 22  1 14.0000000  0  0
 22  1 16 22  1 15.0000000  0  6E07E12E18E19E24E26
  26897960.512                   141349866.016 0                        39.000  
                  26897959.530   108307043.545          44.000  
  23316968.284                   122531757.067 0                        44.000  
                  23316963.798    93887973.573          48.000  
  18042656.333                    94814803.92810                        51.000  
                  18042654.475    72650295.063          55.000  
  27525007.258                   144644269.043 0                        27.000  
                  27525011.457   110831574.581          34.000  
  25679567.400                   134946754.706 0                        46.000  
                  25679564.755   103400760.104          51.000  
  26577705.611                   139667298.365 0                        40.000  
                  26577702.877   107018031.591          45.000  
 22  1 16 22  1 16.0000000  0  9G08G10G15G16G18G21G23G26G27
  22513691.730    22513689.497   118310320.280 0  92189860.756 0        44.000  
        45.000                                                  
  20814807.809    20814803.771   109382783.173 0  85233340.912 0        51.000  
        48.000                                                  
  24093004.977    24092999.312   126608923.735 0  98656305.874 0        38.000  
        37.000                                                  
  21665858.089                   113855538.495 0                        48.000  
                                                                
  22835894.802    22835889.691   120003028.895 0  93508865.483 0        42.000  
        42.000                                                  
  24334899.817                   127880937.350 0                        39.000  
                                                                
  21012481.803    21012475.710   110421838.147 0  86042635.335 0        46.000  
        47.000                                                  
  23553152.827    23553150.844   123773236.887 0  96446682.701 0        43.000  
        44.000                                                  
  20437440.365    20437436.220   107399111.757 0  83687621.397 0        50.000  
        49.000                                                  
 22  1 16 22  1 15.0000000  0  0
 22  1 16 22  1 16.0000000  0  6E07E12E18E19E24E26
  26898018.158                   141350168.948 0                        39.000  
                  26898017.300   108307275.637          44.000  
  23316676.715                   122530224.880 0                        44.000  
                  23316672.230    93886799.568          48.000  
  18043159.257                    94817446.56310                        51.000  
                  18043157.434    72652319.932          55.000  
  27524434.698                   144641259.995 0                        27.000  
                  27524438.773   110829268.983          34.000  
  25679547.744                   134946651.193 0                        46.000  
                  25679545.028   103400680.784          51.000  
  26578108.432                   139669415.816 0                        40.000  
                  26578105.859   107019654.054          45.000  
 22  1 16 22  1 17.0000000  0  9G08G10G15G16G18G21G23G26G27
  22513156.964    22513154.695   118307509.841 0  92187670.795 0        45.000  
        45.000                                                  
  20814604.495    20814600.475   109381714.591 0  85232508.258 0        51.000  
        48.000                                                  
  24093246.745    24093241.223   126610194.380 0  98657295.980 0        38.000  
        37.000                                                  
  21666271.810                   113857712.860 0                        48.000  
                                                                
  22836421.063    22836416.006   120005794.025 0  93511020.137 0        42.000  
        42.000                                                  
  24334405.631                   127878339.999 0                        39.000  
                                                                
  21012728.806    21012722.838   110423136.511 0  86043647.057 0        46.000  
        47.000                                                  
  23553813.320    23553811.176   123776707.268 0  96449386.892 0        43.000  
        44.000                                                  
  20437213.929    20437209.730   107397921.988 0  83686694.301 0        50.000  
        49.000                                                  
 22  1 16 22  1 16.0000000  0  0
 22  1 16 22  1 17.0000000  0  6E07E12E18E19E24E26
  26898075.875                   141350472.505 0                        39.000  
                  26898075.071   108307508.228          44.000  
  23316385.235                   122528693.016 0                        44.000  
                  23316380.696    93885625.798          48.000  
  18043662.431                    94820090.82410                        51.000  
                  18043660.572    72654346.054          55.000  
  27523861.961                   144638251.076 0                        27.000  
                  27523866.178   110826963.468          35.000  
  25679528.177                   134946548.364 0                        46.000  
                  25679525.551   103400601.996          51.000  
  26578511.289                   139671533.499 0                        40.000  
                  26578508.788   107021276.690          45.000  
 22  1 16 22  1 18.0000000  0  9G08G10G15G16G18G21G23G26G27
  22512622.144    22512619.964   118304699.663 0  92185481.058 0        45.000  
        45.000                                                  
  20814401.289    20814397.215   109380646.633 0  85231676.079 0        51.000  
        48.000                                                  
  24093488.709    24093483.098   126611465.701 0  98658286.642 0        38.000  
        37.000                                                  
  21666685.603                   113859887.788 0                        48.000  
                                                                
  22836947.287    22836942.123   120008559.309 0  93513174.915 0        42.000  
        42.000                                                  
  24333911.499                   127875742.810 0                        39.000  
                                                                
  21012975.846    21012969.985   110424435.503 0  86044659.254 0        46.000  
        47.000                                                  
  23554473.688    23554471.633   123780177.820 0  96452091.229 0        43.000  
        44.000                                                  
  20436987.689    20436983.419   107396732.712 0  83685767.590 0        50.000  
        49.000                                                  
 22  1 16 22  1 17.0000000  0  0
 22  1 16 22  1 18.0000000  0  6E07E12E18E19E24E26
  26898133.681                   141350776.558 0                        39.000  
                  26898133.002   108307741.217          44.000  
  23316093.506                   122527161.331 0                        44.000  
                  23316089.217    93884452.173          48.000  
  18044165.837                    94822736.57210                        51.000  
                  18044164.014    72656373.318          55.000  
  27523289.080                   144635242.196 0                        28.000  
                  27523293.654   110824657.978          34.000  
  25679508.807                   134946446.060 0                        45.000  
                  25679506.038   103400523.607          51.000  
  26578914.432                   139673651.237 0                        40.000  
                  26578911.931   107022899.384          45.000  
 22  1 16 22  1 19.0000000  0  9G08G10G15G16G18G21G23G26G27
  22512087.539    22512085.323   118301889.821 0  92183291.567 0        45.000  
        45.000                                                  
  20814198.261    20814194.080   109379579.395 0  85230844.464 0        51.000  
        48.000                                                  
  24093730.816    24093725.188   126612737.787 0  98659277.883 0        38.000  
        37.000                                                  
  21667099.611                   113862063.400 0                        48.000  
                                                                
  22837473.566    22837468.545   120011324.856 0  93515329.880 0        42.000  
        42.000                                                  
  24333417.278                   127873145.885 0                        39.000  
                                                                
  21013223.171    21013217.310   110425735.209 0  86045672.018 0        46.000  
        47.000                                                  
  23555134.180    23555132.197   123783648.656 0  96454795.777 0        43.000  
        44.000                                                  
  20436761.521    20436757.286   107395544.032 0  83684841.341 0        50.000  
        49.000                                                  
 22  1 16 22  1 18.0000000  0  0
 22  1 16 22  1 19.0000000  0  6E07E12E18E19E24E26
  26898191.827                   141351081.233 0                        39.000  
                  26898190.898   108307974.671          44.000  
  23315802.330                   122525629.918 0                        44.000  
                  23315797.791    93883278.742          48.000  
  18044669.832                    94825383.91410                        51.000  
                  18044667.724    72658401.794          55.000  
  27522716.199                   144632233.450 0                        28.000  
                  27522721.077   110822352.564          35.000  
  25679489.420                   134946344.391 0                        45.000  
                  25679486.596   103400445.702          51.000  
  26579317.486                   139675769.196 0                        40.000  
                  26579314.841   107024522.219          45.000  
 22  1 16 22  1 20.0000000  0  9G08G10G15G16G18G21G23G26G27
  22511552.951    22511550.646   118299079.925 0  92181102.029 0        45.000  
        45.000                                                  
  20813995.144    20813991.088   109378512.474 0  85230013.092 0        51.000  
        48.000                                                  
  24093972.977    24093967.349   126614010.252 0  98660269.393 0        38.000  
        37.000                                                  
  21667513.600                   113864239.264 0                        48.000  
                                                                
  22837999.791    22837994.770   120014090.257 0  93517484.733 0        42.000  
        42.000                                                  
  24332923.003                   127870548.824 0                        39.000  
                                                                
  21013470.496    21013464.689   110427035.222 0  86046685.009 0        46.000  
        47.000                                                  
  23555794.619    23555792.618   123787119.331 0  96457500.204 0        43.000  
        44.000                                                  
  20436535.371    20436531.082   107394355.530 0  83683915.241 0        50.000  
        49.000                                                  
 22  1 16 22  1 19.0000000  0  0
 22  1 16 22  1 20.0000000  0  6E07E12E18E19E24E26
  26898249.866                   141351386.114 0                        39.000  
                  26898248.883   108308208.263          44.000  
  23315510.922                   122524098.353 0                        43.000  
                  23315506.347    93882105.214          48.000  
  18045173.900                    94828032.42110                        51.000  
                  18045171.755    72660431.170          55.000  
  27522143.908                   144629224.381 0                        28.000  
                  27522148.500   110820046.898          34.000  
  25679470.050                   134946242.923 0                        46.000  
                  25679467.423   103400367.956          51.000  
  26579720.379                   139677886.885 0                        40.000  
                  26579717.842   107026144.877          45.000  
 22  1 16 22  1 21.0000000  0  9G08G10G15G16G18G21G23G26G27
  22511018.364    22511016.005   118296270.234 0  92178912.667 0        45.000  
        45.000                                                  
  20813792.241    20813788.167   109377446.127 0  85229182.178 0        51.000  
        48.000                                                  
  24094215.174    24094209.599   126615283.324 0  98661261.409 0        38.000  
        37.000                                                  
  21667927.858                   113866415.668 0                        48.000  
                                                                
  22838525.944    22838520.959   120016855.769 0  93519639.682 0        42.000  
        42.000                                                  
  24332428.835                   127867951.914 0                        39.000  
                                                                
  21013718.107    21013712.121   110428335.820 0  86047698.466 0        46.000  
        47.000                                                  
  23556455.058    23556453.075   123790590.141 0  96460204.722 0        43.000  
        44.000                                                  
  20436309.292    20436305.075   107393167.492 0  83682989.488 0        50.000  
        49.000                                                  
 22  1 16 22  1 20.0000000  0  0
 22  1 16 22  1 21.0000000  0  6E07E12E18E19E24E26
  26898308.029                   141351691.469 0                        39.000  
                  26898306.903   108308442.235          44.000  
  23315219.389                   122522566.941 0                        44.000  
                  23315214.868    93880931.792          48.000  
  18045678.199                    94830682.38110                        51.000  
                  18045676.001    72662461.661          55.000  
  27521571.545                   144626215.280 0                        28.000  
                  27521575.833   110817741.250          35.000  
  25679450.930                   134946141.972 0                        46.000  
                  25679448.178   103400290.602          51.000  
  26580123.593                   139680004.635 0                        40.000  
                  26580120.752   107027767.567          45.000  
 22  1 16 22  1 22.0000000  0  9G08G10G15G16G18G21G23G26G27
  22510483.758    22510481.399   118293460.791 0  92176723.490 0        45.000  
        45.000                                                  
  20813589.374    20813585.300   109376380.403 0  85228351.750 0        51.000  
        48.000                                                  
  24094457.603    24094451.992   126616557.066 0  98662253.910 0        38.000  
        37.000                                                  
  21668342.169                   113868592.612 0                        48.000  
                                                                
  22839052.258    22839047.255   120019621.419 0  93521794.723 0        42.000  
        42.000                                                  
  24331934.703                   127865355.159 0                        39.000  
                                                                
  21013965.718    21013959.732   110429637.004 0  86048712.378 0        46.000  
        47.000                                                  
  23557115.676    23557113.586   123794061.100 0  96462909.368 0        43.000  
        44.000                                                  
  20436083.320    20436078.978   107391979.921 0  83682064.117 0        50.000  
        49.000                                                  
 22  1 16 22  1 21.0000000  0  0
 22  1 16 22  1 22.0000000  0  6E07E12E18E19E24E26
  26898366.139                   141351997.306 0                        39.000  
                  26898365.139   108308676.588          44.000  
  23314928.052                   122521035.684 0                        44.000  
                  23314923.496    93879758.483          48.000  
  18046182.624                    94833333.80810                        51.000  
                  18046180.551    72664493.266          55.000  
  27520999.075                   144623206.200 0                        28.000  
                  27521003.292   110815435.542          35.000  
  25679431.792                   134946041.523 0                        46.000  
                  25679429.040   103400213.637          51.000  
  26580526.504                   139682122.438 0                        40.000  
                  26580523.842   107029390.302          45.000  
 22  1 16 22  1 23.0000000  0  9G08G10G15G16G18G21G23G26G27
  22509949.224    22509946.883   118290651.687 0  92174534.578 0        45.000  
        45.000                                                  
  20813386.722    20813382.612   109375315.395 0  85227521.865 0        51.000  
        48.000                                                  
  24094700.139    24094694.654   126617831.570 0  98663247.032 0        38.000  
        37.000                                                  
  21668756.444                   113870770.231 0                        48.000  
                                                                
  22839578.644    22839573.569   120022387.331 0  93523949.976 0        42.000  
        42.000                                                  
  24331440.571                   127862758.671 0                        39.000  
                                                                
  21014213.436    21014207.468   110430938.913 0  86049726.846 0        46.000  
        47.000                                                  
  23557776.222    23557774.096   123797532.330 0  96465614.210 0        43.000  
        44.000                                                  
  20435857.474    20435853.060   107390792.948 0  83681139.201 0        50.000  
        49.000                                                  
 22  1 16 22  1 22.0000000  0  0
 22  1 16 22  1 23.0000000  0  6E07E12E18E19E24E26
  26898424.357                   141352303.757 0                        39.000  
                  26898423.427   108308911.401          44.000  
  23314636.716                   122519504.680 0                        44.000  
                  23314632.141    93878585.387          48.000  
  18046687.799                    94835986.81910                        51.000  
                  18046685.333    72666526.096          55.000  
  27520426.516                   144620197.232 0                        28.000  
                  27520430.715   110813129.982          35.000  
  25679412.744                   134945941.696 0                        46.000  
                  25679410.027   103400137.146          51.000  
  26580929.647                   139684240.426 0                        40.000  
                  26580926.824   107031013.173          45.000  
 22  1 16 22  1 24.0000000  0  9G08G10G15G16G18G21G23G26G27
  22509414.690    22509412.474   118287842.857 0  92172345.876 0        45.000  
        45.000                                                  
  20813184.140    20813180.120   109374251.021 0  85226692.482 0        51.000  
        48.000                                                  
  24094942.801    24094937.297   126619106.784 0  98664240.710 0        38.000  
        37.000                                                  
  21669171.006                   113872948.440 0                        48.000  
                                                                
  22840105.065    22840100.044   120025153.400 0  93526105.355 0        42.000  
        42.000                                                  
  24330946.528                   127860162.394 0                        39.000  
                                                                
  21014461.387    21014455.311   110432241.456 0  86050741.821 0        46.000  
        47.000                                                  
  23558436.751    23558434.696   123801003.729 0  96468319.218 0        43.000  
        44.000                                                  
  20435631.698    20435627.356   107389606.498 0  83680214.701 0        50.000  
        49.000                                                  
 22  1 16 22  1 23.0000000  0  0
 22  1 16 22  1 24.0000000  0  6E07E12E18E19E24E26
  26898482.717                   141352610.750 0                        39.000  
                  26898481.913   108309146.623          44.000  
  23314345.272                   122517973.875 0                        44.000  
                  23314340.769    93877412.439          48.000  
  18047192.706                    94838641.33610                        51.000  
                  18047190.562    72668560.080          55.000  
  27519853.385                   144617188.269 0                        28.000  
                  27519858.102   110810824.404          35.000  
  25679393.838                   134945842.430 0                        46.000  
                  25679391.104   103400061.087          51.000  
  26581332.594                   139686358.529 0                        40.000  
                  26581329.895   107032636.133          45.000  
 22  1 16 22  1 25.0000000  0  9G08G10G15G16G18G21G23G26G27
  22508880.317    22508878.083   118285034.267 0  92170157.374 0        45.000  
        45.000                                                  
  20812981.863    20812977.717   109373187.277 0  85225863.593 0        51.000  
        48.000                                                  
  24095185.623    24095180.101   126620382.621 0  98665234.908 0        38.000  
        37.000                                                  
  21669585.567                   113875127.218 0                        48.000  
                                                                
  22840631.362    22840626.358   120027919.643 0  93528260.871 0        42.000  
        42.000                                                  
  24330452.539                   127857566.282 0                        39.000  
                                                                
  21014709.230    21014703.208   110433544.609 0  86051757.265 0        46.000  
        47.000                                                  
  23559097.422    23559095.260   123804475.317 0  96471024.337 0        43.000  
        44.000                                                  
  20435406.031    20435401.742   107388420.546 0  83679290.576 0        50.000  
        49.000                                                  
 22  1 16 22  1 24.0000000  0  0
 22  1 16 22  1 25.0000000  0  6E07E12E18E19E24E26
  26898541.220                   141352918.224 0                        39.000  
                  26898540.326   108309382.229          44.000  
  23314053.900                   122516443.255 0                        43.000  
                  23314049.593    93876239.619          48.000  
  18047698.060                    94841297.34610                        51.000  
                  18047695.951    72670595.198          55.000  
  27519281.201                   144614179.332 0                        28.000  
                  27519285.668   110808518.878          35.000  
  25679375.094                   134945743.700 0                        46.000  
                  25679372.377   103399985.430          51.000  
  26581735.755                   139688476.699 0                        40.000  
                  26581733.038   107034259.135          45.000  
 22  1 16 22  1 26.0000000  0  9G08G10G15G16G18G21G23G26G27
  22508345.819    22508343.639   118282225.492 0  92167968.714 0        45.000  
        45.000                                                  
  20812779.407    20812775.297   109372123.689 0  85225034.821 0        51.000  
        48.000                                                  
  24095428.552    24095422.852   126621658.724 0  98666229.217 0        38.000  
        37.000                                                  
  21670000.128                   113877306.107 0                        48.000  
                                                                
  22841157.676    22841152.726   120030685.572 0  93530416.150 0        42.000  
        42.000                                                  
  24329958.407                   127854969.908 0                        39.000  
                                                                
  21014957.217    21014951.284   110434847.924 0  86052772.833 0        46.000  
        47.000                                                  
  23559758.022    23559755.753   123807946.605 0  96473729.242 0        43.000  
        44.000                                                  
  20435180.345    20435176.021   107387234.621 0  83678366.481 0        50.000  
        49.000                                                  
 22  1 16 22  1 25.0000000  0  0
 22  1 16 22  1 26.0000000  0  6E07E12E18E19E24E26
  26898599.652                   141353225.749 0                        39.000  
                  26898598.830   108309617.876          44.000  
  23313762.670                   122514912.330 0                        43.000  
                  23313758.346    93875066.580          48.000  
  18048203.807                    94843954.36610                        51.000  
                  18048201.538    72672631.097          55.000  
  27518708.516                   144611169.885 0                        28.000  
                  27518713.127   110806212.949          35.000  
  25679356.403                   134945645.015 0                        45.000  
                  25679353.526   103399909.821          51.000  
  26582138.808                   139690594.470 0                        40.000  
                  26582135.896   107035881.851          45.000  
 22  1 16 22  1 27.0000000  0  9G08G10G15G16G18G21G23G26G27
  22507811.446    22507809.212   118279417.245 0  92165780.465 0        45.000  
        45.000                                                  
  20812577.201    20812573.073   109371061.026 0  85224206.770 0        51.000  
        48.000                                                  
  24095671.500    24095665.907   126622935.741 0  98667224.317 0        38.000  
        37.000                                                  
  21670414.904                   113879485.851 0                        48.000  
                                                                
  22841684.169    22841679.112   120033451.950 0  93532571.767 0        42.000  
        42.000                                                  
  24329464.382                   127852373.966 0                        39.000  
                                                                
  21015205.489    21015199.538   110436152.140 0  86053789.114 0        46.000  
        47.000                                                  
  23560418.640    23560416.371   123811418.342 0  96476434.487 0        43.000  
        44.000                                                  
  20434954.802    20434950.478   107386049.477 0  83677442.996 0        50.000  
        49.000                                                  
 22  1 16 22  1 26.0000000  0  0
 22  1 16 22  1 27.0000000  0  6E07E12E18E19E24E26
  26898658.476                   141353534.103 0                        39.000  
                  26898657.601   108309854.141          44.000  
  23313471.226                   122513381.868 0                        43.000  
                  23313467.027    93873893.897          48.000  
  18048709.822                    94846613.17010                        51.000  
                  18048707.588    72674668.364          55.000  
  27518136.386                   144608160.802 0                        29.000  
                  27518140.514   110803907.281          35.000  
  25679337.747                   134945547.160 0                        46.000  
                  25679334.960   103399834.841          51.000  
  26582541.790                   139692712.616 0                        40.000  
                  26582539.021   107037504.851          45.000  
 22  1 16 22  1 28.0000000  0  9G08G10G15G16G18G21G23G26G27
  22507277.216    22507274.928   118276609.398 0  92163592.523 0        45.000  
        45.000                                                  
  20812375.031    20812371.082   109369999.119 0  85223379.310 0        51.000  
        48.000                                                  
  24095914.679    24095909.086   126624213.587 0  98668220.031 0        38.000  
        37.000                                                  
  21670829.805                   113881666.310 0                        48.000  
                                                                
  22842210.590    22842205.533   120036218.624 0  93534727.612 0        42.000  
        42.000                                                  
  24328970.410                   127849778.352 0                        39.000  
                                                                
  21015453.832    21015447.900   110437457.112 0  86054805.978 0        46.000  
        47.000                                                  
  23561079.401    23561077.149   123814890.390 0  96479139.979 0        43.000  
        44.000                                                  
  20434729.349    20434725.096   107384864.972 0  83676520.003 0        50.000  
        49.000                                                  
 22  1 16 22  1 27.0000000  0  0
 22  1 16 22  1 28.0000000  0  6E07E12E18E19E24E26
  26898717.158                   141353843.077 0                        39.000  
                  26898716.336   108310090.887          44.000  
  23313180.265                   122511851.735 0                        43.000  
                  23313175.744    93872721.449          48.000  
  18049216.176                    94849273.59610                        51.000  
                  18049213.764    72676706.871          55.000  
  27517564.220                   144605151.874 0                        29.000  
                  27517567.865   110801601.739          35.000  
  25679319.146                   134945449.979 0                        46.000  
                  25679316.430   103399760.372          51.000  
  26582944.987                   139694831.003 0                        40.000  
                  26582942.164   107039128.033          45.000  
 22  1 16 22  1 29.0000000  0  9G08G10G15G16G18G21G23G26G27
  22506742.825    22506740.555   118273801.403 0  92161404.480 0        45.000  
        45.000                                                  
  20812172.968    20812168.983   109368937.418 0  85222552.010 0        51.000  
        48.000                                                  
  24096157.876    24096152.301   126625491.677 0  98669215.938 0        38.000  
        37.000                                                  
  21671244.760                   113883846.928 0                        48.000  
                                                                
  22842737.065    22842732.008   120038985.032 0  93536883.261 0        42.000  
        42.000                                                  
  24328476.564                   127847182.495 0                        39.000  
                                                                
  21015702.194    21015696.262   110438762.288 0  86055822.998 0        46.000  
        47.000                                                  
  23561739.965    23561737.821   123818362.195 0  96481845.281 0        43.000  
        44.000                                                  
  20434503.913    20434499.678   107383680.541 0  83675597.070 0        50.000  
        49.000                                                  
 22  1 16 22  1 28.0000000  0  0
