     2.11           OBSERVATION DATA    M (Mixed)           RINEX VERSION / TYPE
RTCM3TORINEX on                         2022-01-07 13:59    PGM / RUN BY / DATE
RTCM3TORINEX                                                MARKER NAME
                                                            OBSERVER / AGENCY
                                                            REC # / TYPE / VERS
                                                            ANT # / TYPE
         .0000         .0000         .0000                  APPROX POSITION XYZ
         .0000         .0000         .0000                  ANTENNA: DELTA H/E/N
     1     1                                                WAVELENGTH FACT L1/2
     9    C1    C2    L1    L2    S1    S2    C7    L7    S7# / TYPES OF OBSERV
  2022     1     7    13    59   21.0000000     GPS         TIME OF FIRST OBS
                                                            END OF HEADER
 22  1  7 13 59 21.0000000  0  8E02E03E07E08E11E12E25E30
  23416018.619                   123052070.044 0                        49.000  
                  23416016.868    94286676.395          53.000  
  25989062.827                   136573028.447 0                        45.000  
                  25989063.113   104646803.232          49.000  
  26921264.720                   141472209.480 0                        42.000  
                  26921265.632   108400795.217          46.000  
  22680438.251                   119186790.621 0                        49.000  
                  22680436.071    91324948.295          52.000  
  25111417.330                   131961069.116 0                        38.000  
                  25111413.345   101113539.817          40.000  
  26422815.472                   138852221.22910                        34.000  
                  26422812.953   106393308.702          37.000  
  24685334.551                   129722348.655 0                        47.000  
                  24685334.176    99397671.478          50.000  
  26624325.749                   139911797.611 0                        43.000  
                  26624326.356   107205160.245          47.000  
 22  1  7 13 59 22.0000000  0  8G10G12G13G14G15G17G19G24
  24896560.287    24896556.624   130832834.304 0 101947662.435 0        40.000  
        39.000                                                  
  21727864.099    21727858.810   114180567.108 0  88971880.576 0        48.000  
        46.000                                                  
  23375220.459                   122837591.174 0                        45.000  
                                                                
  24890788.074    24890783.482   130802007.706 0 101923645.096 0        37.000  
        36.000                                                  
  22378861.000    22378857.086   117601729.051 0  91637689.601 0        47.000  
        45.000                                                  
  22593563.636    22593557.704   118730016.734 0  92516993.946 0        45.000  
        42.000                                                  
  21078900.711                   110770845.115 0                        47.000  
                                                                
  20176349.012    20176345.939   106027472.330 0  82618818.862 0        50.000  
        50.000                                                  
 22  1  7 13 59 21.0000000  0  0
 22  1  7 13 59 22.0000000  0  8E02E03E07E08E11E12E25E30
  23415922.340                   123051563.071 0                        49.000  
                  23415920.428    94286287.931          53.000  
  25989611.013                   136575909.216 0                        45.000  
                  25989611.263   104649010.579          49.000  
  26920897.887                   141470283.156 0                        42.000  
                  26920898.995   108399319.203          46.000  
  22680562.137                   119187442.327 0                        49.000  
                  22680560.118    91325447.650          52.000  
  25111135.231                   131959586.583 0                        38.000  
                  25111131.247   101112403.866          40.000  
  26423004.437                   138853210.55810                        34.000  
                  26423001.221   106394066.788          37.000  
  24685642.524                   129723966.416 0                        47.000  
                  24685642.023    99398911.063          50.000  
  26623911.098                   139909618.246 0                        43.000  
                  26623911.384   107203490.342          47.000  
 22  1  7 13 59 23.0000000  0  8G10G12G13G14G15G17G19G24
  24896764.512    24896760.867   130833907.760 0 101948498.913 0        40.000  
        39.000                                                  
  21727392.696    21727387.300   114178089.318 0  88969949.842 0        49.000  
        46.000                                                  
  23375928.394                   122841311.653 0                        45.000  
                                                                
  24891405.556    24891400.857   130805252.011 0 101926173.122 0        37.000  
        36.000                                                  
  22379454.805    22379451.035   117604849.775 0  91640121.341 0        47.000  
        45.000                                                  
  22593978.912    22593973.051   118732199.192 0  92518694.568 0        45.000  
        42.000                                                  
  21078969.400                   110771205.964 0                        47.000  
                                                                
  20176176.612    20176173.414   106026566.055 0  82618112.678 0        50.000  
        50.000                                                  
 22  1  7 13 59 22.0000000  0  0
 22  1  7 13 59 23.0000000  0  8E02E03E07E08E11E12E25E30
  23415825.705                   123051056.008 0                        49.000  
                  23415823.900    94285899.408          53.000  
  25990159.252                   136578789.864 0                        45.000  
                  25990159.413   104651217.826          49.000  
  26920531.411                   141468356.863 0                        42.000  
                  26920532.591   108397843.224          46.000  
  22680686.309                   119188094.212 0                        49.000  
                  22680684.093    91325947.146          52.000  
  25110852.937                   131958104.150 0                        38.000  
                  25110849.184   101111267.986          40.000  
  26423192.902                   138854200.09210                        34.000  
                  26423189.471   106394824.987          37.000  
  24685950.210                   129725584.007 0                        47.000  
                  24685949.800    99400150.512          50.000  
  26623496.358                   139907438.696 0                        43.000  
                  26623496.751   107201820.304          47.000  
 22  1  7 13 59 24.0000000  0  8G10G12G13G14G15G17G19G24
  24896968.826    24896965.270   130834981.756 0 101949335.825 0        40.000  
        39.000                                                  
  21726921.258    21726915.897   114175611.893 0  88968019.374 0        48.000  
        46.000                                                  
  23376636.382                   122845032.342 0                        45.000  
                                                                
  24892022.985    24892018.160   130808496.293 0 101928701.145 0        37.000  
        36.000                                                  
  22380048.682    22380044.965   117607970.837 0  91642553.331 0        47.000  
        45.000                                                  
  22594394.331    22594388.399   118734382.116 0  92520395.538 0        45.000  
        42.000                                                  
  21079038.231                   110771567.547 0                        47.000  
                                                                
  20176004.283    20176001.067   106025660.285 0  82617406.883 0        50.000  
        50.000                                                  
 22  1  7 13 59 23.0000000  0  0
 22  1  7 13 59 24.0000000  0  8E02E03E07E08E11E12E25E30
  23415729.337                   123050549.178 0                        49.000  
                  23415727.497    94285511.061          53.000  
  25990707.367                   136581670.727 0                        45.000  
                  25990707.706   104653425.245          49.000  
  26920165.150                   141466430.961 0                        42.000  
                  26920166.079   108396367.533          46.000  
  22680810.445                   119188746.584 0                        49.000  
                  22680808.194    91326447.015          52.000  
  25110570.910                   131956622.162 0                        38.000  
                  25110567.139   101110132.444          40.000  
  26423381.241                   138855190.08710                        34.000  
                  26423377.811   106395583.541          37.000  
  24686257.897                   129727201.739 0                        47.000  
                  24686257.629    99401390.077          50.000  
  26623081.850                   139905259.284 0                        43.000  
                  26623082.047   107200150.354          47.000  
 22  1  7 13 59 25.0000000  0  8G10G12G13G14G15G17G19G24
  24897173.319    24897169.638   130836056.246 0 101950173.076 0        40.000  
        39.000                                                  
  21726449.748    21726444.530   114173134.755 0  88966089.138 0        48.000  
        46.000                                                  
  23377344.442                   122848753.158 0                        45.000  
                                                                
  24892640.324    24892635.642   130811740.540 0 101931229.144 0        37.000  
        36.000                                                  
  22380642.595    22380638.949   117611092.186 0  91644985.553 0        47.000  
        45.000                                                  
  22594809.840    22594803.853   118736565.454 0  92522096.850 0        45.000  
        42.000                                                  
  21079107.152                   110771929.793 0                        47.000  
                                                                
  20175832.026    20175828.792   106024754.916 0  82616701.396 0        50.000  
        50.000                                                  
 22  1  7 13 59 24.0000000  0  0
 22  1  7 13 59 25.0000000  0  8E02E03E07E08E11E12E25E30
  23415632.969                   123050042.525 0                        49.000  
                  23415630.986    94285122.839          53.000  
  25991255.552                   136584551.727 0                        45.000  
                  25991255.856   104655632.758          49.000  
  26919798.513                   141464505.353 0                        42.000  
                  26919799.657   108394892.064          46.000  
  22680934.617                   119189399.393 0                        49.000  
                  22680932.437    91326947.222          52.000  
  25110288.954                   131955140.518 0                        38.000  
                  25110285.273   101108997.159          40.000  
  26423570.117                   138856180.50510                        34.000  
                  26423566.364   106396342.455          37.000  
  24686565.959                   129728819.542 0                        47.000  
                  24686565.512    99402629.686          50.000  
  26622666.967                   139903079.919 0                        43.000  
                  26622667.235   107198480.457          47.000  
 22  1  7 13 59 26.0000000  0  8G10G12G13G14G15G17G19G24
  24897377.991    24897374.221   130837131.366 0 101951010.832 0        40.000  
        39.000                                                  
  21725978.488    21725973.145   114170658.095 0  88964159.274 0        48.000  
        46.000                                                  
  23378052.520                   122852474.265 0                        45.000  
                                                                
  24893257.645    24893253.106   130814984.937 0 101933757.220 0        37.000  
        36.000                                                  
  22381236.632    22381232.916   117614214.002 0  91647418.130 0        47.000  
        45.000                                                  
  22595225.527    22595219.612   118738749.379 0  92523798.601 0        45.000  
        42.000                                                  
  21079176.287                   110772292.884 0                        47.000  
                                                                
  20175659.876    20175656.624   106023850.158 0  82615996.390 0        50.000  
        50.000                                                  
 22  1  7 13 59 25.0000000  0  0
 22  1  7 13 59 26.0000000  0  8E02E03E07E08E11E12E25E30
  23415536.495                   123049536.210 0                        49.000  
                  23415534.761    94284734.886          53.000  
  25991803.899                   136587433.047 0                        45.000  
                  25991804.203   104657840.521          49.000  
  26919432.056                   141462580.229 0                        42.000  
                  26919433.324   108393416.966          46.000  
  22681058.878                   119190052.810 0                        49.000  
                  22681056.913    91327447.889          52.000  
  25110007.106                   131953659.431 0                        38.000  
                  25110003.407   101107862.314          40.000  
  26423758.564                   138857171.50910                        34.000  
                  26423754.918   106397101.802          37.000  
  24686873.682                   129730437.588 0                        46.000  
                  24686873.449    99403869.489          50.000  
  26622252.245                   139900900.795 0                        43.000  
                  26622252.763   107196810.736          47.000  
 22  1  7 13 59 27.0000000  0  8G10G12G13G14G15G17G19G24
  24897582.752    24897578.875   130838207.132 0 101951849.105 0        40.000  
        39.000                                                  
  21725507.264    21725501.832   114168181.899 0  88962229.772 0        48.000  
        46.000                                                  
  23378760.705                   122856195.691 0                        45.000  
                                                                
  24893875.145    24893870.516   130818229.436 0 101936285.399 0        37.000  
        37.000                                                  
  22381830.724    22381827.096   117617336.276 0  91649851.073 0        47.000  
        45.000                                                  
  22595641.196    22595635.281   118740933.900 0  92525500.827 0        45.000  
        41.000                                                  
  21079245.548                   110772656.808 0                        47.000  
                                                                
  20175487.922    20175484.634   106022945.987 0  82615291.839 0        50.000  
        50.000                                                  
 22  1  7 13 59 26.0000000  0  0
 22  1  7 13 59 27.0000000  0  8E02E03E07E08E11E12E25E30
  23415440.163                   123049030.235 0                        49.000  
                  23415438.412    94284347.195          53.000  
  25992352.210                   136590314.667 0                        45.000  
                  25992352.585   104660048.522          49.000  
  26919065.830                   141460655.577 0                        42.000  
                  26919067.027   108391942.233          46.000  
  22681183.211                   119190706.825 0                        49.000  
                  22681181.335    91327949.020          52.000  
  25109725.401                   131952178.882 0                        38.000  
                  25109721.810   101106727.831          40.000  
  26423947.135                   138858163.09110                        34.000  
                  26423943.580   106397861.597          37.000  
  24687181.529                   129732055.889 0                        46.000  
                  24687181.350    99405109.486          50.000  
  26621837.612                   139898721.917 0                        43.000  
                  26621837.952   107195141.207          47.000  
 22  1  7 13 59 28.0000000  0  8G10G12G13G14G15G17G19G24
  24897787.603    24897783.654   130839283.306 0 101952687.654 0        40.000  
        38.000                                                  
  21725036.130    21725030.769   114165705.902 0  88960300.424 0        48.000  
        46.000                                                  
  23379468.890                   122859917.168 0                        45.000  
                                                                
  24894492.484    24894487.909   130821473.783 0 101938813.495 0        37.000  
        37.000                                                  
  22382424.905    22382421.224   117620458.740 0  91652284.171 0        47.000  
        45.000                                                  
  22596056.901    22596050.986   118743118.726 0  92527203.298 0        45.000  
        41.000                                                  
  21079314.790                   110773021.314 0                        47.000  
                                                                
  20175315.790    20175312.734   106022042.142 0  82614587.551 0        50.000  
        50.000                                                  
 22  1  7 13 59 27.0000000  0  0
 22  1  7 13 59 28.0000000  0  8E02E03E07E08E11E12E25E30
  23415343.813                   123048524.339 0                        49.000  
                  23415342.187    94283959.558          53.000  
  25992900.521                   136593196.336 0                        45.000  
                  25992900.861   104662256.554          49.000  
  26918699.711                   141458731.142 0                        42.000  
                  26918700.748   108390467.671          46.000  
  22681307.776                   119191361.177 0                        49.000  
                  22681305.792    91328450.410          52.000  
  25109443.839                   131950698.599 0                        38.000  
                  25109440.069   101105593.599          40.000  
  26424136.386                   138859155.02610                        34.000  
                  26424132.384   106398621.638          37.000  
  24687489.484                   129733674.173 0                        46.000  
                  24687489.323    99406349.475          50.000  
  26621422.980                   139896543.007 0                        43.000  
                  26621423.266   107193471.661          47.000  
 22  1  7 13 59 29.0000000  0  8G10G12G13G14G15G17G19G24
  24897992.418    24897988.433   130840359.729 0 101953526.439 0        40.000  
        38.000                                                  
  21724565.031    21724559.670   114163230.026 0  88958371.173 0        48.000  
        46.000                                                  
  23380177.075                   122863638.597 0                        44.000  
                                                                
  24895109.965    24895105.230   130824717.927 0 101941341.375 0        37.000  
        37.000                                                  
  22383019.157    22383015.333   117623581.322 0  91654717.354 0        47.000  
        45.000                                                  
  22596472.749    22596466.798   118745303.801 0  92528905.940 0        45.000  
        42.000                                                  
  21079384.265                   110773386.300 0                        47.000  
                                                                
  20175143.836    20175140.763   106021138.549 0  82613883.453 0        50.000  
        50.000                                                  
 22  1  7 13 59 28.0000000  0  0
 22  1  7 13 59 29.0000000  0  8E02E03E07E08E11E12E25E30
  23415247.606                   123048018.434 0                        49.000  
                  23415245.891    94283571.921          53.000  
  25993448.778                   136596077.979 0                        45.000  
                  25993449.225   104664464.571          49.000  
  26918333.611                   141456806.822 0                        42.000  
                  26918334.558   108388993.196          46.000  
  22681432.198                   119192015.791 0                        49.000  
                  22681430.429    91328951.999          52.000  
  25109161.955                   131949218.493 0                        38.000  
                  25109158.614   101104459.508          40.000  
  26424324.869                   138860147.19810                        34.000  
                  26424321.116   106399381.862          37.000  
  24687797.385                   129735292.369 0                        46.000  
                  24687797.296    99407589.380          50.000  
  26621008.329                   139894363.994 0                        43.000  
                  26621008.829   107191802.026          47.000  
 22  1  7 13 59 30.0000000  0  8G10G12G13G14G15G17G19G24
  24898197.393    24898193.408   130841436.909 0 101954365.776 0        40.000  
        38.000                                                  
  21724094.021    21724088.642   114160754.710 0  88956442.362 0        48.000  
        46.000                                                  
  23380885.296                   122867360.414 0                        45.000  
                                                                
  24895727.465    24895722.533   130827962.277 0 101943869.444 0        37.000  
        37.000                                                  
  22383613.409    22383609.710   117626704.450 0  91657150.962 0        47.000  
        45.000                                                  
  22596888.597    22596882.593   118747489.546 0  92530609.122 0        45.000  
        42.000                                                  
  21079453.900                   110773752.226 0                        47.000  
                                                                
  20174972.097    20174968.970   106020235.640 0  82613179.885 0        50.000  
        50.000                                                  
 22  1  7 13 59 29.0000000  0  0
 22  1  7 13 59 30.0000000  0  8E02E03E07E08E11E12E25E30
  23415151.560                   123047512.969 0                        49.000  
                  23415149.666    94283184.610          53.000  
  25993997.250                   136598960.018 0                        45.000  
                  25993997.751   104666672.884          49.000  
  26917967.475                   141454883.085 0                        42.000  
                  26917968.565   108387519.162          46.000  
  22681556.959                   119192671.098 0                        49.000  
                  22681555.047    91329454.115          52.000  
  25108880.393                   131947739.032 0                        38.000  
                  25108876.891   101103325.897          40.000  
  26424513.762                   138861140.05410                        34.000  
                  26424510.045   106400142.633          37.000  
  24688105.411                   129736910.887 0                        46.000  
                  24688105.375    99408829.550          50.000  
  26620593.821                   139892185.304 0                        43.000  
                  26620594.054   107190132.642          47.000  
 22  1  7 13 59 31.0000000  0  8G10G12G13G14G15G17G19G24
  24898402.440    24898398.545   130842514.661 0 101955205.594 0        40.000  
        38.000                                                  
  21723623.011    21723617.633   114158279.790 0  88954513.846 0        48.000  
        46.000                                                  
  23381593.571                   122871082.465 0                        45.000  
                                                                
  24896344.769    24896339.926   130831206.674 0 101946397.538 0        37.000  
        37.000                                                  
  22384207.840    22384204.088   117629827.973 0  91659584.868 0        47.000  
        45.000                                                  
  22597304.659    22597298.655   118749675.816 0  92532312.700 0        45.000  
        42.000                                                  
  21079523.750                   110774118.906 0                        47.000  
                                                                
  20174800.322    20174797.159   106019333.253 0  82612476.726 0        50.000  
        50.000                                                  
 22  1  7 13 59 30.0000000  0  0
 22  1  7 13 59 31.0000000  0  8E02E03E07E08E11E12E25E30
  23415055.014                   123047007.757 0                        49.000  
                  23415053.531    94282797.504          53.000  
  25994545.740                   136601842.301 0                        45.000  
                  25994546.205   104668881.389          49.000  
  26917601.589                   141452959.763 0                        42.000  
                  26917602.553   108386045.441          46.000  
  22681681.685                   119193326.935 0                        49.000  
                  22681679.916    91329956.639          52.000  
  25108598.795                   131946260.044 0                        38.000  
                  25108595.471   101102192.646          40.000  
  26424702.727                   138862133.42410                        34.000  
                  26424699.207   106400903.789          37.000  
  24688413.527                   129738529.588 0                        46.000  
                  24688413.294    99410069.855          50.000  
  26620179.385                   139890006.778 0                        43.000  
                  26620179.599   107188463.384          47.000  
 22  1  7 13 59 32.0000000  0  8G10G12G13G14G15G17G19G24
  24898607.666    24898603.681   130843592.916 0 101956045.772 0        40.000  
        38.000                                                  
  21723152.056    21723146.748   114155805.158 0  88952585.559 0        48.000  
        46.000                                                  
  23382301.827                   122874804.652 0                        45.000  
                                                                
  24896962.197    24896957.337   130834451.035 0 101948925.617 0        37.000  
        37.000                                                  
  22384802.360    22384798.554   117632951.776 0  91662018.993 0        47.000  
        45.000                                                  
  22597720.793    22597714.825   118751862.481 0  92534016.591 0        45.000  
        41.000                                                  
  21079593.672                   110774486.264 0                        47.000  
                                                                
  20174628.708    20174625.581   106018431.289 0  82611773.899 0        50.000  
        50.000                                                  
 22  1  7 13 59 31.0000000  0  0
 22  1  7 13 59 32.0000000  0  8E02E03E07E08E11E12E25E30
  23414959.129                   123046502.732 0                        49.000  
                  23414957.377    94282410.535          53.000  
  25995094.158                   136604724.728 0                        45.000  
                  25995094.784   104671089.997          49.000  
  26917235.470                   141451036.736 0                        42.000  
                  26917236.649   108384571.960          46.000  
  22681806.625                   119193983.213 0                        49.000  
                  22681804.785    91330459.502          52.000  
  25108317.519                   131944781.413 0                        38.000  
                  25108314.142   101101059.663          40.000  
  26424892.067                   138863127.21310                        34.000  
                  26424888.297   106401665.264          37.000  
  24688721.642                   129740148.382 0                        46.000  
                  24688721.374    99411310.219          50.000  
  26619764.681                   139887828.317 0                        43.000  
                  26619764.895   107186794.174          47.000  
 22  1  7 13 59 33.0000000  0  8G10G12G13G14G15G17G19G24
  24898812.910    24898809.014   130844671.613 0 101956886.308 0        40.000  
        38.000                                                  
  21722681.260    21722675.900   114153330.837 0  88950657.519 0        49.000  
        46.000                                                  
  23383010.137                   122878526.967 0                        45.000  
                                                                
  24897579.572    24897574.693   130837695.335 0 101951453.659 0        37.000  
        37.000                                                  
  22385396.791    22385393.092   117636075.878 0  91664453.360 0        47.000  
        45.000                                                  
  22598137.052    22598130.940   118754049.579 0  92535720.825 0        45.000  
        41.000                                                  
  21079663.701                   110774854.299 0                        47.000  
                                                                
  20174457.094    20174453.967   106017529.767 0  82611071.408 0        50.000  
        50.000                                                  
 22  1  7 13 59 32.0000000  0  0
 22  1  7 13 59 33.0000000  0  8E02E03E07E08E11E12E25E30
  23414863.011                   123045997.878 0                        49.000  
                  23414861.367    94282023.699          53.000  
  25995642.737                   136607607.301 0                        45.000  
                  25995643.237   104673298.717          49.000  
  26916869.798                   141449114.018 0                        42.000  
                  26916870.674   108383098.710          46.000  
  22681931.530                   119194639.925 0                        49.000  
                  22681929.761    91330962.694          52.000  
  25108036.117                   131943303.156 0                        38.000  
                  25108032.865   101099926.983          40.000  
  26425081.568                   138864121.44210                        34.000  
                  26425077.423   106402427.080          37.000  
  24689029.633                   129741767.238 0                        46.000  
                  24689029.472    99412550.650          50.000  
  26619350.209                   139885649.935 0                        43.000  
                  26619350.459   107185125.022          47.000  
 22  1  7 13 59 34.0000000  0  8G10G12G13G14G15G17G19G24
  24899018.225    24899014.401   130845750.906 0 101957727.302 0        40.000  
        38.000                                                  
  21722210.519    21722205.158   114150856.921 0  88948729.801 0        49.000  
        46.000                                                  
  23383718.609                   122882249.541 0                        45.000  
                                                                
  24898196.964    24898192.140   130840939.708 0 101953981.735 0        37.000  
        37.000                                                  
  22385991.311    22385987.577   117639200.364 0  91666888.027 0        47.000  
        45.000                                                  
  22598553.239    22598547.217   118756237.189 0  92537425.459 0        45.000  
        41.000                                                  
  21079733.819                   110775223.092 0                        47.000  
                                                                
  20174285.587    20174282.531   106016628.771 0  82610369.338 0        50.000  
        50.000                                                  
 22  1  7 13 59 33.0000000  0  0
 22  1  7 13 59 34.0000000  0  8E02E03E07E08E11E12E25E30
  23414767.054                   123045493.303 0                        49.000  
                  23414765.339    94281637.076          53.000  
  25996191.191                   136610490.109 0                        45.000  
                  25996191.691   104675507.631          49.000  
  26916503.912                   141447191.720 0                        42.000  
                  26916504.877   108381625.780          46.000  
  22682056.702                   119195297.182 0                        49.000  
                  22682054.862    91331466.303          52.000  
  25107755.002                   131941825.364 0                        38.000  
                  25107751.678   101098794.652          40.000  
  26425270.837                   138865116.19410                        34.000  
                  26425266.602   106403189.279          37.000  
  24689337.677                   129743386.288 0                        46.000  
                  24689337.427    99413791.218          50.000  
  26618935.594                   139883471.727 0                        43.000  
                  26618935.969   107183456.011          47.000  
 22  1  7 13 59 35.0000000  0  8G10G12G13G14G15G17G19G24
  24899223.683    24899219.948   130846830.771 0 101958568.797 0        40.000  
        38.000                                                  
  21721739.795    21721734.488   114148383.419 0  88946802.397 0        49.000  
        46.000                                                  
  23384426.954                   122885972.352 0                        45.000  
                                                                
  24898814.303    24898809.532   130844184.184 0 101956509.902 0        37.000  
        37.000                                                  
  22386585.975    22386582.133   117642325.267 0  91669323.014 0        47.000  
        45.000                                                  
  22598969.677    22598963.601   118758425.343 0  92539130.514 0        45.000  
        41.000                                                  
  21079804.115                   110775592.694 0                        47.000  
                                                                
  20174114.169    20174111.239   106015728.318 0  82609667.688 0        50.000  
        50.000                                                  
 22  1  7 13 59 34.0000000  0  0
 22  1  7 13 59 35.0000000  0  8E02E03E07E08E11E12E25E30
  23414671.044                   123044989.021 0                        49.000  
                  23414669.365    94281250.678          53.000  
  25996739.949                   136613373.205 0                        45.000  
                  25996740.503   104677716.749          49.000  
  26916138.241                   141445269.850 0                        42.000  
                  26916139.188   108380153.181          46.000  
  22682181.750                   119195954.992 0                        49.000  
                  22682179.981    91331970.343          52.000  
  25107473.851                   131940348.060 0                        38.000  
                  25107470.599   101097662.685          40.000  
  26425460.231                   138866111.45610                        34.000  
                  26425455.906   106403951.900          37.000  
  24689645.757                   129745005.543 0                        46.000  
                  24689645.650    99415031.944          50.000  
  26618521.408                   139881293.720 0                        43.000  
                  26618521.515   107181787.140          47.000  
 22  1  7 13 59 36.0000000  0  8G10G12G13G14G15G17G19G24
  24899429.284    24899425.495   130847910.977 0 101959410.502 0        40.000  
        38.000                                                  
  21721269.125    21721263.836   114145910.069 0  88944875.105 0        49.000  
        46.000                                                  
  23385135.354                   122889695.152 0                        45.000  
                                                                
  24899431.767    24899426.996   130847428.425 0 101959037.878 0        37.000  
        37.000                                                  
  22387180.638    22387176.868   117645450.311 0  91671758.111 0        47.000  
        45.000                                                  
  22599386.061    22599380.021   118760613.767 0  92540835.770 0        45.000  
        41.000                                                  
  21079874.448                   110775962.802 0                        47.000  
                                                                
  20173942.859    20173939.947   106014828.132 0  82608966.249 0        50.000  
        50.000                                                  
 22  1  7 13 59 35.0000000  0  0
 22  1  7 13 59 36.0000000  0  8E02E03E07E08E11E12E25E30
  23414574.962                   123044484.765 0                        49.000  
                  23414573.372    94280864.303          53.000  
  25997288.671                   136616256.280 0                        45.000  
                  25997289.064   104679925.857          49.000  
  26915772.587                   141443348.153 0                        42.000  
                  26915773.409   108378680.712          46.000  
  22682307.065                   119196613.089 0                        49.000  
                  22682305.189    91332474.597          52.000  
  25107192.682                   131938870.976 0                        38.000  
                  25107189.608   101096530.902          40.000  
  26425649.732                   138867107.02610                        34.000  
                  26425645.425   106404714.740          37.000  
  24689953.801                   129746624.721 0                        46.000  
                  24689953.729    99416272.620          50.000  
  26618106.846                   139879115.629 0                        43.000  
                  26618107.186   107180118.211          47.000  
 22  1  7 13 59 37.0000000  0  8G10G12G13G14G15G17G19G24
  24899635.028    24899631.043   130848991.523 0 101960252.486 0        40.000  
        38.000                                                  
  21720798.473    21720793.416   114143436.866 0  88942947.947 0        49.000  
        46.000                                                  
  23385843.736                   122893417.958 0                        44.000  
                                                                
  24900049.160    24900044.282   130850672.507 0 101961565.723 0        37.000  
        37.000                                                  
  22387775.283    22387771.549   117648575.504 0  91674193.329 0        47.000  
        45.000                                                  
  22599802.570    22599796.584   118762802.454 0  92542541.254 0        45.000  
        41.000                                                  
  21079944.977                   110776333.431 0                        47.000  
                                                                
  20173771.620    20173768.618   106013928.251 0  82608265.034 0        50.000  
        50.000                                                  
 22  1  7 13 59 36.0000000  0  0
 22  1  7 13 59 37.0000000  0  8E02E03E07E08E11E12E25E30
  23414479.184                   123043980.533 0                        49.000  
                  23414477.451    94280477.938          53.000  
  25997837.107                   136619139.349 0                        45.000  
                  25997837.714   104682134.964          49.000  
  26915406.826                   141441426.603 0                        42.000  
                  26915407.809   108377208.355          46.000  
  22682432.434                   119197271.476 0                        49.000  
                  22682430.486    91332979.071          52.000  
  25106911.781                   131937394.130 0                        38.000  
                  25106908.457   101095399.299          40.000  
  26425839.465                   138868102.86610                        34.000  
                  26425834.855   106405477.753          37.000  
  24690262.006                   129748243.847 0                        46.000  
                  24690261.934    99417513.247          50.000  
  26617692.160                   139876937.438 0                        43.000  
                  26617692.446   107178449.214          47.000  
 22  1  7 13 59 38.0000000  0  8G10G12G13G14G15G17G19G24
  24899840.861    24899836.805   130850072.941 0 101961095.144 0        40.000  
        38.000                                                  
  21720327.910    21720322.907   114140964.373 0  88941021.329 0        49.000  
        46.000                                                  
  23386552.135                   122897141.286 0                        44.000  
                                                                
  24900666.570    24900661.656   130853916.927 0 101964093.858 0        37.000  
        37.000                                                  
  22388370.089    22388366.373   117651701.381 0  91676629.077 0        47.000  
        45.000                                                  
  22600219.186    22600213.146   118764991.961 0  92544247.359 0        45.000  
        41.000                                                  
  21080015.810                   110776705.158 0                        47.000  
                                                                
  20173600.650    20173597.648   106013029.180 0  82607564.464 0        50.000  
        50.000                                                  
 22  1  7 13 59 37.0000000  0  0
 22  1  7 13 59 38.0000000  0  8E02E03E07E08E11E12E25E30
  23414383.156                   123043476.876 0                        49.000  
                  23414381.655    94280092.024          53.000  
  25998385.739                   136622022.978 0                        45.000  
                  25998386.347   104684344.496          49.000  
  26915041.083                   141439505.786 0                        42.000  
                  26915042.262   108375736.559          46.000  
  22682557.910                   119197930.709 0                        49.000  
                  22682556.034    91333484.197          52.000  
  25106630.880                   131935918.044 0                        38.000  
                  25106627.627   101094268.279          40.000  
  26426029.020                   138869099.55510                        34.000  
                  26426024.517   106406241.474          37.000  
  24690570.139                   129749863.443 0                        46.000  
                  24690570.157    99418754.235          50.000  
  26617277.652                   139874759.734 0                        43.000  
                  26617278.045   107176780.593          47.000  
 22  1  7 13 59 39.0000000  0  8G10G12G13G14G15G17G19G24
  24900046.694    24900042.656   130851154.705 0 101961938.077 0        40.000  
        38.000                                                  
  21719857.401    21719852.433   114138492.053 0  88939094.849 0        49.000  
        46.000                                                  
  23387260.624                   122900864.631 0                        44.000  
                                                                
  24901283.874    24901279.067   130857161.192 0 101966621.845 0        37.000  
        37.000                                                  
  22388964.931    22388961.197   117654827.434 0  91679064.954 0        47.000  
        45.000                                                  
  22600635.927    22600629.816   118767181.769 0  92545953.692 0        45.000  
        41.000                                                  
  21080086.642                   110777077.423 0                        47.000  
                                                                
  20173429.589    20173426.569   106012130.420 0  82606864.131 0        50.000  
        50.000                                                  
 22  1  7 13 59 38.0000000  0  0
 22  1  7 13 59 39.0000000  0  8E02E03E07E08E11E12E25E30
  23414287.575                   123042973.269 0                        49.000  
                  23414285.734    94279706.143          53.000  
  25998934.622                   136624906.614 0                        45.000  
                  25998935.105   104686554.042          49.000  
  26914675.679                   141437585.146 0                        42.000  
                  26914676.823   108374264.899          46.000  
  22682683.137                   119198590.238 0                        49.000  
                  22682681.564    91333989.560          52.000  
  25106349.907                   131934442.219 0                        38.000  
                  25106346.780   101093137.439          40.000  
  26426218.235                   138870096.51010                        34.000  
                  26426214.339   106407005.375          37.000  
  24690878.380                   129751483.009 0                        46.000  
                  24690878.362    99419995.197          50.000  
  26616863.359                   139872581.994 0                        43.000  
                  26616863.716   107175111.931          47.000  
 22  1  7 13 59 40.0000000  0  8G10G12G13G14G15G17G19G24
  24900252.778    24900248.703   130852237.387 0 101962781.719 0        40.000  
        38.000                                                  
  21719387.052    21719382.085   114136020.452 0  88937168.931 0        49.000  
        46.000                                                  
  23387969.256                   122904588.549 0                        44.000  
                                                                
  24901901.374    24901896.495   130860405.829 0 101969150.139 0        37.000  
        37.000                                                  
  22389559.988    22389556.182   117657954.201 0  91681501.402 0        47.000  
        45.000                                                  
  22601052.865    22601046.647   118769372.417 0  92547660.692 0        45.000  
        41.000                                                  
  21080157.725                   110777450.775 0                        47.000  
                                                                
  20173258.779    20173255.759   106011232.520 0  82606164.469 0        50.000  
        50.000                                                  
 22  1  7 13 59 39.0000000  0  0
 22  1  7 13 59 40.0000000  0  8E02E03E07E08E11E12E25E30
  23414191.672                   123042470.269 0                        49.000  
                  23414190.028    94279320.726          53.000  
  25999483.541                   136627790.833 0                        45.000  
                  25999483.934   104688764.030          49.000  
  26914310.472                   141435665.242 0                        42.000  
                  26914311.383   108372793.806          46.000  
  22682808.952                   119199250.642 0                        49.000  
                  22682807.165    91334495.583          52.000  
  25106069.310                   131932967.180 0                        38.000  
                  25106066.004   101092007.223          40.000  
  26426407.896                   138871094.34610                        34.000  
                  26426404.269   106407769.950          37.000  
  24691186.549                   129753103.080 0                        46.000  
                  24691186.567    99421236.548          50.000  
  26616449.066                   139870404.739 0                        43.000  
                  26616449.262   107173443.651          47.000  
 22  1  7 13 59 41.0000000  0  8G10G12G13G14G15G17G19G24
  24900458.915    24900454.876   130853320.416 0 101963625.630 0        40.000  
        38.000                                                  
  21718916.829    21718911.826   114133549.028 0  88935243.152 0        49.000  
        46.000                                                  
  23388677.852                   122908312.470 0                        44.000  
                                                                
  24902518.838    24902513.995   130863650.287 0 101971678.306 0        37.000  
        37.000                                                  
  22390155.062    22390151.149   117661081.108 0  91683937.962 0        47.000  
        45.000                                                  
  22601469.910    22601463.674   118771563.332 0  92549367.901 0        45.000  
        41.000                                                  
  21080228.934                   110777824.671 0                        47.000  
                                                                
  20173087.987    20173084.896   106010334.914 0  82605465.035 0        50.000  
        50.000                                                  
 22  1  7 13 59 40.0000000  0  0
 22  1  7 13 59 41.0000000  0  8E02E03E07E08E11E12E25E30
  23414096.126                   123041967.302 0                        49.000  
                  23414094.321    94278935.337          53.000  
  26000032.334                   136630675.047 0                        45.000  
                  26000032.852   104690974.008          49.000  
  26913945.068                   141433745.514 0                        42.000  
                  26913946.140   108371322.850          46.000  
  22682934.643                   119199911.341 0                        49.000  
                  22682932.928    91335001.832          52.000  
  25105788.605                   131931492.373 0                        38.000  
                  25105785.442   101090877.176          40.000  
  26426597.755                   138872092.41610                        34.000  
                  26426594.127   106408534.717          37.000  
  24691494.897                   129754723.086 0                        46.000  
                  24691494.772    99422477.853          50.000  
  26616034.558                   139868227.414 0                        43.000  
                  26616035.040   107171775.306          47.000  
 22  1  7 13 59 42.0000000  0  8G10G12G13G14G15G17G19G24
  24900665.069    24900660.960   130854403.676 0 101964469.727 0        40.000  
        38.000                                                  
  21718446.552    21718441.424   114131077.697 0  88933317.426 0        49.000  
        46.000                                                  
  23389386.466                   122912036.308 0                        44.000  
                                                                
  24903136.105    24903131.477   130866894.496 0 101974206.218 0        38.000  
        38.000                                                  
  22390749.975    22390746.241   117664208.106 0  91686374.575 0        47.000  
        45.000                                                  
  22601886.920    22601880.576   118773754.464 0  92551075.277 0        45.000  
        41.000                                                  
  21080300.177                   110778199.030 0                        47.000  
                                                                
  20172917.213    20172914.211   106009437.515 0  82604765.764 0        50.000  
        50.000                                                  
 22  1  7 13 59 41.0000000  0  0
 22  1  7 13 59 42.0000000  0  8E02E03E07E08E11E12E25E30
  23414000.223                   123041464.302 0                        49.000  
                  23413998.669    94278549.917          53.000  
  26000581.110                   136633559.205 0                        45.000  
                  26000581.699   104693183.944          49.000  
  26913579.808                   141431825.892 0                        42.000  
                  26913580.826   108369851.959          46.000  
  22683060.352                   119200572.273 0                        49.000  
                  22683058.726    91335508.253          52.000  
  25105508.205                   131930017.737 0                        38.000  
                  25105504.774   101089747.242          40.000  
  26426787.846                   138873090.76810                        34.000  
                  26426784.039   106409299.658          37.000  
  24691803.084                   129756342.972 0                        46.000  
                  24691803.155    99423719.065          50.000  
  26615620.300                   139866049.953 0                        43.000  
                  26615620.622   107170106.860          47.000  
 22  1  7 13 59 43.0000000  0  8G10G12G13G14G15G17G19G24
  24900871.171    24900867.293   130855487.318 0 101965314.128 0        41.000  
        38.000                                                  
  21717976.275    21717971.236   114128606.519 0  88931391.839 0        49.000  
        46.000                                                  
  23390095.044                   122915760.147 0                        44.000  
                                                                
  24903753.534    24903748.923   130870138.520 0 101976734.063 0        38.000  
        38.000                                                  
  22391345.067    22391341.422   117667335.254 0  91688811.309 0        47.000  
        45.000                                                  
  22602303.983    22602297.621   118775945.872 0  92552782.874 0        45.000  
        41.000                                                  
  21080371.528                   110778573.918 0                        47.000  
                                                                
  20172746.474    20172743.472   106008540.422 0  82604066.732 0        50.000  
        50.000                                                  
 22  1  7 13 59 42.0000000  0  0
 22  1  7 13 59 43.0000000  0  8E02E03E07E08E11E12E25E30
  23413904.606                   123040961.341 0                        49.000  
                  23413902.998    94278164.536          53.000  
  26001129.867                   136636443.377 0                        45.000  
                  26001130.475   104695393.895          49.000  
  26913214.583                   141429906.431 0                        42.000  
                  26913215.530   108368381.217          46.000  
  22683186.203                   119201233.504 0                        49.000  
                  22683184.541    91336014.915          52.000  
  25105227.607                   131928543.326 0                        38.000  
                  25105224.212   101088617.521          40.000  
  26426977.740                   138874089.34910                        34.000  
                  26426974.166   106410064.827          37.000  
  24692111.289                   129757962.805 0                        46.000  
                  24692111.396    99424960.236          50.000  
  26615206.061                   139863872.425 0                        43.000  
                  26615206.257   107168438.378          47.000  
 22  1  7 13 59 44.0000000  0  8G10G12G13G14G15G17G19G24
  24901077.558    24901073.627   130856571.826 0 101966159.208 0        40.000  
        38.000                                                  
  21717506.266    21717501.209   114126136.074 0  88929466.811 0        49.000  
        46.000                                                  
  23390803.730                   122919484.549 0                        44.000  
                                                                
  24904370.926    24904366.352   130873382.917 0 101979262.166 0        38.000  
        38.000                                                  
  22391940.249    22391936.675   117670463.129 0  91691248.610 0        47.000  
        45.000                                                  
  22602721.135    22602714.774   118778138.140 0  92554491.128 0        45.000  
        41.000                                                  
  21080443.112                   110778949.906 0                        47.000  
                                                                
  20172575.933    20172572.966   106007644.183 0  82603368.364 0        50.000  
        50.000                                                  
 22  1  7 13 59 43.0000000  0  0
 22  1  7 13 59 44.0000000  0  8E02E03E07E08E11E12E25E30
  23413808.971                   123040458.981 0                        49.000  
                  23413807.345    94277779.606          53.000  
  26001678.804                   136639328.107 0                        45.000  
                  26001679.554   104697604.270          49.000  
  26912849.411                   141427987.715 0                        42.000  
                  26912850.519   108366911.035          46.000  
  22683312.233                   119201895.595 0                        48.000  
                  22683310.411    91336522.236          52.000  
  25104947.260                   131927069.708 0                        38.000  
                  25104943.722   101087488.387          40.000  
  26427167.759                   138875088.84310                        34.000  
                  26427164.203   106410830.651          37.000  
  24692419.637                   129759583.134 0                        46.000  
                  24692419.726    99426201.789          50.000  
  26614791.642                   139861695.393 0                        43.000  
                  26614791.982   107166770.261          47.000  
 22  1  7 13 59 45.0000000  0  8G10G12G13G14G15G17G19G24
  24901283.999    24901280.103   130857656.873 0 101967004.663 0        40.000  
        38.000                                                  
  21717036.186    21717031.111   114123665.961 0  88927542.045 0        49.000  
        46.000                                                  
  23391512.522                   122923209.109 0                        44.000  
                                                                
  24904988.426    24904983.798   130876627.316 0 101981790.272 0        38.000  
        38.000                                                  
  22392535.502    22392532.035   117673591.319 0  91693686.167 0        47.000  
        45.000                                                  
  22603138.341    22603132.105   118780330.839 0  92556199.734 0        45.000  
        41.000                                                  
  21080514.731                   110779326.595 0                        48.000  
                                                                
  20172405.569    20172402.406   106006748.413 0  82602670.355 0        50.000  
        50.000                                                  
 22  1  7 13 59 44.0000000  0  0
 22  1  7 13 59 45.0000000  0  8E02E03E07E08E11E12E25E30
  23413713.354                   123039956.832 0                        49.000  
                  23413711.781    94277394.843          53.000  
  26002227.544                   136642213.037 0                        45.000  
                  26002228.455   104699814.803          49.000  
  26912484.436                   141426069.355 0                        42.000  
                  26912485.491   108365441.116          46.000  
  22683438.085                   119202558.164 0                        49.000  
                  22683436.548    91337029.916          52.000  
  25104666.949                   131925596.509 0                        38.000  
                  25104663.429   101086359.568          40.000  
  26427357.957                   138876088.72410                        34.000  
                  26427354.705   106411596.823          37.000  
  24692728.110                   129761203.601 0                        46.000  
                  24692728.056    99427443.441          50.000  
  26614377.331                   139859518.481 0                        43.000  
                  26614377.653   107165102.228          47.000  
 22  1  7 13 59 46.0000000  0  8G10G12G13G14G15G17G19G24
  24901490.547    24901486.580   130858742.387 0 101967850.557 0        40.000  
        38.000                                                  
  21716566.231    21716561.102   114121196.174 0  88925617.538 0        49.000  
        46.000                                                  
  23392221.422                   122926933.837 0                        44.000  
                                                                
  24905605.890    24905601.316   130879871.698 0 101984318.344 0        38.000  
        38.000                                                  
  22393130.844    22393127.377   117676719.819 0  91696123.962 0        47.000  
        45.000                                                  
  22603555.654    22603549.472   118782523.987 0  92557908.689 0        45.000  
        41.000                                                  
  21080586.511                   110779703.992 0                        47.000  
                                                                
  20172235.188    20172232.025   106005853.078 0  82601972.693 0        50.000  
        50.000                                                  
 22  1  7 13 59 45.0000000  0  0
 22  1  7 13 59 46.0000000  0  8E02E03E07E08E11E12E25E30
  23413617.915                   123039454.868 0                        49.000  
                  23413616.325    94277010.226          53.000  
  26002776.641                   136645098.102 0                        45.000  
                  26002777.481   104702025.441          49.000  
  26912119.587                   141424151.320 0                        42.000  
                  26912120.284   108363971.459          46.000  
  22683564.312                   119203221.191 0                        49.000  
                  22683562.757    91337537.943          52.000  
  25104386.584                   131924123.703 0                        38.000  
                  25104383.046   101085231.057          40.000  
  26427547.922                   138877089.08310                        34.000  
                  26427544.849   106412363.347          37.000  
  24693036.350                   129762824.150 0                        46.000  
                  24693036.493    99428685.160          50.000  
  26613962.913                   139857341.643 0                        43.000  
                  26613963.592   107163434.275          47.000  
 22  1  7 13 59 47.0000000  0  8G10G12G13G14G15G17G19G24
  24901697.238    24901693.146   130859828.236 0 101968696.650 0        40.000  
        38.000                                                  
  21716096.275    21716091.022   114118726.515 0  88923693.129 0        49.000  
        46.000                                                  
  23392930.143                   122930658.535 0                        44.000  
                                                                
  24906223.265    24906218.726   130883115.866 0 101986846.267 0        38.000  
        38.000                                                  
  22393726.168    22393722.862   117679848.437 0  91698561.844 0        47.000  
        45.000                                                  
  22603973.003    22603966.856   118784717.373 0  92559617.817 0        45.000  
        41.000                                                  
  21080658.433                   110780081.881 0                        47.000  
                                                                
  20172064.861    20172061.662   106004958.009 0  82601275.233 0        50.000  
        50.000                                                  
 22  1  7 13 59 46.0000000  0  0
 22  1  7 13 59 47.0000000  0  8E02E03E07E08E11E12E25E30
  23413522.370                   123038952.916 0                        49.000  
                  23413520.779    94276625.611          53.000  
  26003325.774                   136647983.169 0                        44.000  
                  26003326.471   104704236.073          49.000  
  26911754.666                   141422233.423 0                        42.000  
                  26911755.523   108362501.911          46.000  
  22683690.646                   119203884.479 0                        48.000  
                  22683688.859    91338046.182          52.000  
  25104106.362                   131922651.103 0                        38.000  
                  25104102.895   101084102.697          40.000  
  26427737.924                   138878089.68110                        34.000  
                  26427735.225   106413130.036          37.000  
  24693344.948                   129764444.617 0                        46.000  
                  24693344.859    99429926.819          50.000  
  26613548.762                   139855164.705 0                        43.000  
                  26613549.120   107161766.240          47.000  
 22  1  7 13 59 48.0000000  0  8G10G12G13G14G15G17G19G24
  24901903.947    24901899.908   130860914.419 0 101969543.026 0        40.000  
        38.000                                                  
  21715626.409    21715621.049   114116257.024 0  88921768.855 0        49.000  
        46.000                                                  
  23393638.936                   122934383.230 0                        44.000  
                                                                
  24906840.640    24906836.101   130886359.849 0 101989374.036 0        38.000  
        39.000                                                  
  22394321.528    22394318.151   117682977.223 0  91700999.842 0        47.000  
        45.000                                                  
  22604390.441    22604384.277   118786911.043 0  92561327.161 0        45.000  
        41.000                                                  
  21080730.481                   110780460.305 0                        47.000  
                                                                
  20171894.587    20171891.442   106004063.217 0  82600577.996 0        50.000  
        50.000                                                  
 22  1  7 13 59 47.0000000  0  0
 22  1  7 13 59 48.0000000  0  8E02E03E07E08E11E12E25E30
  23413427.146                   123038451.002 0                        49.000  
                  23413425.234    94276241.030          53.000  
  26003874.674                   136650868.222 0                        45.000  
                  26003875.478   104706446.702          49.000  
  26911389.691                   141420315.717 0                        42.000  
                  26911390.495   108361032.493          46.000  
  22683816.998                   119204548.072 0                        48.000  
                  22683815.157    91338554.654          52.000  
  25103826.104                   131921178.726 0                        38.000  
                  25103822.816   101082974.521          40.000  
  26427928.193                   138879090.59210                        34.000  
                  26427925.763   106413896.966          37.000  
  24693653.368                   129766065.037 0                        46.000  
                  24693653.207    99431168.440          50.000  
  26613134.380                   139852987.717 0                        43.000  
                  26613134.952   107160098.143          47.000  
 22  1  7 13 59 49.0000000  0  8G10G12G13G14G15G17G19G24
  24902110.834    24902106.742   130862001.656 0 101970390.208 0        40.000  
        38.000                                                  
  21715156.633    21715151.183   114113788.399 0  88919845.246 0        49.000  
        46.000                                                  
  23394347.872                   122938108.618 0                        44.000  
                                                                
  24907458.050    24907453.529   130889604.360 0 101991902.231 0        38.000  
        38.000                                                  
  22394916.978    22394913.779   117686106.856 0  91703438.531 0        47.000  
        45.000                                                  
  22604808.130    22604801.840   118789105.697 0  92563037.278 0        45.000  
        41.000                                                  
  21080802.815                   110780839.964 0                        48.000  
                                                                
  20171724.545    20171721.239   106003169.445 0  82599881.549 0        50.000  
        50.000                                                  
 22  1  7 13 59 48.0000000  0  0
 22  1  7 13 59 49.0000000  0  8E02E03E07E08E11E12E25E30
  23413331.404                   123037949.837 0                        49.000  
                  23413329.831    94275857.022          53.000  
  26004423.736                   136653754.000 0                        45.000  
                  26004424.594   104708657.887          49.000  
  26911024.913                   141418398.891 0                        42.000  
                  26911025.752   108359563.754          46.000  
  22683943.492                   119205212.678 0                        48.000  
                  22683941.723    91339063.890          52.000  
  25103546.114                   131919707.309 0                        38.000  
                  25103542.844   101081847.057          40.000  
  26428118.695                   138880092.51510                        34.000  
                  26428116.443   106414664.653          37.000  
  24693961.680                   129767686.103 0                        46.000  
                  24693961.715    99432410.557          50.000  
  26612720.283                   139850811.377 0                        43.000  
                  26612720.837   107158430.562          47.000  
 22  1  7 13 59 50.0000000  0  8G10G12G13G14G15G17G19G24
  24902317.758    24902313.719   130863089.268 0 101971237.702 0        40.000  
        38.000                                                  
  21714686.945    21714681.424   114111319.994 0  88917921.816 0        49.000  
        46.000                                                  
  23395056.718                   122941834.065 0                        44.000  
                                                                
  24908075.353    24908070.993   130892848.733 0 101994430.323 0        38.000  
        38.000                                                  
  22395512.445    22395509.372   117689236.703 0  91705877.373 0        47.000  
        45.000                                                  
  22605225.765    22605219.600   118791300.685 0  92564747.668 0        45.000  
        41.000                                                  
  21080875.131                   110781220.206 0                        48.000  
                                                                
  20171554.521    20171551.412   106002276.009 0  82599185.367 0        50.000  
        50.000                                                  
 22  1  7 13 59 49.0000000  0  0
 22  1  7 13 59 50.0000000  0  8E02E03E07E08E11E12E25E30
  23413236.305                   123037448.759 0                        49.000  
                  23413234.518    94275473.077          53.000  
  26004972.958                   136656639.851 0                        44.000  
                  26004973.798   104710869.115          49.000  
  26910660.206                   141416482.289 0                        42.000  
                  26910660.956   108358095.180          46.000  
  22684069.862                   119205877.627 0                        48.000  
                  22684068.272    91339573.399          52.000  
  25103266.071                   131918236.126 0                        38.000  
                  25103262.801   101080719.805          40.000  
  26428309.125                   138881094.73510                        34.000  
                  26428307.284   106415432.622          37.000  
  24694270.153                   129769307.171 0                        46.000  
                  24694270.171    99433652.677          50.000  
  26612306.061                   139848635.008 0                        43.000  
                  26612306.704   107156762.955          47.000  
 22  1  7 13 59 51.0000000  0  8G10G12G13G14G15G17G19G24
  24902524.752    24902520.750   130864177.259 0 101972085.501 0        40.000  
        38.000                                                  
  21714217.276    21714211.790   114108851.800 0  88915998.550 0        49.000  
        46.000                                                  
  23395765.689                   122945559.558 0                        44.000  
                                                                
  24908692.567    24908688.511   130896092.986 0 101996958.308 0        38.000  
        39.000                                                  
  22396108.038    22396104.893   117692366.744 0  91708316.357 0        47.000  
        45.000                                                  
  22605643.542    22605637.485   118793495.995 0  92566458.299 0        45.000  
        41.000                                                  
  21080947.518                   110781601.033 0                        48.000  
                                                                
  20171384.551    20171381.549   106001382.906 0  82598489.445 0        50.000  
        50.000                                                  
 22  1  7 13 59 50.0000000  0  0
 22  1  7 13 59 51.0000000  0  8E02E03E07E08E11E12E25E30
  23413140.634                   123036947.763 0                        49.000  
                  23413139.240    94275089.195          53.000  
  26005522.037                   136659525.749 0                        44.000  
                  26005522.877   104713080.383          49.000  
  26910295.553                   141414565.900 0                        42.000  
                  26910296.375   108356626.789          46.000  
  22684196.464                   119206542.928 0                        48.000  
                  22684194.838    91340083.175          52.000  
  25102986.367                   131916765.260 0                        38.000  
                  25102982.793   101079592.787          40.000  
  26428499.698                   138882097.33610                        34.000  
                  26428497.965   106416200.792          37.000  
  24694578.554                   129770928.228 0                        46.000  
                  24694578.661    99434894.783          50.000  
  26611891.982                   139846458.631 0                        43.000  
                  26611892.483   107155095.341          47.000  
 22  1  7 13 59 52.0000000  0  8G10G12G13G14G15G17G19G24
  24902731.819    24902727.834   130865265.634 0 101972933.579 0        40.000  
        38.000                                                  
  21713747.642    21713742.174   114106383.809 0  88914075.433 0        49.000  
        46.000                                                  
  23396474.589                   122949285.081 0                        44.000  
                                                                
  24909309.924    24909305.975   130899337.092 0 101999486.192 0        38.000  
        39.000                                                  
  22396703.773    22396700.610   117695496.991 0  91710755.515 0        47.000  
        45.000                                                  
  22606061.392    22606055.191   118795691.626 0  92568169.180 0        45.000  
        41.000                                                  
  21081020.120                   110781982.429 0                        48.000  
                                                                
  20171214.688    20171211.740   106000490.130 0  82597793.780 0        50.000  
        50.000                                                  
 22  1  7 13 59 51.0000000  0  0
 22  1  7 13 59 52.0000000  0  8E02E03E07E08E11E12E25E30
  23413045.589                   123036446.838 0                        49.000  
                  23413043.909    94274705.370          53.000  
  26006071.260                   136662411.679 0                        45.000  
                  26006072.046   104715291.684          49.000  
  26909930.935                   141412649.720 0                        42.000  
                  26909931.650   108355158.550          46.000  
  22684323.120                   119207208.555 0                        48.000  
                  22684321.458    91340593.201          52.000  
  25102706.610                   131915294.670 0                        38.000  
                  25102703.125   101078465.967          40.000  
  26428690.307                   138883100.22210                        34.000  
                  26428688.824   106416969.260          37.000  
  24694886.991                   129772549.262 0                        46.000  
                  24694887.099    99436136.876          50.000  
  26611477.814                   139844282.203 0                        43.000  
                  26611478.261   107153427.698          47.000  
 22  1  7 13 59 53.0000000  0  8G10G12G13G14G15G17G19G24
  24902939.099    24902935.097   130866354.913 0 101973782.384 0        41.000  
        38.000                                                  
  21713278.152    21713272.630   114103916.524 0  88912152.887 0        49.000  
        46.000                                                  
  23397183.739                   122953011.174 0                        44.000  
                                                                
  24909927.352    24909923.368   130902581.579 0 102002014.378 0        38.000  
        39.000                                                  
  22397299.580    22397296.381   117698627.927 0  91713195.201 0        47.000  
        45.000                                                  
  22606479.241    22606473.130   118797888.084 0  92569880.720 0        45.000  
        42.000                                                  
  21081092.901                   110782364.917 0                        47.000  
                                                                
  20171044.968    20171042.056   105999598.213 0  82597098.773 0        50.000  
        50.000                                                  
 22  1  7 13 59 52.0000000  0  0
 22  1  7 13 59 53.0000000  0  8E02E03E07E08E11E12E25E30
  23412950.311                   123035946.506 0                        49.000  
                  23412948.649    94274322.007          53.000  
  26006620.607                   136665298.172 0                        44.000  
                  26006621.322   104717503.413          49.000  
  26909566.336                   141410734.282 0                        42.000  
                  26909567.122   108353690.879          46.000  
  22684450.061                   119207875.044 0                        48.000  
                  22684448.292    91341103.890          52.000  
  25102426.763                   131913824.863 0                        38.000  
                  25102423.457   101077339.754          40.000  
  26428881.184                   138884103.94110                        34.000  
                  26428879.897   106417738.370          37.000  
  24695195.750                   129774170.794 0                        46.000  
                  24695195.572    99437379.348          50.000  
  26611063.503                   139842106.280 0                        43.000  
                  26611064.271   107151760.437          47.000  
 22  1  7 13 59 54.0000000  0  8G10G12G13G14G15G17G19G24
  24903146.451    24903142.467   130867444.685 0 101974631.554 0        40.000  
        38.000                                                  
  21712808.607    21712803.139   114101449.581 0  88910230.584 0        49.000  
        46.000                                                  
  23397892.782                   122956737.424 0                        44.000  
                                                                
  24910544.799    24910540.742   130905826.043 0 102004542.504 0        38.000  
        38.000                                                  
  22397895.476    22397892.277   117701759.186 0  91715635.141 0        47.000  
        45.000                                                  
  22606897.269    22606891.229   118800085.003 0  92571592.598 0        45.000  
        41.000                                                  
  21081165.753                   110782748.103 0                        48.000  
                                                                
  20170875.355    20170872.282   105998706.742 0  82596404.120 0        50.000  
        50.000                                                  
 22  1  7 13 59 53.0000000  0  0
 22  1  7 13 59 54.0000000  0  8E02E03E07E08E11E12E25E30
  23412855.158                   123035446.385 0                        49.000  
                  23412853.514    94273938.795          53.000  
  26007169.990                   136668184.854 0                        44.000  
                  26007170.759   104719715.282          49.000  
  26909201.968                   141408819.191 0                        42.000  
                  26909202.665   108352223.464          46.000  
  22684577.003                   119208542.006 0                        48.000  
                  22684575.252    91341614.936          52.000  
  25102147.184                   131912355.482 0                        38.000  
                  25102143.736   101076213.853          40.000  
  26429072.883                   138885108.13610                        34.000  
                  26429070.917   106418507.805          37.000  
  24695504.152                   129775792.449 0                        46.000  
                  24695504.330    99438621.913          50.000  
  26610649.746                   139839930.469 0                        43.000  
                  26610650.139   107150093.243          47.000  
 22  1  7 13 59 55.0000000  0  8G10G12G13G14G15G17G19G24
  24903353.696    24903349.801   130868534.477 0 101975480.750 0        40.000  
        38.000                                                  
  21712339.117    21712333.738   114098982.493 0  88908308.187 0        49.000  
        46.000                                                  
  23398601.843                   122960463.349 0                        44.000  
                                                                
  24911162.173    24911158.099   130909070.015 0 102007070.308 0        38.000  
        38.000                                                  
  22398491.336    22398488.084   117704890.287 0  91718074.968 0        47.000  
        45.000                                                  
  22607315.368    22607309.221   118802281.875 0  92573304.451 0        45.000  
        41.000                                                  
  21081238.783                   110783131.510 0                        47.000  
                                                                
  20170705.778    20170702.616   105997815.266 0  82595709.470 0        50.000  
        50.000                                                  
 22  1  7 13 59 54.0000000  0  0
 22  1  7 13 59 55.0000000  0  8E02E03E07E08E11E12E25E30
  23412759.863                   123034945.991 0                        49.000  
                  23412758.219    94273555.379          53.000  
  26007719.302                   136671071.218 0                        44.000  
                  26007720.034   104721926.925          49.000  
  26908837.565                   141406903.967 0                        42.000  
                  26908838.334   108350755.955          46.000  
  22684703.837                   119209208.959 0                        48.000  
                  22684702.175    91342125.976          52.000  
  25101867.677                   131910885.984 0                        38.000  
                  25101864.193   101075087.910          40.000  
  26429263.938                   138886112.29810                        34.000  
                  26429262.080   106419277.221          37.000  
  24695812.660                   129777413.732 0                        46.000  
                  24695812.839    99439864.197          50.000  
  26610235.542                   139837754.256 0                        43.000  
                  26610236.131   107148425.775          47.000  
 22  1  7 13 59 56.0000000  0  8G10G12G13G14G15G17G19G24
  24903561.173    24903557.314   130869625.021 0 101976330.513 0        40.000  
        38.000                                                  
  21711869.769    21711864.337   114096515.904 0  88906386.159 0        49.000  
        46.000                                                  
  23399310.868                   122964189.626 0                        44.000  
                                                                
  24911779.530    24911775.492   130912314.147 0 102009598.185 0        38.000  
        38.000                                                  
  22399087.304    22399083.962   117708021.886 0  91720515.164 0        47.000  
        45.000                                                  
  22607733.610    22607727.392   118804479.372 0  92575016.774 0        45.000  
        41.000                                                  
  21081311.850                   110783515.802 0                        47.000  
                                                                
  20170536.326    20170533.128   105996924.432 0  82595015.307 0        50.000  
        50.000                                                  
 22  1  7 13 59 55.0000000  0  0
 22  1  7 13 59 56.0000000  0  8E02E03E07E08E11E12E25E30
  23412664.800                   123034445.982 0                        49.000  
                  23412663.102    94273172.250          53.000  
  26008268.774                   136673957.950 0                        44.000  
                  26008269.293   104724138.823          49.000  
  26908473.234                   141404989.249 0                        42.000  
                  26908473.931   108349288.835          46.000  
  22684830.832                   119209876.558 0                        48.000  
                  22684829.278    91342637.510          52.000  
  25101587.991                   131909417.090 0                        38.000  
                  25101584.650   101073962.380          40.000  
  26429455.369                   138887117.10610                        34.000  
                  26429453.225   106420047.153          37.000  
  24696121.258                   129779035.317 0                        46.000  
                  24696121.509    99441106.703          50.000  
  26609821.499                   139835578.342 0                        43.000  
                  26609821.838   107146758.507          47.000  
 22  1  7 13 59 57.0000000  0  8G10G12G13G14G15G17G19G24
  24903768.829    24903765.005   130870716.295 0 101977180.864 0        40.000  
        38.000                                                  
  21711400.403    21711395.096   114094049.961 0  88904464.645 0        49.000  
        46.000                                                  
  23400020.018                   122967916.379 0                        44.000  
                                                                
  24912396.976    24912392.849   130915558.599 0 102012126.330 0        38.000  
        38.000                                                  
  22399683.415    22399680.002   117711154.102 0  91722955.852 0        47.000  
        45.000                                                  
  22608151.960    22608145.813   118806677.626 0  92576729.707 0        45.000  
        41.000                                                  
  21081385.220                   110783901.092 0                        47.000  
                                                                
  20170367.035    20170363.694   105996034.346 0  82594321.743 0        50.000  
        50.000                                                  
 22  1  7 13 59 56.0000000  0  0
 22  1  7 13 59 57.0000000  0  8E02E03E07E08E11E12E25E30
  23412569.558                   123033946.483 0                        49.000  
                  23412568.039    94272789.517          53.000  
  26008818.032                   136676845.151 0                        44.000  
                  26008818.693   104726351.098          49.000  
  26908108.974                   141403075.199 0                        42.000  
                  26908109.796   108347822.224          46.000  
  22684957.988                   119210544.917 0                        48.000  
                  22684956.434    91343149.636          52.000  
  25101308.448                   131907948.889 0                        38.000  
                  25101305.160   101072837.404          40.000  
  26429646.389                   138888122.65710                        34.000  
                  26429644.691   106420817.635          37.000  
  24696429.981                   129780657.307 0                        46.000  
                  24696430.035    99442349.522          50.000  
  26609407.473                   139833402.832 0                        43.000  
                  26609408.045   107145091.561          47.000  
 22  1  7 13 59 58.0000000  0  8G10G12G13G14G15G17G19G24
  24903976.557    24903972.751   130871808.306 0 101978031.765 0        40.000  
        38.000                                                  
  21710931.359    21710925.963   114091584.528 0  88902543.542 0        49.000  
        46.000                                                  
  23400729.311                   122971643.492 0                        44.000  
                                                                
  24913014.458    24913010.331   130918803.201 0 102014654.589 0        38.000  
        38.000                                                  
  22400279.668    22400276.184   117714286.836 0  91725396.937 0        47.000  
        45.000                                                  
  22608570.399    22608564.181   118808876.511 0  92578443.123 0        45.000  
        42.000                                                  
  21081458.858                   110784287.283 0                        47.000  
                                                                
  20170197.762    20170194.438   105995144.917 0  82593628.677 0        50.000  
        50.000                                                  
 22  1  7 13 59 57.0000000  0  0
 22  1  7 13 59 58.0000000  0  8E02E03E07E08E11E12E25E30
  23412474.691                   123033447.371 0                        49.000  
                  23412473.137    94272407.083          53.000  
  26009367.362                   136679732.707 0                        44.000  
                  26009368.148   104728563.638          49.000  
  26907744.875                   141401161.657 0                        42.000  
                  26907745.643   108346356.012          46.000  
  22685085.180                   119211213.939 0                        48.000  
                  22685083.733    91343662.266          52.000  
  25101029.030                   131906481.286 0                        38.000  
                  25101025.850   101071712.882          40.000  
  26429837.945                   138889128.90510                        34.000  
                  26429836.283   106421588.625          37.000  
  24696738.758                   129782279.587 0                        46.000  
                  24696738.776    99443592.575          50.000  
  26608993.609                   139831227.614 0                        43.000  
                  26608993.841   107143424.837          47.000  
 22  1  7 13 59 59.0000000  0  8G10G12G13G14G15G17G19G24
  24904184.320    24904180.514   130872900.200 0 101978882.573 0        40.000  
        38.000                                                  
  21710462.154    21710456.847   114089118.858 0  88900622.227 0        49.000  
        46.000                                                  
  23401438.532                   122975370.177 0                        44.000  
                                                                
  24913631.744    24913627.616   130922047.199 0 102017182.382 0        38.000  
        38.000                                                  
  22400875.779    22400872.330   117717419.307 0  91727837.810 0        47.000  
        45.000                                                  
  22608988.838    22608982.655   118811075.261 0  92580156.421 0        45.000  
        41.000                                                  
  21081532.425                   110784673.591 0                        48.000  
                                                                
  20170028.507    20170025.076   105994255.366 0  82592935.517 0        50.000  
        50.000                                                  
 22  1  7 13 59 58.0000000  0  0
 22  1  7 13 59 59.0000000  0  8E02E03E07E08E11E12E25E30
  23412379.521                   123032947.881 0                        49.000  
                  23412378.055    94272024.353          53.000  
  26009916.799                   136682619.858 0                        44.000  
                  26009917.531   104730775.871          49.000  
  26907380.990                   141399247.892 0                        42.000  
                  26907381.312   108344889.614          46.000  
  22685212.568                   119211882.849 0                        48.000  
                  22685210.978    91344174.798          52.000  
  25100749.755                   131905013.519 0                        38.000  
                  25100746.521   101070588.200          40.000  
  26430029.251                   138890134.93110                        34.000  
                  26430027.678   106422359.501          37.000  
  24697047.410                   129783901.404 0                        46.000  
                  24697047.463    99444835.262          50.000  
  26608579.619                   139829051.902 0                        43.000  
                  26608580.084   107141757.731          47.000  
 22  1  7 14  0  0.0000000  0  8G10G12G13G14G15G17G19G24
  24904392.262    24904388.456   130873992.766 0 101979733.925 0        40.000  
        38.000                                                  
  21709992.967    21709987.696   114086653.643 0  88898701.284 0        49.000  
        46.000                                                  
  23402147.772                   122979097.155 0                        44.000  
                                                                
  24914249.119    24914244.937   130925291.308 0 102019710.270 0        37.000  
        38.000                                                  
  22401472.050    22401468.369   117720552.213 0  91730279.055 0        47.000  
        45.000                                                  
  22609407.366    22609401.183   118813274.574 0  92581870.181 0        45.000  
        41.000                                                  
  21081606.081                   110785060.724 0                        48.000  
                                                                
  20169859.359    20169855.874   105993366.398 0  82592242.813 0        50.000  
        50.000                                                  
 22  1  7 13 59 59.0000000  0  0
 22  1  7 14  0  0.0000000  0  8E02E03E07E08E11E12E25E30
  23412284.636                   123032448.720 0                        49.000  
                  23412283.064    94271641.874          53.000  
  26010466.342                   136685507.311 0                        44.000  
                  26010467.111   104732988.335          49.000  
  26907016.855                   141397334.578 0                        42.000  
                  26907017.302   108343423.571          46.000  
  22685340.082                   119212552.341 0                        48.000  
                  22685338.456    91344687.785          52.000  
  25100470.784                   131903546.271 0                        38.000  
                  25100467.300   101069463.947          40.000  
  26430220.503                   138891141.56710                        34.000  
                  26430219.216   106423130.808          38.000  
  24697355.865                   129785523.456 0                        46.000  
                  24697355.990    99446078.137          50.000  
  26608165.666                   139826876.428 0                        43.000  
                  26608165.916   107140090.801          47.000  
 22  1  7 14  0  1.0000000  0  8G10G12G13G14G15G17G19G24
  24904600.311    24904596.469   130875085.824 0 101980585.675 0        40.000  
        38.000                                                  
  21709523.995    21709518.777   114084188.768 0  88896780.612 0        49.000  
        46.000                                                  
  23402857.029                   122982824.304 0                        44.000  
                                                                
  24914866.404    24914862.348   130928535.455 0 102022238.145 0        37.000  
        38.000                                                  
  22402068.250    22402064.587   117723685.473 0  91732720.543 0        47.000  
        45.000                                                  
  22609825.948    22609819.622   118815474.348 0  92583584.291 0        45.000  
        42.000                                                  
  21081679.970                   110785448.568 0                        47.000  
                                                                
  20169690.282    20169686.833   105992477.900 0  82591550.484 0        50.000  
        50.000                                                  
 22  1  7 14  0  0.0000000  0  0
 22  1  7 14  0  1.0000000  0  8E02E03E07E08E11E12E25E30
  23412189.609                   123031949.779 0                        49.000  
                  23412188.179    94271259.575          53.000  
  26011015.797                   136688394.952 0                        44.000  
                  26011016.565   104735200.943          49.000  
  26906652.774                   141395421.629 0                        42.000  
                  26906653.292   108341957.816          46.000  
  22685467.398                   119213222.316 0                        48.000  
                  22685465.844    91345201.148          52.000  
  25100191.455                   131902079.428 0                        38.000  
                  25100188.221   101068340.030          40.000  
  26430412.434                   138892148.68510                        34.000  
                  26430410.879   106423902.529          37.000  
  24697664.642                   129787145.636 0                        46.000  
                  24697664.749    99447321.106          50.000  
  26607751.605                   139824701.057 0                        43.000  
                  26607752.033   107138423.969          47.000  
 22  1  7 14  0  2.0000000  0  8G10G12G13G14G15G17G19G24
  24904808.378    24904804.643   130876179.367 0 101981437.793 0        40.000  
        38.000                                                  
  21709055.058    21709049.680   114081724.189 0  88894860.158 0        49.000  
        46.000                                                  
  23403566.286                   122986551.593 0                        44.000  
                                                                
  24915483.654    24915479.633   130931779.514 0 102024766.013 0        37.000  
        39.000                                                  
  22402664.593    22402660.841   117726818.997 0  91735162.257 0        47.000  
        45.000                                                  
  22610244.655    22610238.347   118817674.530 0  92585298.718 0        45.000  
        42.000                                                  
  21081753.930                   110785837.083 0                        47.000  
                                                                
  20169521.259    20169517.882   105991589.833 0  82590858.481 0        50.000  
        50.000                                                  
 22  1  7 14  0  1.0000000  0  0
 22  1  7 14  0  2.0000000  0  8E02E03E07E08E11E12E25E30
  23412094.974                   123031451.005 0                        49.000  
                  23412093.187    94270877.400          53.000  
  26011565.448                   136691282.731 0                        44.000  
                  26011566.038   104737413.655          49.000  
  26906288.764                   141393508.991 0                        42.000  
                  26906289.264   108340492.281          46.000  
  22685595.144                   119213892.729 0                        48.000  
                  22685593.429    91345714.843          52.000  
  25099912.288                   131900612.953 0                        38.000  
                  25099909.036   101067216.366          40.000  
  26430604.043                   138893156.23310                        34.000  
                  26430602.632   106424674.531          38.000  
  24697973.436                   129788767.899 0                        46.000  
                  24697973.454    99448564.132          50.000  
  26607337.972                   139822525.765 0                        43.000  
                  26607338.026   107136757.189          47.000  
 22  1  7 14  0  3.0000000  0  8G10G12G13G14G15G17G19G24
  24905016.552    24905012.942   130877273.749 0 101982290.567 0        40.000  
        38.000                                                  
  21708586.104    21708580.761   114079260.282 0  88892940.220 0        49.000  
        46.000                                                  
  23404275.669                   122990279.382 0                        44.000  
                                                                
  24916101.046    24916097.115   130935023.911 0 102027294.114 0        37.000  
        38.000                                                  
  22403260.972    22403257.166   117729953.173 0  91737604.474 0        47.000  
        45.000                                                  
  22610663.451    22610657.215   118819875.498 0  92587013.754 0        45.000  
        42.000                                                  
  21081828.015                   110786226.631 0                        47.000  
                                                                
  20169352.414    20169348.966   105990702.556 0  82590167.101 0        50.000  
        50.000                                                  
 22  1  7 14  0  2.0000000  0  0
 22  1  7 14  0  3.0000000  0  8E02E03E07E08E11E12E25E30
  23411999.929                   123030952.773 0                        49.000  
                  23411998.392    94270495.636          53.000  
  26012114.992                   136694171.023 0                        44.000  
                  26012115.635   104739626.764          49.000  
  26905924.772                   141391597.039 0                        42.000  
                  26905925.504   108339027.275          46.000  
  22685722.800                   119214563.943 0                        48.000  
                  22685721.174    91346229.145          52.000  
  25099633.317                   131899147.204 0                        38.000  
                  25099630.136   101066093.274          40.000  
  26430795.492                   138894164.55710                        34.000  
                  26430794.491   106425447.147          38.000  
  24698282.088                   129790390.599 0                        46.000  
                  24698282.356    99449807.507          50.000  
  26606923.876                   139820350.905 0                        43.000  
                  26606924.287   107135090.727          47.000  
 22  1  7 14  0  4.0000000  0  8G10G12G13G14G15G17G19G24
  24905224.869    24905221.313   130878368.577 0 101983143.687 0        40.000  
        38.000                                                  
  21708117.310    21708111.985   114076796.657 0  88891020.512 0        48.000  
        46.000                                                  
  23404985.105                   122994007.287 0                        44.000  
                                                                
  24916718.492    24916714.526   130938268.255 0 102029822.159 0        37.000  
        39.000                                                  
  22403857.475    22403853.616   117733087.636 0  91740046.899 0        47.000  
        45.000                                                  
  22611082.373    22611076.208   118822076.866 0  92588729.098 0        45.000  
        42.000                                                  
  21081902.332                   110786616.836 0                        47.000  
                                                                
  20169183.516    20169180.228   105989815.695 0  82589476.036 0        50.000  
        50.000                                                  
 22  1  7 14  0  3.0000000  0  0
 22  1  7 14  0  4.0000000  0  8E02E03E07E08E11E12E25E30
  23411905.062                   123030454.707 0                        49.000  
                  23411903.740    94270113.994          53.000  
  26012664.482                   136697059.436 0                        44.000  
                  26012665.251   104741839.968          49.000  
  26905560.869                   141389685.369 0                        42.000  
                  26905561.637   108337562.491          46.000  
  22685850.457                   119215235.571 0                        48.000  
                  22685849.027    91346743.774          52.000  
  25099354.345                   131897681.829 0                        38.000  
                  25099351.397   101064970.445          40.000  
  26430987.566                   138895173.27910                        34.000  
                  26430986.530   106426220.076          38.000  
  24698590.847                   129792013.367 0                        46.000  
                  24698591.079    99451050.924          50.000  
  26606509.958                   139818176.094 0                        43.000  
                  26606510.279   107133424.327          47.000  
 22  1  7 14  0  5.0000000  0  8G10G12G13G14G15G17G19G24
  24905433.222    24905429.684   130879463.663 0 101983996.987 0        40.000  
        38.000                                                  
  21707648.480    21707643.191   114074333.109 0  88889100.880 0        48.000  
        46.000                                                  
  23405694.398                   122997735.102 0                        44.000  
                                                                
  24917335.724    24917331.865   130941512.302 0 102032350.015 0        37.000  
        39.000                                                  
  22404454.033    22404450.066   117736222.161 0  91742489.386 0        47.000  
        45.000                                                  
  22611501.294    22611495.165   118824278.418 0  92590444.614 0        45.000  
        42.000                                                  
  21081976.703                   110787007.487 0                        47.000  
                                                                
  20169014.779    20169011.456   105988929.034 0  82588785.133 0        50.000  
        50.000                                                  
 22  1  7 14  0  4.0000000  0  0
 22  1  7 14  0  5.0000000  0  8E02E03E07E08E11E12E25E30
  23411810.482                   123029956.575 0                        49.000  
                  23411808.963    94269732.315          53.000  
  26013214.437                   136699947.764 0                        44.000  
                  26013215.063   104744053.098          49.000  
  26905197.234                   141387773.787 0                        42.000  
                  26905198.003   108336097.779          46.000  
  22685978.435                   119215907.416 0                        48.000  
                  22685976.862    91347258.560          52.000  
  25099075.678                   131896216.603 0                        38.000  
                  25099072.604   101063847.726          40.000  
  26431179.158                   138896182.23110                        34.000  
                  26431178.532   106426993.159          38.000  
  24698899.856                   129793635.994 0                        46.000  
                  24698899.838    99452294.235          50.000  
  26606096.272                   139816001.145 0                        43.000  
                  26606096.504   107131757.801          47.000  
 22  1  7 14  0  6.0000000  0  8G10G12G13G14G15G17G19G24
  24905641.753    24905638.179   130880559.656 0 101984851.017 0        40.000  
        38.000                                                  
  21707179.776    21707174.522   114071870.282 0  88887181.785 0        48.000  
        46.000                                                  
  23406403.923                   123001463.480 0                        44.000  
                                                                
  24917952.992    24917949.239   130944756.772 0 102034878.137 0        36.000  
        39.000                                                  
  22405050.608    22405046.677   117739357.399 0  91744932.440 0        47.000  
        45.000                                                  
  22611920.483    22611914.176   118826480.824 0  92592160.763 0        45.000  
        42.000                                                  
  21082051.342                   110787399.236 0                        47.000  
                                                                
  20168846.239    20168842.826   105988043.232 0  82588094.899 0        50.000  
        50.000                                                  
 22  1  7 14  0  5.0000000  0  0
 22  1  7 14  0  6.0000000  0  8E02E03E07E08E11E12E25E30
  23411715.758                   123029459.054 0                        49.000  
                  23411714.150    94269351.100          53.000  
  26013764.249                   136702836.684 0                        44.000  
                  26013764.750   104746266.684          49.000  
  26904833.707                   141385862.960 0                        42.000  
                  26904834.386   108334633.634          46.000  
  22686106.484                   119216580.129 0                        48.000  
                  22686104.912    91347774.013          52.000  
  25098796.850                   131894752.172 0                        38.000  
                  25098793.937   101062725.639          40.000  
  26431371.286                   138897192.01010                        34.000  
                  26431370.821   106427766.888          37.000  
  24699208.615                   129795259.128 0                        46.000  
                  24699208.811    99453537.938          50.000  
  26605682.533                   139813826.693 0                        43.000  
                  26605682.801   107130091.660          47.000  
 22  1  7 14  0  7.0000000  0  8G10G12G13G14G15G17G19G24
  24905850.428    24905846.800   130881656.063 0 101985705.342 0        40.000  
        38.000                                                  
  21706711.232    21706705.871   114069407.707 0  88885262.898 0        48.000  
        46.000                                                  
  23407113.395                   123005191.923 0                        44.000  
                                                                
  24918570.241    24918566.632   130948001.098 0 102037406.202 0        36.000  
        39.000                                                  
  22405647.237    22405643.288   117742492.866 0  91747375.657 0        47.000  
        45.000                                                  
  22612339.637    22612333.276   118828683.580 0  92593877.187 0        45.000  
        42.000                                                  
  21082125.998                   110787791.587 0                        47.000  
                                                                
  20168677.698    20168674.321   105987157.801 0  82587404.956 0        50.000  
        50.000                                                  
 22  1  7 14  0  6.0000000  0  0
 22  1  7 14  0  7.0000000  0  8E02E03E07E08E11E12E25E30
  23411621.088                   123028961.647 0                        49.000  
                  23411619.515    94268969.968          53.000  
  26014313.793                   136705725.666 0                        44.000  
                  26014314.454   104748480.315          49.000  
  26904470.358                   141383952.379 0                        42.000  
                  26904470.787   108333169.682          46.000  
  22686234.623                   119217253.207 0                        48.000  
                  22686233.015    91348289.750          52.000  
  25098518.397                   131893288.041 0                        38.000  
                  25098515.234   101061603.770          40.000  
  26431563.860                   138898202.14110                        34.000  
                  26431562.949   106428540.891          37.000  
  24699517.391                   129796882.283 0                        46.000  
                  24699517.588    99454781.649          50.000  
  26605268.811                   139811652.237 0                        43.000  
                  26605269.097   107128425.523          47.000  
 22  1  7 14  0  8.0000000  0  8G10G12G13G14G15G17G19G24
  24906059.156    24906055.510   130882752.599 0 101986559.781 0        40.000  
        38.000                                                  
  21706242.617    21706237.203   114066945.077 0  88883343.974 0        48.000  
        46.000                                                  
  23407822.830                   123008920.163 0                        44.000  
                                                                
  24919187.527    24919183.935   130951245.063 0 102039933.958 0        36.000  
        39.000                                                  
  22406243.866    22406239.952   117745628.274 0  91749818.827 0        47.000  
        45.000                                                  
  22612758.916    22612752.376   118830886.403 0  92595593.686 0        45.000  
        42.000                                                  
  21082200.673                   110788184.266 0                        47.000  
                                                                
  20168509.193    20168505.798   105986272.457 0  82586715.083 0        50.000  
        50.000                                                  
 22  1  7 14  0  7.0000000  0  0
 22  1  7 14  0  8.0000000  0  8E02E03E07E08E11E12E25E30
  23411526.239                   123028464.068 0                        49.000  
                  23411524.792    94268588.712          53.000  
  26014863.552                   136708614.449 0                        44.000  
                  26014864.266   104750693.814          49.000  
  26904106.813                   141382041.765 0                        42.000  
                  26904107.170   108331705.714          46.000  
  22686362.529                   119217926.393 0                        48.000  
                  22686361.100    91348805.568          52.000  
  25098239.676                   131891823.966 0                        38.000  
                  25098236.602   101060481.950          40.000  
  26431756.041                   138899212.38910                        34.000  
                  26431755.166   106429314.967          38.000  
  24699826.365                   129798505.177 0                        46.000  
                  24699826.436    99456025.165          50.000  
  26604854.911                   139809477.520 0                        43.000  
                  26604855.090   107126759.184          47.000  
 22  1  7 14  0  9.0000000  0  8G10G12G13G14G15G17G19G24
  24906267.919    24906264.328   130883849.777 0 101987414.739 0        41.000  
        38.000                                                  
  21705774.020    21705768.748   114064482.917 0  88881425.401 0        48.000  
        46.000                                                  
  23408532.392                   123012648.685 0                        44.000  
                                                                
  24919804.866    24919801.238   130954489.126 0 102042461.814 0        36.000  
        39.000                                                  
  22406840.619    22406836.724   117748764.123 0  91752262.348 0        47.000  
        45.000                                                  
  22613178.212    22613171.690   118833089.798 0  92597310.615 0        45.000  
        42.000                                                  
  21082275.598                   110788577.784 0                        47.000  
                                                                
  20168340.795    20168337.472   105985387.695 0  82586025.655 0        50.000  
        50.000                                                  
 22  1  7 14  0  8.0000000  0  0
 22  1  7 14  0  9.0000000  0  8E02E03E07E08E11E12E25E30
  23411431.837                   123027966.820 0                        49.000  
                  23411430.175    94268207.700          53.000  
  26015413.542                   136711503.534 0                        44.000  
                  26015414.114   104752907.519          49.000  
  26903743.071                   141380131.618 0                        42.000  
                  26903743.607   108330242.091          46.000  
  22686490.686                   119218600.163 0                        48.000  
                  22686489.256    91349321.831          52.000  
  25097961.151                   131890360.406 0                        38.000  
                  25097958.131   101059360.515          40.000  
  26431948.169                   138900223.19210                        34.000  
                  26431947.562   106430089.485          38.000  
  24700135.141                   129800128.308 0                        46.000  
                  24700135.213    99457268.866          50.000  
  26604441.207                   139807303.015 0                        43.000  
                  26604441.404   107125093.011          47.000  
 22  1  7 14  0 10.0000000  0  8G10G12G13G14G15G17G19G24
  24906476.791    24906473.288   130884947.528 0 101988270.120 0        41.000  
        38.000                                                  
  21705305.512    21705300.276   114062021.161 0  88879507.154 0        48.000  
        46.000                                                  
  23409241.988                   123016377.462 0                        44.000  
                                                                
  24920422.223    24920418.631   130957733.276 0 102044989.691 0        36.000  
        39.000                                                  
  22407437.373    22407433.567   117751900.373 0  91754706.184 0        47.000  
        45.000                                                  
  22613597.616    22613591.058   118835293.715 0  92599027.958 0        45.000  
        42.000                                                  
  21082350.612                   110788972.068 0                        47.000  
                                                                
  20168172.594    20168169.110   105984503.487 0  82585336.655 0        50.000  
        50.000                                                  
 22  1  7 14  0  9.0000000  0  0
 22  1  7 14  0 10.0000000  0  8E02E03E07E08E11E12E25E30
  23411337.113                   123027469.856 0                        49.000  
                  23411335.648    94267826.909          53.000  
  26015963.247                   136714392.874 0                        44.000  
                  26015963.890   104755121.420          49.000  
  26903379.544                   141378221.897 0                        42.000  
                  26903380.348   108328778.796          46.000  
  22686619.128                   119219274.478 0                        48.000  
                  22686617.627    91349838.514          52.000  
  25097682.948                   131888897.329 0                        38.000  
                  25097679.768   101058239.462          40.000  
  26432141.101                   138901234.53210                        34.000  
                  26432139.993   106430864.412          37.000  
  24700444.043                   129801751.630 0                        46.000  
                  24700444.150    99458512.710          50.000  
  26604027.396                   139805128.715 0                        43.000  
                  26604027.521   107123426.975          47.000  
 22  1  7 14  0 11.0000000  0  8G06G12G13G14G15G17G19G24
  24611937.021    24611935.216   129336751.245 0 100781883.509 0        40.000  
        37.000                                                  
  21704837.165    21704832.001   114059560.124 0  88877589.479 0        48.000  
        46.000                                                  
  23409951.549                   123020106.794 0                        44.000  
                                                                
  24921039.383    24921036.042   130960977.772 0 102047517.896 0        36.000  
        39.000                                                  
  22408034.342    22408030.589   117755037.340 0  91757150.574 0        47.000  
        44.000                                                  
  22614017.109    22614010.605   118837498.475 0  92600745.955 0        45.000  
        42.000                                                  
  21082425.751                   110789367.459 0                        47.000  
                                                                
  20168004.500    20168001.105   105983620.118 0  82584648.323 0        50.000  
        50.000                                                  
 22  1  7 14  0 10.0000000  0  0
 22  1  7 14  0 11.0000000  0  8E02E03E07E08E11E12E25E30
  23411242.854                   123026973.494 0                        49.000  
                  23411241.175    94267446.584          53.000  
  26016513.416                   136717282.783 0                        44.000  
                  26016513.792   104757335.777          49.000  
  26903016.249                   141376312.909 0                        42.000  
                  26903016.963   108327316.071          46.000  
  22686747.517                   119219949.660 0                        48.000  
                  22686746.070    91350355.868          52.000  
  25097404.585                   131887435.052 0                        38.000  
                  25097401.529   101057119.007          40.000  
  26432333.872                   138902246.69710                        34.000  
                  26432332.639   106431639.983          37.000  
  24700753.106                   129803375.460 0                        46.000  
                  24700753.213    99459756.941          50.000  
  26603613.586                   139802954.896 0                        43.000  
                  26603614.050   107121761.331          47.000  
 22  1  7 14  0 12.0000000  0  8G06G12G13G14G15G17G19G24
  24611401.147    24611399.253   129333935.340 0 100779689.283 0        40.000  
        37.000                                                  
  21704368.889    21704363.743   114057099.172 0  88875671.843 0        48.000  
        46.000                                                  
  23410661.235                   123023836.032 0                        44.000  
                                                                
  24921656.668    24921653.434   130964222.028 0 102050045.864 0        36.000  
        39.000                                                  
  22408631.221    22408627.611   117758174.368 0  91759595.006 0        47.000  
        44.000                                                  
  22614436.763    22614430.223   118839703.414 0  92602464.091 0        45.000  
        42.000                                                  
  21082501.141                   110789763.290 0                        47.000  
                                                                
  20167836.460    20167832.940   105982736.940 0  82583960.134 0        50.000  
        50.000                                                  
 22  1  7 14  0 11.0000000  0  0
 22  1  7 14  0 12.0000000  0  8E02E03E07E08E11E12E25E30
  23411148.238                   123026477.073 0                        49.000  
                  23411146.647    94267066.212          53.000  
  26017063.246                   136720172.604 0                        44.000  
                  26017063.747   104759550.051          49.000  
  26902652.989                   141374404.021 0                        42.000  
                  26902653.758   108325853.410          46.000  
  22686876.031                   119220625.052 0                        48.000  
                  22686874.620    91350873.367          52.000  
  25097126.364                   131885972.890 0                        38.000  
                  25097123.183   101055998.676          40.000  
  26432526.857                   138903259.10810                        34.000  
                  26432525.249   106432415.699          37.000  
  24701061.972                   129804999.143 0                        46.000  
                  24701062.204    99461001.057          50.000  
  26603199.900                   139800780.924 0                        43.000  
                  26603200.257   107120095.563          47.000  
 22  1  7 14  0 13.0000000  0  8G06G12G13G14G15G17G19G24
  24610865.201    24610863.343   129331119.361 0 100777495.011 0        40.000  
        37.000                                                  
  21703900.506    21703895.378   114054638.332 0  88873754.312 0        48.000  
        46.000                                                  
  23411371.011                   123027565.214 0                        44.000  
                                                                
  24922273.918    24922270.666   130967466.031 0 102052573.661 0        36.000  
        39.000                                                  
  22409228.207    22409224.544   117761311.487 0  91762039.510 0        47.000  
        44.000                                                  
  22614856.310    22614849.824   118841908.593 0  92604182.415 0        45.000  
        42.000                                                  
  21082576.512                   110790159.602 0                        47.000  
                                                                
  20167668.473    20167664.935   105981854.029 0  82583272.149 0        50.000  
        50.000                                                  
 22  1  7 14  0 12.0000000  0  0
 22  1  7 14  0 13.0000000  0  8E02E03E07E08E11E12E25E30
  23411053.729                   123025980.647 0                        49.000  
                  23411052.281    94266685.829          53.000  
  26017613.058                   136723062.391 0                        44.000  
                  26017613.630   104761764.299          49.000  
  26902289.784                   141372495.244 0                        42.000  
                  26902290.391   108324390.850          46.000  
  22687004.688                   119221300.692 0                        48.000  
                  22687003.277    91351391.067          52.000  
  25096848.054                   131884510.950 0                        38.000  
                  25096844.981   101054878.491          40.000  
  26432719.503                   138904271.71810                        34.000  
                  26432717.913   106433191.625          37.000  
  24701370.802                   129806622.724 0                        46.000  
                  24701371.249    99462245.099          50.000  
  26602786.339                   139798606.839 0                        43.000  
                  26602786.482   107118429.702          47.000  
 22  1  7 14  0 14.0000000  0  8G06G12G13G14G15G17G19G24
  24610329.417    24610327.540   129328303.634 0 100775300.955 0        40.000  
        37.000                                                  
  21703432.266    21703427.192   114052177.932 0  88871837.113 0        48.000  
        46.000                                                  
  23412080.733                   123031294.666 0                        44.000  
                                                                
  24922891.168    24922888.023   130970710.143 0 102055101.557 0        36.000  
        39.000                                                  
  22409825.247    22409821.601   117764449.040 0  91764484.357 0        47.000  
        44.000                                                  
  22615276.054    22615269.531   118844114.318 0  92605901.153 0        45.000  
        42.000                                                  
  21082652.045                   110790556.729 0                        47.000  
                                                                
  20167500.487    20167497.127   105980971.670 0  82582584.606 0        50.000  
        50.000                                                  
 22  1  7 14  0 13.0000000  0  0
 22  1  7 14  0 14.0000000  0  8E02E03E07E08E11E12E25E30
  23410959.434                   123025484.534 0                        49.000  
                  23410957.754    94266305.689          53.000  
  26018163.138                   136725952.438 0                        44.000  
                  26018163.603   104763978.755          49.000  
  26901926.488                   141370586.923 0                        42.000  
                  26901927.185   108322928.630          46.000  
  22687133.488                   119221976.903 0                        48.000  
                  22687131.862    91351909.203          52.000  
  25096570.191                   131883049.522 0                        38.000  
                  25096566.867   101053758.682          40.000  
  26432912.882                   138905284.91610                        34.000  
                  26432910.899   106433967.946          37.000  
  24701679.883                   129808246.518 0                        46.000  
                  24701680.151    99463489.303          50.000  
  26602372.564                   139796432.958 0                        43.000  
                  26602372.814   107116764.004          47.000  
 22  1  7 14  0 15.0000000  0  8G06G12G13G14G15G17G19G24
  24609793.757    24609791.881   129325488.416 0 100773107.264 0        40.000  
        37.000                                                  
  21702964.080    21702959.059   114049718.184 0  88869920.423 0        48.000  
        46.000                                                  
  23412790.615                   123035024.596 0                        44.000  
                                                                
  24923508.453    24923505.487   130973954.563 0 102057629.649 0        36.000  
        39.000                                                  
  22410422.411    22410418.730   117767587.219 0  91766929.695 0        47.000  
        44.000                                                  
  22615695.833    22615689.418   118846320.809 0  92607620.501 0        45.000  
        42.000                                                  
  21082727.845                   110790954.866 0                        47.000  
                                                                
  20167332.750    20167329.355   105980090.091 0  82581897.652 0        50.000  
        50.000                                                  
 22  1  7 14  0 14.0000000  0  0
 22  1  7 14  0 15.0000000  0  8E02E03E07E08E11E12E25E30
  23410864.996                   123024988.935 0                        49.000  
                  23410863.549    94265925.944          53.000  
  26018713.182                   136728842.990 0                        44.000  
                  26018713.593   104766193.593          49.000  
  26901563.479                   141368679.270 0                        42.000  
                  26901564.248   108321466.917          46.000  
  22687262.145                   119222653.898 0                        48.000  
                  22687260.787    91352427.942          52.000  
  25096292.381                   131881588.797 0                        38.000  
                  25096288.914   101052639.430          40.000  
  26433105.814                   138906298.85610                        34.000  
                  26433103.705   106434744.864          37.000  
  24701988.856                   129809870.736 0                        46.000  
                  24701989.142    99464733.843          50.000  
  26601958.825                   139794259.497 0                        43.000  
                  26601959.271   107115098.632          47.000  
 22  1  7 14  0 16.0000000  0  8G06G12G13G14G15G17G19G24
  24609258.115    24609256.275   129322673.253 0 100770913.624 0        40.000  
        37.000                                                  
  21702496.037    21702491.051   114047258.658 0  88868003.910 0        48.000  
        46.000                                                  
  23413500.427                   123038754.603 0                        44.000  
                                                                
  24924125.810    24924122.844   130977198.834 0 102060157.670 0        36.000  
        39.000                                                  
  22411019.630    22411015.949   117770725.614 0  91769375.203 0        47.000  
        44.000                                                  
  22616115.773    22616109.250   118848527.632 0  92609340.096 0        45.000  
        42.000                                                  
  21082803.681                   110791353.599 0                        47.000  
                                                                
  20167165.157    20167161.619   105979208.873 0  82581210.987 0        50.000  
        50.000                                                  
 22  1  7 14  0 15.0000000  0  0
 22  1  7 14  0 16.0000000  0  8E02E03E07E08E11E12E25E30
  23410770.773                   123024493.430 0                        49.000  
                  23410769.200    94265546.271          53.000  
  26019263.227                   136731733.603 0                        44.000  
                  26019263.727   104768408.479          49.000  
  26901200.524                   141366771.843 0                        42.000  
                  26901201.328   108320005.380          46.000  
  22687390.999                   119223331.259 0                        48.000  
                  22687389.712    91352946.950          52.000  
  25096014.571                   131880128.390 0                        38.000  
                  25096010.855   101051520.409          40.000  
  26433299.014                   138907313.16310                        34.000  
                  26433296.798   106435522.062          37.000  
  24702298.133                   129811494.962 0                        46.000  
                  24702298.294    99465978.377          50.000  
  26601545.246                   139792086.036 0                        43.000  
                  26601545.586   107113433.241          47.000  
 22  1  7 14  0 17.0000000  0  8G06G12G13G14G15G17G19G24
  24608722.509    24608720.704   129319858.201 0 100768720.091 0        40.000  
        37.000                                                  
  21702028.011    21702023.115   114044799.429 0  88866087.623 0        49.000  
        46.000                                                  
  23414210.202                   123042484.718 0                        44.000  
                                                                
  24924743.131    24924740.093   130980443.081 0 102062685.641 0        36.000  
        39.000                                                  
  22411616.813    22411613.239   117773864.306 0  91771820.935 0        47.000  
        44.000                                                  
  22616535.820    22616529.369   118850734.865 0  92611060.025 0        45.000  
        42.000                                                  
  21082879.732                   110791753.007 0                        47.000  
                                                                
  20166997.545    20166994.043   105978328.081 0  82580524.655 0        50.000  
        50.000                                                  
 22  1  7 14  0 16.0000000  0  0
 22  1  7 14  0 17.0000000  0  8E02E03E07E08E11E12E25E30
  23410676.478                   123023998.110 0                        49.000  
                  23410674.959    94265166.745          53.000  
  26019813.271                   136734624.364 0                        44.000  
                  26019813.825   104770623.466          49.000  
  26900837.479                   141364864.731 0                        42.000  
                  26900838.390   108318544.095          46.000  
  22687520.120                   119224009.044 0                        48.000  
                  22687518.637    91353466.300          52.000  
  25095736.637                   131878668.331 0                        38.000  
                  25095733.099   101050401.670          40.000  
  26433491.838                   138908327.86610                        34.000  
                  26433489.855   106436299.555          37.000  
  24702607.249                   129813119.273 0                        46.000  
                  24702607.410    99467222.979          50.000  
  26601131.507                   139789912.649 0                        43.000  
                  26601131.989   107111767.921          47.000  
 22  1  7 14  0 18.0000000  0  8G06G12G13G14G15G17G19G24
  24608186.849    24608185.116   129317043.463 0 100766526.786 0        39.000  
        37.000                                                  
  21701560.075    21701555.233   114042340.690 0  88864171.731 0        49.000  
        46.000                                                  
  23414920.103                   123046215.162 0                        44.000  
                                                                
  24925360.452    24925357.504   130983687.457 0 102065213.733 0        36.000  
        39.000                                                  
  22412214.121    22412210.582   117777003.464 0  91774267.030 0        47.000  
        44.000                                                  
  22616955.920    22616949.452   118852942.706 0  92612780.418 0        45.000  
        42.000                                                  
  21082955.782                   110792153.266 0                        47.000  
                                                                
  20166830.041    20166826.610   105977447.902 0  82579838.804 0        50.000  
        50.000                                                  
 22  1  7 14  0 17.0000000  0  0
 22  1  7 14  0 18.0000000  0  8E02E03E07E08E11E12E25E30
  23410582.272                   123023503.142 0                        49.000  
                  23410580.753    94264787.484          53.000  
  26020363.351                   136737515.447 0                        44.000  
                  26020363.959   104772838.723          49.000  
  26900474.738                   141362958.123 0                        42.000  
                  26900475.506   108317083.190          46.000  
  22687649.117                   119224687.459 0                        48.000  
                  22687647.759    91353986.125          52.000  
  25095458.738                   131877208.834 0                        38.000  
                  25095455.325   101049283.363          40.000  
  26433684.770                   138909343.21110                        34.000  
                  26433683.180   106437077.554          38.000  
  24702916.294                   129814743.845 0                        46.000  
                  24702916.580    99468467.783          50.000  
  26600717.964                   139787739.499 0                        43.000  
                  26600718.446   107110102.791          47.000  
 22  1  7 14  0 19.0000000  0  8G06G10G12G13G15G17G19G24
  24607651.333    24607649.438   129314228.614 0 100764333.388 0        39.000  
        37.000                                                  
  24908361.526    24908358.184   130893708.67310 101995097.63810        41.000  
        39.000                                                  
  21701092.211    21701087.350   114039881.971 0  88862255.846 0        49.000  
        46.000                                                  
  23415629.932                   123049945.451 0                        44.000  
                                                                
  22412811.464    22412807.926   117780142.626 0  91776713.139 0        47.000  
        44.000                                                  
  22617376.075    22617369.803   118855150.670 0  92614500.917 0        45.000  
        42.000                                                  
  21083031.922                   110792553.915 0                        47.000  
                                                                
  20166662.519    20166659.088   105976567.878 0  82579153.076 0        50.000  
        50.000                                                  
 22  1  7 14  0 18.0000000  0  0
 22  1  7 14  0 19.0000000  0  8E02E03E07E08E11E12E25E30
  23410487.942                   123023008.068 0                        49.000  
                  23410486.566    94264408.144          53.000  
  26020913.503                   136740406.389 0                        44.000  
                  26020914.199   104775053.854          49.000  
  26900111.764                   141361051.541 0                        42.000  
                  26900112.658   108315622.307          46.000  
  22687778.167                   119225366.026 0                        48.000  
                  22687776.827    91354506.064          52.000  
  25095180.910                   131875749.424 0                        38.000  
                  25095177.622   101048165.111          40.000  
  26433878.238                   138910358.72710                        34.000  
                  26433876.308   106437855.627          37.000  
  24703225.374                   129816368.221 0                        46.000  
                  24703225.642    99469712.433          50.000  
  26600304.600                   139785566.153 0                        43.000  
                  26600304.939   107108437.495          47.000  
 22  1  7 14  0 20.0000000  0  8G06G10G12G13G15G17G19G24
  24607115.744    24607113.868   129311414.229 0 100762140.361 0        39.000  
        37.000                                                  
  24908571.540    24908568.038   130894811.876 0 101995957.263 0        41.000  
        39.000                                                  
  21700624.507    21700619.736   114037423.919 0  88860340.479 0        49.000  
        46.000                                                  
  23416339.886                   123053676.238 0                        44.000  
                                                                
  22413408.861    22413405.466   117783282.439 0  91779159.748 0        47.000  
        44.000                                                  
  22617796.301    22617790.189   118857359.421 0  92616222.019 0        45.000  
        42.000                                                  
  21083108.259                   110792955.600 0                        47.000  
                                                                
  20166495.247    20166491.637   105975688.641 0  82578467.947 0        50.000  
        50.000                                                  
 22  1  7 14  0 19.0000000  0  0
 22  1  7 14  0 20.0000000  0  8E02E03E07E08E11E12E25E30
  23410393.933                   123022513.529 0                        49.000  
                  23410392.414    94264029.206          53.000  
  26021463.922                   136743297.836 0                        44.000  
                  26021464.297   104777269.383          49.000  
  26899749.220                   141359145.640 0                        42.000  
                  26899750.059   108314161.940          46.000  
  22687907.414                   119226045.398 0                        48.000  
                  22687906.109    91355026.617          52.000  
  25094903.297                   131874290.727 0                        38.000  
                  25094899.848   101047047.420          40.000  
  26434071.724                   138911374.95610                        34.000  
                  26434069.597   106438634.316          37.000  
  24703534.741                   129817993.048 0                        46.000  
                  24703534.830    99470957.424          50.000  
  26599891.021                   139783393.244 0                        43.000  
                  26599891.397   107106772.537          47.000  
 22  1  7 14  0 21.0000000  0  8G06G10G12G13G15G17G19G24
  24606580.120    24606578.298   129308599.861 0 100759947.344 0        39.000  
        37.000                                                  
  24908781.591    24908778.053   130895915.402 0 101996817.148 0        41.000  
        39.000                                                  
  21700156.785    21700152.014   114034966.051 0  88858425.255 0        49.000  
        46.000                                                  
  23417049.858                   123057407.049 0                        44.000  
                                                                
  22414006.401    22414002.917   117786422.416 0  91781606.468 0        47.000  
        44.000                                                  
  22618216.687    22618210.540   118859568.462 0  92617943.354 0        45.000  
        42.000                                                  
  21083184.756                   110793357.845 0                        47.000  
                                                                
  20166328.011    20166324.365   105974809.712 0  82577783.078 0        50.000  
        50.000                                                  
 22  1  7 14  0 20.0000000  0  0
 22  1  7 14  0 21.0000000  0  8E02E03E07E08E11E12E25E30
  23410299.834                   123022019.051 0                        49.000  
                  23410298.423    94263650.320          53.000  
  26022014.109                   136746189.307 0                        44.000  
                  26022014.592   104779484.927          49.000  
  26899386.657                   141357239.948 0                        42.000  
                  26899387.372   108312701.729          46.000  
  22688036.928                   119226725.084 0                        48.000  
                  22688035.570    91355547.420          52.000  
  25094625.773                   131872832.324 0                        38.000  
                  25094622.342   101045929.953          40.000  
  26434265.728                   138912391.50710                        34.000  
                  26434262.976   106439413.248          37.000  
  24703843.714                   129819617.823 0                        46.000  
                  24703844.036    99472202.385          50.000  
  26599477.550                   139781220.276 0                        43.000  
                  26599477.997   107105107.540          47.000  
 22  1  7 14  0 22.0000000  0  8G06G10G12G13G15G17G19G24
  24606044.514    24606042.745   129305785.472 0 100757754.335 0        39.000  
        37.000                                                  
  24908991.641    24908988.174   130897019.239 0 101997677.278 0        41.000  
        39.000                                                  
  21699689.046    21699684.275   114032508.301 0  88856510.132 0        49.000  
        46.000                                                  
  23417759.848                   123061137.801 0                        44.000  
                                                                
  22414603.924    22414600.403   117789562.508 0  91784053.290 0        47.000  
        44.000                                                  
  22618637.145    22618631.016   118861777.746 0  92619664.861 0        45.000  
        42.000                                                  
  21083261.432                   110793760.572 0                        47.000  
                                                                
  20166160.792    20166157.237   105973931.050 0  82577098.402 0        50.000  
        50.000                                                  
 22  1  7 14  0 21.0000000  0  0
 22  1  7 14  0 22.0000000  0  8E02E03E07E08E11E12E25E30
  23410205.736                   123021524.567 0                        49.000  
                  23410204.253    94263271.430          53.000  
  26022564.386                   136749080.748 0                        44.000  
                  26022564.833   104781700.443          49.000  
  26899023.773                   141355334.370 0                        42.000  
                  26899024.702   108311241.611          46.000  
  22688166.228                   119227405.025 0                        48.000  
                  22688164.835    91356068.414          52.000  
  25094348.267                   131871374.123 0                        38.000  
                  25094344.854   101044812.613          40.000  
  26434459.446                   138913408.30810                        34.000  
                  26434456.551   106440192.382          37.000  
  24704153.009                   129821242.510 0                        46.000  
                  24704153.152    99473447.269          50.000  
  26599063.846                   139779047.214 0                        43.000  
                  26599064.383   107103442.464          47.000  
 22  1  7 14  0 23.0000000  0  8G06G10G12G13G15G17G19G24
  24605508.998    24605507.228   129302971.310 0 100755561.490 0        39.000  
        37.000                                                  
  24909201.870    24909198.386   130898123.665 0 101998537.877 0        41.000  
        39.000                                                  
  21699221.485    21699216.660   114030050.979 0  88854595.340 0        49.000  
        46.000                                                  
  23418469.873                   123064868.817 0                        44.000  
                                                                
  22415201.589    22415197.872   117792703.007 0  91786500.433 0        47.000  
        44.000                                                  
  22619057.729    22619051.617   118863987.559 0  92621386.797 0        45.000  
        42.000                                                  
  21083338.358                   110794164.094 0                        47.000  
                                                                
  20165993.717    20165990.125   105973052.934 0  82576414.156 0        50.000  
        50.000                                                  
 22  1  7 14  0 22.0000000  0  0
 22  1  7 14  0 23.0000000  0  8E02E03E07E08E11E12E25E30
  23410111.745                   123021030.379 0                        49.000  
                  23410110.173    94262892.769          53.000  
  26023114.537                   136751972.453 0                        44.000  
                  26023115.216   104783916.163          49.000  
  26898661.246                   141353429.247 0                        42.000  
                  26898662.247   108309781.839          46.000  
  22688295.672                   119228085.532 0                        48.000  
                  22688294.439    91356589.839          52.000  
  25094070.958                   131869916.401 0                        38.000  
                  25094067.348   101043695.663          40.000  
  26434653.468                   138914425.65510                        34.000  
                  26434650.305   106440971.894          37.000  
  24704462.322                   129822867.399 0                        46.000  
                  24704462.375    99474692.314          50.000  
  26598650.250                   139776874.334 0                        43.000  
                  26598650.911   107101777.537          47.000  
 22  1  7 14  0 24.0000000  0  8G06G10G12G13G15G17G19G24
  24604973.606    24604971.873   129300157.541 0 100753368.950 0        39.000  
        37.000                                                  
  24909412.135    24909408.740   130899228.822 0 101999399.048 0        41.000  
        39.000                                                  
  21698753.924    21698749.135   114027594.221 0  88852680.971 0        49.000  
        46.000                                                  
  23419179.899                   123068600.238 0                        44.000  
                                                                
  22415799.361    22415795.591   117795844.038 0  91788947.989 0        47.000  
        44.000                                                  
  22619478.365    22619472.326   118866198.050 0  92623109.248 0        45.000  
        42.000                                                  
  21083415.320                   110794568.552 0                        47.000  
                                                                
  20165826.856    20165823.193   105972175.511 0  82575730.445 0        50.000  
        50.000                                                  
 22  1  7 14  0 23.0000000  0  0
 22  1  7 14  0 24.0000000  0  8E02E03E07E08E11E12E25E30
  23410017.861                   123020536.623 0                        49.000  
                  23410016.289    94262514.443          53.000  
  26023664.993                   136754864.549 0                        44.000  
                  26023665.546   104786132.186          49.000  
  26898298.845                   141351524.681 0                        42.000  
                  26898299.827   108308322.499          46.000  
  22688425.347                   119228766.726 0                        48.000  
                  22688423.918    91357111.800          52.000  
  25093793.720                   131868459.312 0                        37.000  
                  25093790.110   101042579.200          40.000  
  26434847.079                   138915443.69810                        34.000  
                  26434843.916   106441751.950          37.000  
  24704771.563                   129824492.623 0                        46.000  
                  24704771.688    99475937.622          50.000  
  26598236.993                   139774701.789 0                        43.000  
                  26598237.458   107100112.869          47.000  
 22  1  7 14  0 25.0000000  0  8G06G10G12G13G15G17G19G24
  24604438.196    24604436.481   129297343.848 0 100751176.446 0        39.000  
        37.000                                                  
  24909622.543    24909619.183   130900334.391 0 102000260.532 0        41.000  
        39.000                                                  
  21698286.488    21698281.771   114025137.679 0  88850766.790 0        49.000  
        46.000                                                  
  23419889.943                   123072331.695 0                        44.000  
                                                                
  22416397.134    22416393.363   117798985.294 0  91791395.717 0        47.000  
        44.000                                                  
  22619899.074    22619893.052   118868408.869 0  92624831.972 0        45.000  
        42.000                                                  
  21083492.246                   110794973.599 0                        47.000  
                                                                
  20165659.977    20165656.332   105971298.433 0  82575047.012 0        50.000  
        50.000                                                  
 22  1  7 14  0 24.0000000  0  0
 22  1  7 14  0 25.0000000  0  8E02E03E07E08E11E12E25E30
  23409923.817                   123020042.972 0                        49.000  
                  23409922.369    94262136.189          53.000  
  26024215.412                   136757756.718 0                        44.000  
                  26024215.912   104788348.268          49.000  
  26897936.443                   141349620.347 0                        42.000  
                  26897937.408   108306863.354          46.000  
  22688555.041                   119229448.296 0                        48.000  
                  22688553.736    91357634.030          52.000  
  25093516.393                   131867002.537 0                        37.000  
                  25093512.997   101041462.954          40.000  
  26435040.797                   138916462.03910                        34.000  
                  26435037.795   106442532.283          37.000  
  24705080.894                   129826117.855 0                        46.000  
                  24705080.983    99477182.930          50.000  
  26597823.647                   139772529.241 0                        43.000  
                  26597824.022   107098448.184          47.000  
 22  1  7 14  0 26.0000000  0  8G06G10G12G13G15G17G19G24
  24603902.662    24603901.036   129294530.208 0 100748983.967 0        39.000  
        37.000                                                  
  24909832.933    24909829.734   130901440.337 0 102001122.286 0        41.000  
        39.000                                                  
  21697818.963    21697814.371   114022681.355 0  88848852.774 0        49.000  
        46.000                                                  
  23420600.057                   123076063.195 0                        44.000  
                                                                
  22416994.888    22416991.172   117802126.730 0  91793843.582 0        47.000  
        44.000                                                  
  22620319.746    22620313.867   118870620.002 0  92626554.926 0        45.000  
        42.000                                                  
  21083569.369                   110795379.231 0                        47.000  
                                                                
  20165493.116    20165489.364   105970421.688 0  82574363.834 0        50.000  
        50.000                                                  
 22  1  7 14  0 25.0000000  0  0
 22  1  7 14  0 26.0000000  0  8E02E03E07E08E11E12E25E30
  23409829.968                   123019549.389 0                        49.000  
                  23409828.450    94261757.989          53.000  
  26024765.617                   136760648.922 0                        44.000  
                  26024766.350   104790564.372          49.000  
  26897573.952                   141347716.263 0                        42.000  
                  26897575.131   108305404.363          46.000  
  22688684.895                   119230130.183 0                        48.000  
                  22688683.519    91358156.524          52.000  
  25093239.262                   131865545.986 0                        37.000  
                  25093235.777   101040346.915          40.000  
  26435235.212                   138917480.77410                        34.000  
                  26435231.620   106443312.843          37.000  
  24705390.028                   129827743.073 0                        46.000  
                  24705390.206    99478428.229          50.000  
  26597410.086                   139770356.657 0                        43.000  
                  26597410.461   107096783.482          47.000  
 22  1  7 14  0 27.0000000  0  8G06G10G12G13G15G17G19G24
  24603367.181    24603365.555   129291716.553 0 100746791.532 0        39.000  
        37.000                                                  
  24910043.447    24910040.195   130902546.648 0 102001984.355 0        41.000  
        39.000                                                  
  21697351.474    21697347.024   114020225.213 0  88846938.899 0        49.000  
        46.000                                                  
  23421310.119                   123079794.728 0                        44.000  
                                                                
  22417592.643    22417588.998   117805268.339 0  91796291.602 0        47.000  
        44.000                                                  
  22620740.526    22620734.683   118872831.444 0  92628278.136 0        45.000  
        42.000                                                  
  21083646.599                   110795785.409 0                        47.000  
                                                                
  20165326.345    20165322.467   105969545.268 0  82573680.916 0        50.000  
        50.000                                                  
 22  1  7 14  0 26.0000000  0  0
 22  1  7 14  0 27.0000000  0  8E02E03E07E08E11E12E25E30
  23409736.156                   123019055.874 0                        49.000  
                  23409734.530    94261379.839          53.000  
  26025315.822                   136763541.176 0                        44.000  
                  26025316.644   104792780.515          49.000  
  26897211.765                   141345812.352 0                        42.000  
                  26897212.783   108303945.530          46.000  
  22688814.660                   119230812.416 0                        48.000  
                  22688813.319    91358679.262          52.000  
  25092962.131                   131864089.731 0                        37.000  
                  25092958.700   101039231.088          40.000  
  26435429.394                   138918499.80010                        34.000  
                  26435425.553   106444093.657          37.000  
  24705699.394                   129829368.261 0                        46.000  
                  24705699.448    99479673.501          50.000  
  26596996.669                   139768184.047 0                        43.000  
                  26596997.240   107095118.755          47.000  
 22  1  7 14  0 28.0000000  0  8G06G10G12G13G15G17G19G24
  24602832.021    24602830.413   129288904.424 0 100744600.306 0        39.000  
        37.000                                                  
  24910254.373    24910251.068   130903654.783 0 102002847.842 0        41.000  
        38.000                                                  
  21696884.485    21696879.910   114017770.767 0  88845026.342 0        49.000  
        46.000                                                  
  23422020.395                   123083527.763 0                        44.000  
                                                                
  22418190.826    22418187.110   117808411.629 0  91798740.915 0        47.000  
        44.000                                                  
  22621161.681    22621155.999   118875044.678 0  92630002.739 0        45.000  
        43.000                                                  
  21083724.275                   110796193.652 0                        47.000  
                                                                
  20165159.948    20165156.035   105968670.661 0  82572999.407 0        50.000  
        50.000                                                  
 22  1  7 14  0 27.0000000  0  0
 22  1  7 14  0 28.0000000  0  8E02E03E07E08E11E12E25E30
  23409642.487                   123018563.917 0                        49.000  
                  23409640.896    94261002.889          53.000  
  26025866.438                   136766434.950 0                        44.000  
                  26025867.332   104794997.811          49.000  
  26896849.953                   141343910.151 0                        42.000  
                  26896850.864   108302488.002          46.000  
  22688944.853                   119231496.459 0                        48.000  
                  22688943.549    91359203.408          52.000  
  25092685.251                   131862635.242 0                        37.000  
                  25092682.052   101038116.618          40.000  
  26435623.934                   138919520.63310                        34.000  
                  26435619.628   106444875.844          37.000  
  24706008.743                   129830994.914 0                        46.000  
                  24706009.029    99480919.899          50.000  
  26596583.644                   139766012.890 0                        43.000  
                  26596584.019   107093455.145          47.000  
 22  1  7 14  0 29.0000000  0  8G06G10G12G13G15G17G19G24
  24602296.701    24602295.093   129286091.321 0 100742408.248 0        39.000  
        37.000                                                  
  24910465.049    24910461.886   130904762.309 0 102003710.863 0        41.000  
        39.000                                                  
  21696417.281    21696412.617   114015315.500 0  88843113.137 0        49.000  
        46.000                                                  
  23422730.563                   123087259.803 0                        44.000  
                                                                
  22418788.813    22418785.078   117811554.077 0  91801189.583 0        47.000  
        44.000                                                  
  22621582.639    22621576.921   118877257.211 0  92631726.786 0        45.000  
        43.000                                                  
  21083801.863                   110796601.441 0                        47.000  
                                                                
  20164993.445    20164989.514   105967795.365 0  82572317.353 0        50.000  
        50.000                                                  
 22  1  7 14  0 28.0000000  0  0
 22  1  7 14  0 29.0000000  0  8E02E03E07E08E11E12E25E30
  23409548.531                   123018071.011 0                        49.000  
                  23409547.102    94260625.204          53.000  
  26026416.947                   136769327.729 0                        44.000  
                  26026417.841   104797214.372          49.000  
  26896487.926                   141342007.144 0                        42.000  
                  26896488.730   108301029.858          46.000  
  22689074.761                   119232179.825 0                        48.000  
                  22689073.564    91359727.028          52.000  
  25092408.174                   131861180.014 0                        37.000  
                  25092405.082   101037001.567          40.000  
  26435818.296                   138920540.79110                        34.000  
                  26435813.829   106445657.506          37.000  
  24706318.234                   129832620.528 0                        46.000  
                  24706318.431    99482165.495          50.000  
  26596170.173                   139763840.676 0                        43.000  
                  26596170.727   107091790.722          47.000  
 22  1  7 14  0 30.0000000  0  8G06G10G12G13G15G17G19G24
  24601761.381    24601759.719   129283278.018 0 100740216.048 0        39.000  
        37.000                                                  
  24910675.743    24910672.509   130905869.925 0 102004573.933 0        41.000  
        39.000                                                  
  21695950.060    21695945.450   114012860.167 0  88841199.896 0        49.000  
        46.000                                                  
  23423440.732                   123090991.626 0                        44.000  
                                                                
  22419386.782    22419383.030   117814696.466 0  91803638.186 0        47.000  
        44.000                                                  
  22622003.723    22621997.862   118879469.794 0  92633450.881 0        45.000  
        43.000                                                  
  21083879.503                   110797009.540 0                        47.000  
                                                                
  20164826.834    20164822.903   105966920.140 0  82571635.357 0        50.000  
        50.000                                                  
 22  1  7 14  0 29.0000000  0  0
 22  1  7 14  0 30.0000000  0  8E02E03E07E08E11E12E25E30
  23409454.665                   123017577.921 0                        49.000  
                  23409453.218    94260247.384          53.000  
  26026967.259                   136772220.320 0                        44.000  
                  26026968.314   104799430.764          49.000  
  26896125.703                   141340104.095 0                        42.000  
                  26896126.561   108299571.667          46.000  
  22689204.669                   119232863.255 0                        48.000  
                  22689203.615    91360250.691          52.000  
  25092131.114                   131859724.785 0                        37.000  
                  25092128.255   101035886.524          40.000  
  26436012.550                   138921560.96010                        34.000  
                  26436007.922   106446439.197          37.000  
  24706627.511                   129834245.863 0                        46.000  
                  24706627.636    99483410.884          50.000  
  26595756.719                   139761668.181 0                        43.000  
                  26595757.166   107090126.087          47.000  
 22  1  7 14  0 31.0000000  0  8G06G10G12G13G15G17G19G24
  24601226.043    24601224.470   129280465.065 0 100738024.168 0        39.000  
        37.000                                                  
  24910886.615    24910883.435   130906978.296 0 102005437.606 0        41.000  
        39.000                                                  
  21695482.928    21695478.228   114010405.416 0  88839287.100 0        48.000  
        46.000                                                  
  23424150.954                   123094723.837 0                        44.000  
                                                                
  22419984.823    22419981.124   117817839.401 0  91806087.229 0        47.000  
        44.000                                                  
  22622424.878    22622419.070   118881683.061 0  92635175.504 0        45.000  
        43.000                                                  
  21083957.377                   110797418.576 0                        47.000  
                                                                
  20164660.366    20164656.471   105966045.609 0  82570953.910 0        50.000  
        50.000                                                  
 22  1  7 14  0 30.0000000  0  0
 22  1  7 14  0 31.0000000  0  8E02E03E07E08E11E12E25E30
  23409360.942                   123017085.277 0                        49.000  
                  23409359.495    94259869.903          53.000  
  26027517.697                   136775113.296 0                        44.000  
                  26027518.733   104801647.462          49.000  
  26895763.695                   141338201.616 0                        42.000  
                  26895764.588   108298113.935          46.000  
  22689335.095                   119233547.410 0                        48.000  
                  22689333.701    91360774.912          52.000  
  25091854.395                   131858270.191 0                        37.000  
                  25091851.536   101034771.967          40.000  
  26436206.518                   138922581.83710                        35.000  
                  26436202.301   106447221.438          37.000  
  24706936.913                   129835871.548 0                        46.000  
                  24706937.021    99484656.538          50.000  
  26595343.355                   139759496.026 0                        43.000  
                  26595343.891   107088461.706          47.000  
 22  1  7 14  0 32.0000000  0  8G06G10G12G13G15G17G19G24
  24600690.830    24600689.275   129277652.575 0 100735832.620 0        39.000  
        37.000                                                  
  24911097.666    24911094.539   130908087.432 0 102006301.852 0        41.000  
        39.000                                                  
  21695015.939    21695011.275   114007951.261 0  88837374.776 0        48.000  
        46.000                                                  
  23424861.194                   123098456.487 0                        44.000  
                                                                
  22420582.988    22420579.379   117820982.912 0  91808536.726 0        46.000  
        44.000                                                  
  22622846.176    22622840.458   118883897.043 0  92636900.677 0        45.000  
        43.000                                                  
  21084035.393                   110797828.580 0                        47.000  
                                                                
  20164494.041    20164490.253   105965171.819 0  82570273.029 0        50.000  
        50.000                                                  
 22  1  7 14  0 31.0000000  0  0
 22  1  7 14  0 32.0000000  0  8E02E03E07E08E11E12E25E30
  23409267.309                   123016593.103 0                        49.000  
                  23409265.808    94259492.783          53.000  
  26028068.241                   136778006.721 0                        44.000  
                  26028069.403   104803864.498          49.000  
  26895401.829                   141336299.768 0                        42.000  
                  26895402.705   108296656.667          46.000  
  22689465.235                   119234232.283 0                        48.000  
                  22689464.199    91361299.689          52.000  
  25091577.818                   131856816.292 0                        37.000  
                  25091574.762   101033657.925          40.000  
  26436401.005                   138923603.44810                        35.000  
                  26436396.627   106448004.224          37.000  
  24707246.298                   129837497.611 0                        46.000  
                  24707246.512    99485902.483          50.000  
  26594930.259                   139757324.244 0                        43.000  
                  26594930.509   107086797.618          47.000  
 22  1  7 14  0 33.0000000  0  8G06G10G12G13G15G17G19G24
  24600155.599    24600154.134   129274840.267 0 100733641.213 0        39.000  
        37.000                                                  
  24911308.753    24911305.680   130909197.076 0 102007166.500 0        41.000  
        39.000                                                  
  21694549.039    21694544.304   114005497.437 0  88835462.710 0        48.000  
        46.000                                                  
  23425571.434                   123102189.302 0                        44.000  
                                                                
  22421181.368    22421177.580   117824126.765 0  91810986.460 0        46.000  
        44.000                                                  
  22623267.545    22623261.845   118886111.472 0  92638626.205 0        45.000  
        43.000                                                  
  21084113.498                   110798239.294 0                        47.000  
                                                                
  20164327.824    20164324.018   105964298.480 0  82569592.517 0        50.000  
        50.000                                                  
 22  1  7 14  0 32.0000000  0  0
 22  1  7 14  0 33.0000000  0  8E02E03E07E08E11E12E25E30
  23409173.782                   123016101.134 0                        49.000  
                  23409172.192    94259115.824          53.000  
  26028618.840                   136780900.322 0                        44.000  
                  26028620.162   104806081.675          49.000  
  26895040.053                   141334398.248 0                        42.000  
                  26895040.786   108295199.675          46.000  
  22689595.768                   119234917.636 0                        48.000  
                  22689594.642    91361824.827          52.000  
  25091301.206                   131855362.778 0                        37.000  
                  25091297.971   101032544.209          40.000  
  26436595.330                   138924625.49310                        35.000  
                  26436591.149   106448787.376          37.000  
  24707555.753                   129839123.791 0                        46.000  
                  24707555.861    99487148.515          50.000  
  26594517.109                   139755152.564 0                        43.000  
                  26594517.377   107085133.597          47.000  
 22  1  7 14  0 34.0000000  0  8G06G10G12G13G15G17G19G24
  24599620.440    24599619.082   129272028.306 0 100731450.058 0        39.000  
        37.000                                                  
  24911520.054    24911516.999   130910307.398 0 102008031.707 0        41.000  
        39.000                                                  
  21694082.175    21694077.493   114003044.123 0  88833551.039 0        48.000  
        46.000                                                  
  23426281.764                   123105922.472 0                        44.000  
                                                                
  22421779.748    22421775.960   117827271.094 0  91813436.604 0        47.000  
        44.000                                                  
  22623689.040    22623683.304   118888326.529 0  92640352.230 0        45.000  
        43.000                                                  
  21084191.782                   110798650.880 0                        47.000  
                                                                
  20164161.749    20164157.997   105963425.792 0  82568912.498 0        50.000  
        50.000                                                  
 22  1  7 14  0 33.0000000  0  0
 22  1  7 14  0 34.0000000  0  8E02E03E07E08E11E12E25E30
  23409080.166                   123015609.552 0                        49.000  
                  23409078.648    94258739.157          53.000  
  26029169.456                   136783794.275 0                        44.000  
                  26029170.742   104808299.115          49.000  
  26894678.384                   141332497.263 0                        42.000  
                  26894679.081   108293743.075          46.000  
  22689726.355                   119235603.633 0                        48.000  
                  22689725.122    91362350.460          52.000  
  25091024.665                   131853909.847 0                        37.000  
                  25091021.466   101031430.933          40.000  
  26436789.852                   138925648.19510                        35.000  
                  26436785.743   106449571.005          37.000  
  24707865.334                   129840750.259 0                        46.000  
                  24707865.388    99488394.774          50.000  
  26594103.799                   139752981.175 0                        43.000  
                  26594104.174   107083469.805          47.000  
 22  1  7 14  0 35.0000000  0  8G06G10G12G13G15G17G19G24
  24599085.334    24599084.029   129269216.341 0 100729258.922 0        39.000  
        37.000                                                  
  24911731.409    24911728.318   130911418.110 0 102008897.179 0        41.000  
        39.000                                                  
  21693615.383    21693610.647   114000591.010 0  88831639.527 0        48.000  
        46.000                                                  
  23426992.218                   123109655.657 0                        44.000  
                                                                
  22422378.074    22422374.340   117830415.617 0  91815886.870 0        47.000  
        44.000                                                  
  22624110.588    22624104.816   118890541.902 0  92642078.498 0        45.000  
        43.000                                                  
  21084270.227                   110799063.035 0                        47.000  
                                                                
  20163995.692    20163991.904   105962553.428 0  82568232.738 0        50.000  
        50.000                                                  
 22  1  7 14  0 34.0000000  0  0
 22  1  7 14  0 35.0000000  0  8E02E03E07E08E11E12E25E30
  23408986.819                   123015118.044 0                        49.000  
                  23408985.157    94258362.549          53.000  
  26029720.268                   136786688.263 0                        44.000  
                  26029721.519   104810516.595          49.000  
  26894316.876                   141330596.497 0                        42.000  
                  26894317.430   108292286.638          46.000  
  22689857.031                   119236289.963 0                        48.000  
                  22689855.780    91362876.348          52.000  
  25090748.231                   131852457.222 0                        37.000  
                  25090745.175   101030317.869          40.000  
  26436984.553                   138926671.22010                        35.000  
                  26436980.408   106450354.859          37.000  
  24708174.915                   129842376.707 0                        46.000  
                  24708174.844    99489641.004          50.000  
  26593690.792                   139750809.739 0                        43.000  
                  26593690.953   107081805.980          47.000  
 22  1  7 14  0 36.0000000  0  8G06G10G12G13G15G17G19G24
  24598550.246    24598548.888   129266404.564 0 100727067.906 0        39.000  
        38.000                                                  
  24911942.835    24911939.833   130912529.292 0 102009763.041 0        41.000  
        39.000                                                  
  21693148.644    21693143.855   113998138.216 0  88829728.245 0        48.000  
        46.000                                                  
  23427702.655                   123113388.986 0                        44.000  
                                                                
  22422976.472    22422972.702   117833560.453 0  91818337.386 0        47.000  
        44.000                                                  
  22624532.136    22624526.507   118892757.710 0  92643805.092 0        45.000  
        43.000                                                  
  21084348.798                   110799475.882 0                        47.000  
                                                                
  20163829.725    20163826.062   105961681.518 0  82567553.324 0        50.000  
        50.000                                                  
 22  1  7 14  0 35.0000000  0  0
 22  1  7 14  0 36.0000000  0  8E02E03E07E08E11E12E25E30
  23408893.113                   123014626.729 0                        49.000  
                  23408891.630    94257986.083          53.000  
  26030270.777                   136789582.425 0                        44.000  
                  26030272.314   104812734.184          49.000  
  26893955.296                   141328696.069 0                        42.000  
                  26893955.796   108290830.455          46.000  
  22689987.546                   119236976.753 0                        48.000  
                  22689986.439    91363402.583          52.000  
  25090471.868                   131851004.960 0                        37.000  
                  25090468.724   101029205.109          40.000  
  26437179.058                   138927694.67710                        35.000  
                  26437175.019   106451139.091          37.000  
  24708484.317                   129844003.251 0                        46.000  
                  24708484.442    99490887.324          50.000  
  26593277.410                   139748638.399 0                        43.000  
                  26593277.857   107080142.228          47.000  
 22  1  7 14  0 37.0000000  0  8G06G10G12G13G15G17G19G24
  24598015.140    24598013.836   129263592.799 0 100724876.946 0        39.000  
        38.000                                                  
  24912154.262    24912151.456   130913640.861 0 102010629.185 0        41.000  
        39.000                                                  
  21692681.976    21692677.134   113995685.630 0  88827817.151 0        48.000  
        46.000                                                  
  23428413.055                   123117122.355 0                        44.000  
                                                                
  22423575.120    22423571.171   117836705.472 0  91820788.056 0        47.000  
        44.000                                                  
  22624953.809    22624948.306   118894973.835 0  92645531.952 0        45.000  
        43.000                                                  
  21084427.546                   110799889.302 0                        47.000  
                                                                
  20163663.829    20163660.219   105960809.946 0  82566874.174 0        50.000  
        50.000                                                  
 22  1  7 14  0 36.0000000  0  0
 22  1  7 14  0 37.0000000  0  8E02E03E07E08E11E12E25E30
  23408799.712                   123014135.479 0                        49.000  
                  23408798.193    94257609.675          53.000  
  26030821.608                   136792476.612 0                        44.000  
                  26030823.127   104814951.815          49.000  
  26893593.806                   141326795.850 0                        42.000  
                  26893594.109   108289374.451          46.000  
  22690118.491                   119237663.877 0                        48.000  
                  22690117.115    91363929.088          52.000  
  25090195.488                   131849552.981 0                        37.000  
                  25090192.451   101028092.571          40.000  
  26437373.419                   138928718.45310                        35.000  
                  26437369.738   106451923.549          37.000  
  24708793.844                   129845629.783 0                        46.000  
                  24708793.934    99492133.623          50.000  
  26592864.135                   139746467.025 0                        43.000  
                  26592864.564   107078478.457          47.000  
 22  1  7 14  0 38.0000000  0  8G06G10G12G13G15G17G19G24
  24597480.177    24597478.873   129260781.348 0 100722686.191 0        39.000  
        38.000                                                  
  24912365.884    24912363.043   130914753.058 0 102011495.828 0        41.000  
        39.000                                                  
  21692215.362    21692210.448   113993233.499 0  88825906.397 0        48.000  
        46.000                                                  
  23429123.474                   123120856.015 0                        44.000  
                                                                
  22424173.786    22424169.748   117839850.925 0  91823239.070 0        47.000  
        44.000                                                  
  22625375.607    22625370.175   118897190.514 0  92647259.244 0        45.000  
        43.000                                                  
  21084506.384                   110800303.552 0                        47.000  
                                                                
  20163498.058    20163494.377   105959938.949 0  82566195.480 0        50.000  
        50.000                                                  
 22  1  7 14  0 37.0000000  0  0
 22  1  7 14  0 38.0000000  0  8E02E03E07E08E11E12E25E30
  23408706.293                   123013644.563 0                        49.000  
                  23408704.792    94257233.523          53.000  
  26031372.224                   136795371.091 0                        44.000  
                  26031373.886   104817169.657          49.000  
  26893232.190                   141324896.099 0                        42.000  
                  26893232.583   108287918.792          46.000  
  22690249.328                   119238351.586 0                        48.000  
                  22690248.005    91364456.027          52.000  
  25089919.162                   131848101.541 0                        37.000  
                  25089916.249   101026980.408          40.000  
  26437568.531                   138929742.80410                        35.000  
                  26437564.707   106452708.433          37.000  
  24709103.389                   129847256.548 0                        46.000  
                  24709103.443    99493380.105          50.000  
  26592450.878                   139744295.876 0                        43.000  
                  26592451.522   107076814.850          47.000  
 22  1  7 14  0 39.0000000  0  8G06G10G12G13G15G17G19G24
  24596945.250    24596943.874   129257970.170 0 100720495.667 0        39.000  
        38.000                                                  
  24912577.686    24912574.720   130915865.866 0 102012362.978 0        41.000  
        39.000                                                  
  21691748.749    21691743.888   113990781.818 0  88823995.993 0        48.000  
        46.000                                                  
  23429833.964                   123124589.948 0                        44.000  
                                                                
  22424772.434    22424768.342   117842996.815 0  91825690.408 0        47.000  
        44.000                                                  
  22625797.602    22625792.152   118899407.766 0  92648986.961 0        45.000  
        43.000                                                  
  21084585.312                   110800718.616 0                        47.000  
                                                                
  20163332.412    20163328.820   105959068.539 0  82565517.233 0        50.000  
        50.000                                                  
 22  1  7 14  0 38.0000000  0  0
 22  1  7 14  0 39.0000000  0  8E02E03E07E08E11E12E25E30
  23408613.070                   123013153.976 0                        49.000  
                  23408611.408    94256857.612          53.000  
  26031923.090                   136798265.892 0                        44.000  
                  26031924.734   104819387.740          49.000  
  26892870.539                   141322996.810 0                        42.000  
                  26892871.236   108286463.503          46.000  
  22690380.308                   119239039.881 0                        48.000  
                  22690379.075    91364983.422          52.000  
  25089643.228                   131846650.603 0                        37.000  
                  25089640.101   101025868.655          40.000  
  26437763.661                   138930767.73910                        35.000  
                  26437759.890   106453493.780          37.000  
  24709412.827                   129848883.547 0                        46.000  
                  24709413.131    99494626.767          50.000  
  26592037.979                   139742124.977 0                        43.000  
                  26592038.265   107075151.425          47.000  
 22  1  7 14  0 40.0000000  0  8G06G10G12G13G15G17G19G24
  24596410.180    24596408.947   129255158.925 0 100718305.098 0        39.000  
        38.000                                                  
  24912789.487    24912786.539   130916978.949 0 102013230.277 0        41.000  
        39.000                                                  
  21691282.188    21691277.328   113988330.244 0  88822085.684 0        48.000  
        46.000                                                  
  23430544.437                   123128323.817 0                        44.000  
                                                                
  22425371.082    22425367.062   117846142.793 0  91828141.811 0        47.000  
        44.000                                                  
  22626219.597    22626214.111   118901625.226 0  92650714.865 0        45.000  
        43.000                                                  
  21084664.347                   110801134.160 0                        47.000  
                                                                
  20163166.802    20163163.264   105958198.348 0  82564839.168 0        50.000  
        50.000                                                  
 22  1  7 14  0 39.0000000  0  0
 22  1  7 14  0 40.0000000  0  8E02E03E07E08E11E12E25E30
  23408519.758                   123012663.348 0                        49.000  
                  23408518.007    94256481.681          53.000  
  26032473.849                   136801160.602 0                        44.000  
                  26032475.529   104821605.770          49.000  
  26892509.263                   141321097.632 0                        42.000  
                  26892509.817   108285008.282          46.000  
  22690511.430                   119239728.417 0                        48.000  
                  22690510.037    91365510.999          52.000  
  25089366.973                   131845199.838 0                        37.000  
                  25089364.186   101024757.034          40.000  
  26437959.130                   138931792.91010                        34.000  
                  26437954.877   106454279.266          37.000  
  24709722.497                   129850510.408 0                        46.000  
                  24709722.587    99495873.329          50.000  
  26591624.865                   139739953.911 0                        43.000  
                  26591625.187   107073487.885          47.000  
 22  1  7 14  0 41.0000000  0  8G06G10G12G13G15G17G19G24
  24595875.396    24595874.092   129252348.169 0 100716114.896 0        39.000  
        38.000                                                  
  24913001.468    24912998.573   130918092.871 0 102014098.282 0        41.000  
        39.000                                                  
  21690815.789    21690810.947   113985879.326 0  88820175.872 0        48.000  
        46.000                                                  
  23431255.070                   123132058.178 0                        43.000  
                                                                
  22425969.998    22425965.853   117849289.408 0  91830593.725 0        47.000  
        44.000                                                  
  22626641.789    22626636.267   118903843.449 0  92652443.351 0        45.000  
        43.000                                                  
  21084743.578                   110801550.734 0                        47.000  
                                                                
  20163001.371    20162997.779   105957328.959 0  82564161.719 0        50.000  
        50.000                                                  
 22  1  7 14  0 40.0000000  0  0
 22  1  7 14  0 41.0000000  0  8E02E03E07E08E11E12E25E30
  23408426.571                   123012173.266 0                        49.000  
                  23408424.802    94256106.161          53.000  
  26033024.697                   136804055.817 0                        44.000  
                  26033026.609   104823824.181          49.000  
  26892148.255                   141319199.126 0                        42.000  
                  26892148.613   108283553.589          46.000  
  22690642.589                   119240417.751 0                        48.000  
                  22690641.267    91366039.193          52.000  
  25089091.093                   131843749.824 0                        37.000  
                  25089088.127   101023645.989          40.000  
  26438154.635                   138932818.81610                        34.000  
                  26438150.114   106455065.382          37.000  
  24710032.221                   129852137.724 0                        46.000  
                  24710032.364    99497120.227          50.000  
  26591211.680                   139737783.288 0                        43.000  
                  26591212.108   107071824.687          47.000  
 22  1  7 14  0 42.0000000  0  8G06G10G12G13G15G17G19G24
  24595340.523    24595339.308   129249537.381 0 100713924.688 0        39.000  
        38.000                                                  
  24913213.537    24913210.500   130919207.099 0 102014966.502 0        41.000  
        39.000                                                  
  21690349.461    21690344.529   113983428.551 0  88818266.193 0        48.000  
        46.000                                                  
  23431965.721                   123135792.502 0                        43.000  
                                                                
  22426568.843    22426564.608   117852436.155 0  91833045.724 0        47.000  
        44.000                                                  
  22627064.016    22627058.441   118906061.936 0  92654172.037 0        45.000  
        43.000                                                  
  21084823.041                   110801967.804 0                        47.000  
                                                                
  20162835.850    20162832.383   105956459.832 0  82563484.482 0        50.000  
        50.000                                                  
 22  1  7 14  0 41.0000000  0  0
 22  1  7 14  0 42.0000000  0  8E02E03E07E08E11E12E25E30
  23408333.277                   123011683.193 0                        49.000  
                  23408331.544    94255730.648          53.000  
  26033575.653                   136806951.014 0                        44.000  
                  26033577.547   104826042.579          49.000  
  26891786.926                   141317300.778 0                        42.000  
                  26891787.426   108282099.016          46.000  
  22690773.819                   119241107.347 0                        48.000  
                  22690772.497    91366567.586          52.000  
  25088815.124                   131842300.016 0                        37.000  
                  25088812.337   101022535.079          40.000  
  26438349.890                   138933845.01610                        34.000  
                  26438345.333   106455851.675          37.000  
  24710341.856                   129853764.955 0                        46.000  
                  24710341.981    99498367.068          50.000  
  26590798.834                   139735612.574 0                        43.000  
                  26590799.191   107070161.414          47.000  
 22  1  7 14  0 43.0000000  0  8G06G10G12G13G15G17G19G24
  24594805.578    24594804.470   129246726.981 0 100711734.745 0        40.000  
        38.000                                                  
  24913425.839    24913422.730   130920322.010 0 102015835.271 0        41.000  
        39.000                                                  
  21689883.205    21689878.309   113980978.286 0  88816356.894 0        48.000  
        46.000                                                  
  23432676.479                   123139527.162 0                        43.000  
                                                                
  22427167.812    22427163.363   117855583.377 0  91835498.117 0        47.000  
        44.000                                                  
  22627486.279    22627480.703   118908281.027 0  92655901.197 0        45.000  
        43.000                                                  
  21084902.451                   110802385.746 0                        47.000  
                                                                
  20162670.508    20162667.059   105955591.346 0  82562807.740 0        50.000  
        50.000                                                  
 22  1  7 14  0 42.0000000  0  0
 22  1  7 14  0 43.0000000  0  8E02E03E07E08E11E12E25E30
  23408240.108                   123011193.504 0                        49.000  
                  23408238.375    94255355.439          53.000  
  26034126.734                   136809846.555 0                        44.000  
                  26034128.574   104828261.246          49.000  
  26891425.864                   141315402.965 0                        42.000  
                  26891426.168   108280644.836          46.000  
  22690905.246                   119241797.600 0                        48.000  
                  22690903.834    91367096.477          52.000  
  25088539.155                   131840850.798 0                        37.000  
                  25088536.367   101021424.646          40.000  
  26438545.609                   138934871.83810                        34.000  
                  26438540.695   106456638.468          37.000  
  24710651.562                   129855392.473 0                        46.000  
                  24710651.687    99499614.128          50.000  
  26590385.773                   139733442.144 0                        43.000  
                  26590386.113   107068498.358          47.000  
 22  1  7 14  0 44.0000000  0  8G06G10G12G13G15G17G19G24
  24594270.687    24594269.686   129243916.451 0 100709544.756 0        40.000  
        38.000                                                  
  24913638.105    24913634.978   130921437.168 0 102016704.214 0        41.000  
        39.000                                                  
  21689416.948    21689412.106   113978528.110 0  88814447.670 0        48.000  
        46.000                                                  
  23433387.166                   123143261.747 0                        43.000  
                                                                
  22427766.675    22427762.225   117858730.685 0  91837950.553 0        47.000  
        44.000                                                  
  22627908.416    22627903.020   118910500.333 0  92657630.517 0        45.000  
        43.000                                                  
  21084982.004                   110802804.154 0                        47.000  
                                                                
  20162505.309    20162501.788   105954723.072 0  82562131.158 0        50.000  
        50.000                                                  
 22  1  7 14  0 43.0000000  0  0
 22  1  7 14  0 44.0000000  0  8E02E03E07E08E11E12E25E30
  23408146.957                   123010703.765 0                        49.000  
                  23408145.080    94254980.182          53.000  
  26034677.654                   136812742.036 0                        43.000  
                  26034679.601   104830479.847          49.000  
  26891064.642                   141313505.248 0                        42.000  
                  26891065.089   108279190.741          46.000  
  22691036.547                   119242488.069 0                        48.000  
                  22691035.279    91367625.542          52.000  
  25088263.454                   131839401.714 0                        37.000  
                  25088260.523   101020314.336          40.000  
  26438740.900                   138935898.86010                        34.000  
                  26438736.093   106457425.407          37.000  
  24710961.125                   129857019.865 0                        46.000  
                  24710961.375    99500861.089          50.000  
  26589972.516                   139731271.565 0                        43.000  
                  26589973.088   107066835.178          47.000  
 22  1  7 14  0 45.0000000  0  8G06G10G12G13G15G17G19G24
  24593735.938    24593734.991   129241106.098 0 100707354.857 0        40.000  
        38.000                                                  
  24913850.461    24913847.280   130922552.837 0 102017573.575 0        41.000  
        38.000                                                  
  21688950.710    21688945.832   113976078.253 0  88812538.684 0        48.000  
        46.000                                                  
  23434097.835                   123146996.466 0                        43.000  
                                                                
  22428365.609    22428361.106   117861878.283 0  91840403.231 0        47.000  
        44.000                                                  
  22628330.894    22628325.462   118912720.047 0  92659360.173 0        45.000  
        43.000                                                  
  21085061.754                   110803223.235 0                        47.000  
                                                                
  20162340.163    20162336.679   105953855.250 0  82561454.935 0        50.000  
        50.000                                                  
 22  1  7 14  0 44.0000000  0  0
 22  1  7 14  0 45.0000000  0  8E02E03E07E08E11E12E25E30
  23408053.627                   123010214.225 0                        49.000  
                  23408051.983    94254605.080          53.000  
  26035228.502                   136815637.659 0                        43.000  
                  26035230.503   104832698.575          49.000  
  26890703.884                   141311607.849 0                        42.000  
                  26890703.938   108277736.890          46.000  
  22691168.063                   119243178.988 0                        48.000  
                  22691166.670    91368154.948          52.000  
  25087987.735                   131837953.042 0                        37.000  
                  25087985.037   101019204.312          40.000  
  26438936.422                   138936926.32810                        34.000  
                  26438931.508   106458212.685          37.000  
  24711270.813                   129858647.343 0                        46.000  
                  24711271.045    99502108.117          50.000  
  26589559.599                   139729101.082 0                        43.000  
                  26589559.992   107065172.088          47.000  
 22  1  7 14  0 46.0000000  0  8G06G10G12G13G15G17G19G24
  24593201.190    24593200.171   129238295.929 0 100705165.106 0        39.000  
        38.000                                                  
  24914062.852    24914059.635   130923668.998 0 102018443.300 0        41.000  
        39.000                                                  
  21688484.507    21688479.825   113973628.731 0  88810629.964 0        48.000  
        46.000                                                  
  23434808.468                   123150731.377 0                        44.000  
                                                                
  22428964.561    22428960.165   117865026.198 0  91842856.156 0        47.000  
        44.000                                                  
  22628753.353    22628747.957   118914940.206 0  92661090.173 0        45.000  
        43.000                                                  
  21085141.700                   110803643.034 0                        47.000  
                                                                
  20162175.160    20162171.640   105952987.892 0  82560779.072 0        50.000  
        50.000                                                  
 22  1  7 14  0 45.0000000  0  0
 22  1  7 14  0 46.0000000  0  8E02E03E07E08E11E12E25E30
  23407960.708                   123009724.897 0                        49.000  
                  23407958.885    94254230.136          53.000  
  26035779.565                   136818533.476 0                        43.000  
                  26035781.691   104834917.441          49.000  
  26890342.751                   141309710.813 0                        42.000  
                  26890342.894   108276283.319          46.000  
  22691299.562                   119243870.388 0                        48.000  
                  22691298.382    91368684.717          52.000  
  25087711.944                   131836504.777 0                        37.000  
                  25087709.300   101018094.589          40.000  
  26439131.802                   138937954.23610                        35.000  
                  26439127.139   106459000.327          37.000  
  24711580.554                   129860274.940 0                        46.000  
                  24711580.804    99503355.242          50.000  
  26589146.700                   139726930.697 0                        43.000  
                  26589147.075   107063509.074          47.000  
 22  1  7 14  0 47.0000000  0  8G06G10G12G13G15G17G19G24
  24592666.602    24592665.459   129235486.174 0 100702975.709 0        39.000  
        38.000                                                  
  24914275.350    24914272.241   130924785.902 0 102019313.630 0        41.000  
        38.000                                                  
  21688018.483    21688013.855   113971179.808 0  88808721.716 0        48.000  
        46.000                                                  
  23435519.334                   123154466.715 0                        44.000  
                                                                
  22429563.780    22429559.259   117868174.699 0  91845309.528 0        47.000  
        44.000                                                  
  22629175.991    22629170.595   118917161.082 0  92662820.718 0        45.000  
        43.000                                                  
  21085221.664                   110804063.793 0                        47.000  
                                                                
  20162010.212    20162006.745   105952121.267 0  82560103.782 0        50.000  
        50.000                                                  
 22  1  7 14  0 46.0000000  0  0
 22  1  7 14  0 47.0000000  0  8E02E03E07E08E11E12E25E30
  23407867.825                   123009236.030 0                        49.000  
                  23407865.841    94253855.549          53.000  
  26036330.681                   136821429.703 0                        43.000  
                  26036332.808   104837136.630          50.000  
  26889981.869                   141307814.376 0                        42.000  
                  26889982.172   108274830.200          46.000  
  22691431.310                   119244562.504 0                        48.000  
                  22691430.005    91369215.038          52.000  
  25087436.672                   131835057.164 0                        37.000  
                  25087433.920   101016985.384          40.000  
  26439327.718                   138938982.88910                        34.000  
                  26439322.965   106459788.496          37.000  
  24711890.367                   129861902.917 0                        46.000  
                  24711890.600    99504602.645          50.000  
  26588733.729                   139724760.681 0                        43.000  
                  26588734.175   107061846.330          47.000  
 22  1  7 14  0 48.0000000  0  8G06G10G12G13G15G17G19G24
  24592132.015    24592130.835   129232676.595 0 100700786.427 0        39.000  
        38.000                                                  
  24914487.974    24914484.954   130925903.346 0 102020184.368 0        41.000  
        38.000                                                  
  21687552.584    21687547.902   113968731.234 0  88806813.727 0        48.000  
        46.000                                                  
  23436230.128                   123158202.212 0                        44.000  
                                                                
  22430162.929    22430158.408   117871323.530 0  91847763.164 0        47.000  
        44.000                                                  
  22629598.701    22629593.197   118919382.404 0  92664551.643 0        45.000  
        43.000                                                  
  21085301.860                   110804485.259 0                        47.000  
                                                                
  20161845.423    20161841.975   105951255.109 0  82559428.854 0        50.000  
        50.000                                                  
 22  1  7 14  0 47.0000000  0  0
 22  1  7 14  0 48.0000000  0  8E02E03E07E08E11E12E25E30
  23407774.673                   123008747.377 0                        49.000  
                  23407772.833    94253481.134          53.000  
  26036881.851                   136824326.127 0                        43.000  
                  26036883.906   104839355.972          49.000  
  26889621.075                   141305918.297 0                        42.000  
                  26889621.379   108273377.372          46.000  
  22691563.326                   119245255.116 0                        48.000  
                  22691561.718    91369745.738          52.000  
  25087161.328                   131833609.982 0                        37.000  
                  25087158.594   101015876.511          40.000  
  26439522.919                   138940011.98910                        34.000  
                  26439518.774   106460577.042          37.000  
  24712200.216                   129863531.013 0                        46.000  
                  24712200.288    99505850.150          50.000  
  26588320.722                   139722590.783 0                        43.000  
                  26588321.133   107060183.676          47.000  
 22  1  7 14  0 49.0000000  0  8G06G10G12G13G15G17G19G24
  24591597.356    24591596.319   129229867.145 0 100698597.238 0        39.000  
        38.000                                                  
  24914700.740    24914697.667   130927021.271 0 102021055.456 0        41.000  
        38.000                                                  
  21687086.721    21687081.932   113966282.944 0  88804905.976 0        48.000  
        46.000                                                  
  23436940.868                   123161937.830 0                        44.000  
                                                                
  22430762.202    22430757.646   117874472.630 0  91850217.013 0        47.000  
        44.000                                                  
  22630021.375    22630015.960   118921604.133 0  92666282.847 0        45.000  
        43.000                                                  
  21085382.235                   110804907.385 0                        47.000  
                                                                
  20161680.653    20161677.187   105950389.373 0  82558754.257 0        50.000  
        50.000                                                  
 22  1  7 14  0 48.0000000  0  0
 22  1  7 14  0 49.0000000  0  8E02E03E07E08E11E12E25E30
  23407681.755                   123008258.891 0                        49.000  
                  23407679.986    94253106.837          53.000  
  26037433.164                   136827222.683 0                        43.000  
                  26037435.148   104841575.404          50.000  
  26889260.032                   141304022.528 0                        42.000  
                  26889260.568   108271924.763          46.000  
  22691695.128                   119245948.136 0                        48.000  
                  22691693.538    91370276.751          52.000  
  25086885.859                   131832163.146 0                        37.000  
                  25086883.143   101014767.921          40.000  
  26439718.621                   138941041.53710                        34.000  
                  26439714.869   106461365.888          37.000  
  24712510.011                   129865159.168 0                        46.000  
                  24712510.137    99507097.702          50.000  
  26587907.965                   139720420.931 0                        43.000  
                  26587908.305   107058521.072          47.000  
 22  1  7 14  0 50.0000000  0  8G06G10G12G13G15G17G19G24
  24591062.750    24591061.803   129227057.886 0 100696408.194 0        40.000  
        38.000                                                  
  24914913.525    24914910.540   130928139.669 0 102021926.966 0        41.000  
        38.000                                                  
  21686620.804    21686616.140   113963834.995 0  88802998.499 0        48.000  
        46.000                                                  
  23437651.769                   123165673.626 0                        44.000  
                                                                
  22431361.547    22431356.937   117877622.050 0  91852671.107 0        47.000  
        44.000                                                  
  22630444.209    22630438.867   118923826.324 0  92668014.424 0        45.000  
        43.000                                                  
  21085462.681                   110805330.230 0                        47.000  
                                                                
  20161516.008    20161512.559   105949524.122 0  82558080.032 0        50.000  
        50.000                                                  
 22  1  7 14  0 49.0000000  0  0
 22  1  7 14  0 50.0000000  0  8E02E03E07E08E11E12E25E30
  23407588.800                   123007770.628 0                        49.000  
                  23407587.031    94252732.714          53.000  
  26037984.406                   136830119.429 0                        43.000  
                  26037986.443   104843794.978          50.000  
  26888899.256                   141302127.112 0                        42.000  
                  26888900.042   108270472.445          46.000  
  22691827.145                   119246641.652 0                        48.000  
                  22691825.572    91370808.149          52.000  
  25086610.784                   131830716.774 0                        37.000  
                  25086607.853   101013659.633          40.000  
  26439914.323                   138942071.53110                        34.000  
                  26439910.731   106462155.111          37.000  
  24712819.789                   129866787.467 0                        46.000  
                  24712820.093    99508345.360          50.000  
  26587495.012                   139718251.224 0                        43.000  
                  26587495.352   107056858.571          47.000  
 22  1  7 14  0 51.0000000  0  8G06G10G12G13G15G17G19G24
  24590528.163    24590527.198   129224248.537 0 100694219.104 0        40.000  
        38.000                                                  
  24915126.380    24915123.486   130929258.371 0 102022798.642 0        41.000  
        38.000                                                  
  21686154.994    21686150.384   113961387.146 0  88801091.079 0        48.000  
        46.000                                                  
  23438362.635                   123169409.340 0                        44.000  
                                                                
  22431960.838    22431956.353   117880771.541 0  91855125.246 0        47.000  
        44.000                                                  
  22630867.116    22630861.719   118926048.708 0  92669746.145 0        45.000  
        43.000                                                  
  21085543.252                   110805753.557 0                        47.000  
                                                                
  20161351.273    20161348.003   105948659.076 0  82557405.975 0        50.000  
        50.000                                                  
 22  1  7 14  0 50.0000000  0  0
 22  1  7 14  0 51.0000000  0  8E02E03E07E08E11E12E25E30
  23407495.952                   123007282.318 0                        49.000  
                  23407494.076    94252358.556          53.000  
  26038535.808                   136833016.091 0                        43.000  
                  26038537.488   104846014.505          49.000  
  26888538.534                   141300231.808 0                        42.000  
                  26888539.249   108269020.199          46.000  
  22691959.197                   119247335.373 0                        48.000  
                  22691957.642    91371339.699          52.000  
  25086335.547                   131829270.531 0                        37.000  
                  25086332.545   101012551.493          40.000  
  26440110.346                   138943101.72510                        34.000  
                  26440106.915   106462944.462          37.000  
  24713129.781                   129868415.626 0                        46.000  
                  24713129.888    99509592.905          50.000  
  26587082.148                   139716081.346 0                        43.000  
                  26587082.488   107055195.935          47.000  
 22  1  7 14  0 52.0000000  0  8G06G10G12G13G15G17G19G24
  24589993.557    24589992.699   129221439.665 0 100692030.389 0        39.000  
        38.000                                                  
  24915339.451    24915336.502   130930377.840 0 102023670.971 0        41.000  
        38.000                                                  
  21685689.274    21685684.646   113958939.933 0  88799184.158 0        48.000  
        46.000                                                  
  23439073.661                   123173145.527 0                        44.000  
                                                                
  22432560.273    22432555.877   117883921.666 0  91857579.893 0        47.000  
        44.000                                                  
  22631290.218    22631284.786   118928271.849 0  92671478.449 0        45.000  
        43.000                                                  
  21085624.038                   110806177.890 0                        47.000  
                                                                
  20161186.878    20161183.501   105947794.810 0  82556732.519 0        50.000  
        50.000                                                  
 22  1  7 14  0 51.0000000  0  0
 22  1  7 14  0 52.0000000  0  8E02E03E07E08E11E12E25E30
  23407403.266                   123006794.525 0                        49.000  
                  23407401.247    94251984.790          53.000  
  26039087.085                   136835913.242 0                        43.000  
                  26039088.836   104848234.391          50.000  
  26888177.937                   141298337.167 0                        42.000  
                  26888178.741   108267568.447          46.000  
  22692091.267                   119248029.887 0                        48.000  
                  22692089.783    91371871.857          52.000  
  25086060.471                   131827825.019 0                        37.000  
                  25086057.577   101011443.884          40.000  
  26440306.172                   138944132.67310                        34.000  
                  26440302.867   106463734.428          37.000  
  24713439.522                   129870044.209 0                        46.000  
                  24713439.790    99510840.779          50.000  
  26586669.285                   139713911.899 0                        43.000  
                  26586669.624   107053533.629          47.000  
 22  1  7 14  0 53.0000000  0  8G06G10G12G13G15G17G19G24
  24589459.130    24589458.308   129218631.043 0 100689841.820 0        40.000  
        38.000                                                  
  24915552.557    24915549.590   130931497.881 0 102024543.744 0        41.000  
        38.000                                                  
  21685223.696    21685218.997   113956493.114 0  88797277.550 0        48.000  
        46.000                                                  
  23439784.705                   123176881.925 0                        44.000  
                                                                
  22433159.903    22433155.311   117887072.157 0  91860034.828 0        47.000  
        44.000                                                  
  22631713.410    22631708.121   118930495.465 0  92673211.163 0        45.000  
        43.000                                                  
  21085704.860                   110806602.968 0                        47.000  
                                                                
  20161022.430    20161019.124   105946931.067 0  82556059.468 0        50.000  
        50.000                                                  
 22  1  7 14  0 52.0000000  0  0
 22  1  7 14  0 53.0000000  0  8E02E03E07E08E11E12E25E30
  23407310.472                   123006306.990 0                        49.000  
                  23407308.453    94251611.227          53.000  
  26039638.612                   136838810.611 0                        43.000  
                  26039640.310   104850454.458          49.000  
  26887817.483                   141296442.907 0                        42.000  
                  26887818.287   108266117.013          46.000  
  22692223.658                   119248724.917 0                        48.000  
                  22692222.086    91372404.414          52.000  
  25085785.485                   131826379.956 0                        37.000  
                  25085782.572   101010336.618          40.000  
  26440502.196                   138945164.12310                        34.000  
                  26440499.158   106464524.766          37.000  
  24713749.586                   129871672.951 0                        46.000  
                  24713749.693    99512088.778          50.000  
  26586256.510                   139711742.591 0                        43.000  
                  26586256.796   107051871.443          47.000  
 22  1  7 14  0 54.0000000  0  8G06G10G12G13G15G17G19G24
  24588924.739    24588923.846   129215822.236 0 100687653.150 0        39.000  
        38.000                                                  
  24915765.645    24915762.714   130932618.112 0 102025416.640 0        41.000  
        38.000                                                  
  21684758.083    21684753.401   113954046.300 0  88795370.935 0        48.000  
        46.000                                                  
  23440495.749                   123180618.162 0                        44.000  
                                                                
  22433759.373    22433754.692   117890222.636 0  91862489.745 0        47.000  
        44.000                                                  
  22632136.567    22632131.403   118932719.222 0  92674943.951 0        45.000  
        43.000                                                  
  21085785.896                   110807028.419 0                        47.000  
                                                                
  20160857.981    20160854.943   105946067.453 0  82555386.529 0        50.000  
        50.000                                                  
 22  1  7 14  0 53.0000000  0  0
 22  1  7 14  0 54.0000000  0  8E02E03E07E08E11E12E25E30
  23407217.678                   123005819.337 0                        49.000  
                  23407215.695    94251237.571          53.000  
  26040190.104                   136841707.821 0                        44.000  
                  26040191.534   104852674.396          49.000  
  26887456.815                   141294548.682 0                        42.000  
                  26887457.726   108264665.603          46.000  
  22692355.978                   119249420.088 0                        49.000  
                  22692354.316    91372937.075          52.000  
  25085510.481                   131824934.971 0                        37.000  
                  25085507.604   101009229.421          40.000  
  26440698.415                   138946195.72810                        34.000  
                  26440695.521   106465315.226          37.000  
  24714059.506                   129873301.482 0                        46.000  
                  24714059.649    99513336.613          50.000  
  26585843.628                   139709573.065 0                        43.000  
                  26585844.057   107050209.081          47.000  
 22  1  7 14  0 55.0000000  0  8G06G10G12G13G15G17G19G24
  24588390.313    24588389.473   129213013.916 0 100685464.872 0        39.000  
        38.000                                                  
  24915978.965    24915975.999   130933739.177 0 102026290.197 0        41.000  
        38.000                                                  
  21684292.541    21684287.913   113951600.144 0  88793464.837 0        48.000  
        46.000                                                  
  23441206.847                   123184354.876 0                        44.000  
                                                                
  22434359.022    22434354.322   117893373.744 0  91864945.154 0        47.000  
        44.000                                                  
  22632559.884    22632554.809   118934943.722 0  92676677.321 0        45.000  
        43.000                                                  
  21085867.003                   110807454.891 0                        47.000  
                                                                
  20160693.836    20160690.781   105945204.617 0  82554714.187 0        50.000  
        50.000                                                  
 22  1  7 14  0 54.0000000  0  0
 22  1  7 14  0 55.0000000  0  8E02E03E07E08E11E12E25E30
  23407125.117                   123005332.210 0                        49.000  
                  23407122.990    94250864.315          53.000  
  26040741.328                   136844605.528 0                        44.000  
                  26040742.918   104854894.711          49.000  
  26887096.504                   141292655.115 0                        42.000  
                  26887097.487   108263214.688          46.000  
  22692488.513                   119250116.042 0                        49.000  
                  22692486.797    91373470.341          52.000  
  25085235.530                   131823490.686 0                        37.000  
                  25085232.778   101008122.787          40.000  
  26440894.689                   138947228.06710                        34.000  
                  26440891.973   106466106.248          37.000  
  24714369.623                   129874930.439 0                        46.000  
                  24714369.480    99514584.777          50.000  
  26585430.818                   139707403.967 0                        43.000  
                  26585431.158   107048547.044          47.000  
 22  1  7 14  0 56.0000000  0  8G06G10G12G13G15G17G19G24
  24587855.850    24587855.100   129210205.707 0 100683276.639 0        39.000  
        38.000                                                  
  24916192.357    24916189.373   130934860.653 0 102027164.079 0        41.000  
        38.000                                                  
  21683827.053    21683822.443   113949154.231 0  88791558.943 0        48.000  
        46.000                                                  
  23441917.998                   123188091.671 0                        44.000  
                                                                
  22434958.742    22434953.989   117896525.083 0  91867400.747 0        47.000  
        44.000                                                  
  22632983.255    22632978.126   118937168.580 0  92678410.999 0        45.000  
        43.000                                                  
  21085948.200                   110807881.983 0                        47.000  
                                                                
  20160529.763    20160526.672   105944342.165 0  82554042.155 0        50.000  
        50.000                                                  
 22  1  7 14  0 55.0000000  0  0
 22  1  7 14  0 56.0000000  0  8E02E03E07E08E11E12E25E30
  23407032.269                   123004845.203 0                        49.000  
                  23407030.393    94250491.161          53.000  
  26041292.802                   136847503.328 0                        44.000  
                  26041294.338   104857115.108          49.000  
  26886736.264                   141290761.824 0                        42.000  
                  26886737.122   108261763.977          46.000  
  22692620.976                   119250812.386 0                        49.000  
                  22692619.278    91374003.911          52.000  
  25084960.990                   131822046.755 0                        37.000  
                  25084957.881   101007016.392          40.000  
  26441091.266                   138948260.83210                        34.000  
                  26441088.460   106466897.576          37.000  
  24714679.490                   129876559.433 0                        46.000  
                  24714679.650    99515832.968          50.000  
  26585018.008                   139705234.885 0                        43.000  
                  26585018.366   107046885.028          47.000  
 22  1  7 14  0 57.0000000  0  8G06G10G12G13G15G17G19G24
  24587321.495    24587320.709   129207397.525 0 100681088.452 0        39.000  
        38.000                                                  
  24916405.892    24916402.818   130935982.487 0 102028038.219 0        41.000  
        38.000                                                  
  21683361.583    21683356.973   113946708.542 0  88789653.204 0        48.000  
        46.000                                                  
  23442629.114                   123191828.488 0                        44.000  
                                                                
  22435558.516    22435553.727   117899676.613 0  91869856.483 0        47.000  
        43.000                                                  
  22633406.625    22633401.658   118939393.769 0  92680144.892 0        45.000  
        42.000                                                  
  21086029.611                   110808309.655 0                        47.000  
                                                                
  20160365.654    20160362.563   105943480.050 0  82553370.368 0        50.000  
        50.000                                                  
 22  1  7 14  0 56.0000000  0  0
 22  1  7 14  0 57.0000000  0  8E02E03E07E08E11E12E25E30
  23406939.475                   123004358.272 0                        49.000  
                  23406937.653    94250118.058          53.000  
  26041844.329                   136850401.166 0                        44.000  
                  26041845.884   104859335.523          50.000  
  26886375.989                   141288868.738 0                        42.000  
                  26886376.936   108260313.442          46.000  
  22692753.564                   119251509.069 0                        49.000  
                  22692751.920    91374537.725          52.000  
  25084686.129                   131820603.098 0                        37.000  
                  25084683.181   101005910.235          40.000  
  26441287.825                   138949293.88110                        34.000  
                  26441285.180   106467689.135          37.000  
  24714989.428                   129878188.407 0                        46.000  
                  24714989.606    99517081.142          50.000  
  26584605.377                   139703065.782 0                        43.000  
                  26584605.680   107045222.984          47.000  
 22  1  7 14  0 58.0000000  0  8G06G10G12G13G15G17G19G24
  24586787.175    24586786.300   129204589.487 0 100678900.375 0        40.000  
        38.000                                                  
  24916619.498    24916616.317   130937104.822 0 102028912.766 0        41.000  
        38.000                                                  
  21682896.256    21682891.699   113944263.163 0  88787747.712 0        48.000  
        46.000                                                  
  23443340.212                   123195565.464 0                        44.000  
                                                                
  22436158.343    22436153.519   117902828.431 0  91872312.438 0        47.000  
        43.000                                                  
  22633830.139    22633825.029   118941619.363 0  92681879.128 0        45.000  
        42.000                                                  
  21086111.166                   110808737.996 0                        47.000  
                                                                
  20160201.670    20160198.561   105942618.385 0  82552698.943 0        50.000  
        50.000                                                  
 22  1  7 14  0 57.0000000  0  0
 22  1  7 14  0 58.0000000  0  8E02E03E07E08E11E12E25E30
  23406846.950                   123003871.538 0                        49.000  
                  23406845.055    94249745.106          53.000  
  26042395.874                   136853299.168 0                        44.000  
                  26042397.286   104861556.073          50.000  
  26886015.678                   141286976.004 0                        42.000  
                  26886016.607   108258863.159          46.000  
  22692886.224                   119252206.205 0                        48.000  
                  22692884.544    91375071.893          52.000  
  25084411.446                   131819159.886 0                        37.000  
                  25084408.641   101004804.351          40.000  
  26441484.581                   138950327.41710                        34.000  
                  26441481.686   106468481.045          37.000  
  24715299.437                   129879817.478 0                        46.000  
                  24715299.563    99518329.394          50.000  
  26584192.424                   139700896.764 0                        43.000  
                  26584192.924   107043561.011          47.000  
 22  1  7 14  0 59.0000000  0  8G06G10G12G13G15G17G19G24
  24586252.927    24586251.962   129201781.865 0 100676712.616 0        40.000  
        38.000                                                  
  24916833.212    24916829.942   130938227.891 0 102029787.892 0        41.000  
        38.000                                                  
  21682431.018    21682426.408   113941818.351 0  88785842.663 0        48.000  
        46.000                                                  
  23444051.453                   123199302.836 0                        44.000  
                                                                
  22436758.242    22436753.453   117905980.806 0  91874768.841 0        47.000  
        43.000                                                  
  22634253.742    22634248.685   118943845.653 0  92683613.888 0        45.000  
        42.000                                                  
  21086192.863                   110809167.286 0                        47.000  
                                                                
  20160037.811    20160034.702   105941757.417 0  82552028.060 0        50.000  
        50.000                                                  
 22  1  7 14  0 58.0000000  0  0
 22  1  7 14  0 59.0000000  0  8E02E03E07E08E11E12E25E30
  23406754.424                   123003385.244 0                        49.000  
                  23406752.512    94249372.485          53.000  
  26042947.419                   136856197.564 0                        44.000  
                  26042948.920   104863776.917          49.000  
  26885655.689                   141285083.839 0                        42.000  
                  26885656.672   108257413.325          46.000  
  22693019.008                   119252904.047 0                        49.000  
                  22693017.329    91375606.600          52.000  
  25084136.978                   131817717.241 0                        37.000  
                  25084134.048   101003698.979          40.000  
  26441681.140                   138951361.54310                        34.000  
                  26441678.603   106469273.479          37.000  
  24715609.626                   129881446.901 0                        46.000  
                  24715609.644    99519577.908          50.000  
  26583779.649                   139698728.077 0                        43.000  
                  26583780.310   107041899.299          47.000  
 22  1  7 14  1  0.0000000  0  8G06G10G12G13G15G17G19G24
  24585718.804    24585717.750   129198974.743 0 100674525.225 0        40.000  
        38.000                                                  
  24917047.050    24917043.887   130939351.788 0 102030663.665 0        41.000  
        38.000                                                  
  21681965.887    21681961.349   113939374.190 0  88783938.141 0        48.000  
        46.000                                                  
  23444762.729                   123203040.687 0                        44.000  
                                                                
  22437358.212    22437353.441   117909133.815 0  91877225.733 0        47.000  
        44.000                                                  
  22634677.578    22634672.503   118946072.694 0  92685349.258 0        45.000  
        42.000                                                  
  21086274.667                   110809597.593 0                        47.000  
                                                                
  20159874.149    20159871.004   105940897.234 0  82551357.793 0        50.000  
        50.000                                                  
 22  1  7 14  0 59.0000000  0  0
 22  1  7 14  1  0.0000000  0  8E02E03E07E08E11E12E25E30
  23406661.934                   123002899.458 0                        49.000  
                  23406660.004    94249000.268          53.000  
  26043499.090                   136859096.459 0                        44.000  
                  26043500.537   104865998.155          50.000  
  26885295.825                   141283192.343 0                        42.000  
                  26885296.700   108255963.999          46.000  
  22693151.936                   119253602.665 0                        49.000  
                  22693150.274    91376141.912          52.000  
  25083862.367                   131816275.347 0                        37.000  
                  25083859.633   101002594.151          40.000  
  26441878.039                   138952396.52910                        34.000  
                  26441875.394   106470066.500          37.000  
  24715919.618                   129883076.752 0                        46.000  
                  24715919.725    99520826.762          50.000  
  26583367.232                   139696559.819 0                        43.000  
                  26583367.697   107040237.904          47.000  
 22  1  7 14  1  1.0000000  0  8G06G10G12G13G15G17G19G24
  24585184.556    24585183.538   129196167.368 0 100672337.689 0        40.000  
        38.000                                                  
  24917260.925    24917257.708   130940475.782 0 102031539.481 0        40.000  
        37.000                                                  
  21681500.703    21681496.290   113936929.971 0  88782033.550 0        48.000  
        46.000                                                  
  23445473.988                   123206778.288 0                        44.000  
                                                                
  22437958.236    22437953.465   117912286.742 0  91879682.562 0        47.000  
        44.000                                                  
  22635101.359    22635096.213   118948299.782 0  92687084.649 0        45.000  
        42.000                                                  
  21086356.704                   110810028.191 0                        47.000  
                                                                
  20159710.450    20159707.377   105940037.118 0  82550687.566 0        50.000  
        50.000                                                  
 22  1  7 14  1  0.0000000  0  0
 22  1  7 14  1  1.0000000  0  8E02E03E07E08E11E12E25E30
  23406569.390                   123002413.496 0                        49.000  
                  23406567.567    94248627.900          53.000  
  26044050.671                   136861995.128 0                        44.000  
                  26044052.118   104868219.206          49.000  
  26884935.960                   141281300.804 0                        42.000  
                  26884936.764   108254514.629          46.000  
  22693285.007                   119254301.355 0                        49.000  
                  22693283.148    91376677.269          52.000  
  25083588.042                   131814833.464 0                        37.000  
                  25083585.165   101001489.325          40.000  
  26442074.705                   138953431.56710                        34.000  
                  26442072.311   106470859.552          37.000  
  24716229.806                   129884706.313 0                        46.000  
                  24716229.842    99522075.382          50.000  
  26582954.458                   139694391.276 0                        43.000  
                  26582954.815   107038576.289          47.000  
 22  1  7 14  1  2.0000000  0  8G06G10G12G13G15G17G19G24
  24584650.380    24584649.308   129193360.019 0 100670150.145 0        39.000  
        38.000                                                  
  24917474.852    24917471.672   130941600.121 0 102032415.599 0        40.000  
        37.000                                                  
  21681035.555    21681031.230   113934485.915 0  88780129.084 0        48.000  
        46.000                                                  
  23446185.246                   123210515.904 0                        44.000  
                                                                
  22438558.171    22438553.632   117915439.828 0  91882139.495 0        47.000  
        44.000                                                  
  22635525.177    22635520.031   118950527.146 0  92688820.276 0        45.000  
        42.000                                                  
  21086438.759                   110810459.347 0                        47.000  
                                                                
  20159546.877    20159543.732   105939177.312 0  82550017.590 0        50.000  
        50.000                                                  
 22  1  7 14  1  1.0000000  0  0
 22  1  7 14  1  2.0000000  0  8E02E03E07E08E11E12E25E30
  23406477.061                   123001927.589 0                        49.000  
                  23406475.059    94248255.582          53.000  
  26044602.484                   136864893.808 0                        44.000  
                  26044603.610   104870440.275          49.000  
  26884575.989                   141279409.449 0                        42.000  
                  26884576.847   108253065.420          46.000  
  22693418.024                   119255000.370 0                        49.000  
                  22693416.112    91377212.874          52.000  
  25083313.556                   131813391.802 0                        37.000  
                  25083310.858   101000384.697          40.000  
  26442271.926                   138954466.90010                        34.000  
                  26442269.585   106471652.863          37.000  
  24716539.744                   129886335.841 0                        46.000  
                  24716539.959    99523323.979          50.000  
  26582541.522                   139692222.672 0                        43.000  
                  26582542.237   107036914.638          47.000  
 22  1  7 14  1  3.0000000  0  8G06G10G12G13G15G17G19G24
  24584116.150    24584115.149   129190552.840 0 100667962.701 0        39.000  
        38.000                                                  
  24917688.870    24917685.761   130942724.954 0 102033292.083 0        41.000  
        38.000                                                  
  21680570.460    21680566.082   113932042.180 0  88778224.884 0        48.000  
        46.000                                                  
  23446896.594                   123214253.663 0                        44.000  
                                                                
  22439158.266    22439153.763   117918593.198 0  91884596.669 0        47.000  
        44.000                                                  
  22635949.191    22635943.955   118952754.947 0  92690556.208 0        45.000  
        42.000                                                  
  21086520.974                   110810891.180 0                        47.000  
                                                                
  20159383.358    20159380.177   105938317.945 0  82549347.951 0        50.000  
        50.000                                                  
 22  1  7 14  1  2.0000000  0  0
 22  1  7 14  1  3.0000000  0  8E02E03E07E08E11E12E25E30
  23406384.553                   123001441.850 0                        49.000  
                  23406382.605    94247883.395          53.000  
  26045154.172                   136867792.644 0                        44.000  
                  26045155.334   104872661.461          49.000  
  26884216.142                   141277518.420 0                        42.000  
                  26884217.018   108251616.452          46.000  
  22693551.076                   119255699.813 0                        49.000  
                  22693549.200    91377748.813          52.000  
  25083039.481                   131811950.577 0                        37.000  
                  25083036.604   100999280.364          40.000  
  26442469.164                   138955502.63710                        34.000  
                  26442466.609   106472446.487          37.000  
  24716849.933                   129887965.452 0                        46.000  
                  24716850.022    99524572.642          50.000  
  26582128.945                   139690054.153 0                        42.000  
                  26582129.534   107035253.043          47.000  
 22  1  7 14  1  4.0000000  0  8G06G10G12G13G15G17G19G24
  24583582.009    24583581.062   129187745.835 0 100665775.452 0        39.000  
        38.000                                                  
  24917902.976    24917899.992   130943850.336 0 102034169.004 0        40.000  
        38.000                                                  
  21680105.508    21680101.094   113929598.829 0  88776320.965 0        48.000  
        46.000                                                  
  23447607.871                   123217991.622 0                        44.000  
                                                                
  22439758.469    22439753.930   117921746.929 0  91887054.124 0        47.000  
        44.000                                                  
  22636373.223    22636368.076   118954983.229 0  92692292.532 0        45.000  
        42.000                                                  
  21086603.314                   110811323.753 0                        47.000  
                                                                
  20159219.981    20159216.676   105937459.087 0  82548678.714 0        50.000  
        50.000                                                  
 22  1  7 14  1  3.0000000  0  0
 22  1  7 14  1  4.0000000  0  8E02E03E07E08E11E12E25E30
  23406292.099                   123000956.357 0                        49.000  
                  23406290.365    94247511.394          53.000  
  26045705.771                   136870691.682 0                        44.000  
                  26045706.933   104874882.797          49.000  
  26883856.457                   141275627.778 0                        42.000  
                  26883857.190   108250167.772          46.000  
  22693684.183                   119256399.782 0                        49.000  
                  22693682.467    91378285.150          52.000  
  25082765.191                   131810509.789 0                        37.000  
                  25082762.332   100998176.379          40.000  
  26442666.367                   138956538.87210                        34.000  
                  26442663.740   106473240.497          37.000  
  24717159.942                   129889595.215 0                        46.000  
                  24717160.228    99525821.420          50.000  
  26581716.242                   139687885.768 0                        42.000  
                  26581716.956   107033591.554          47.000  
 22  1  7 14  1  5.0000000  0  8G06G10G12G13G15G17G19G24
  24583047.886    24583047.010   129184939.329 0 100663588.545 0        39.000  
        38.000                                                  
  24918117.315    24918114.313   130944976.509 0 102035046.532 0        41.000  
        38.000                                                  
  21679640.681    21679636.249   113927156.100 0  88774417.545 0        48.000  
        46.000                                                  
  23448319.326                   123221730.033 0                        43.000  
                                                                
  22440358.761    22440354.186   117924901.264 0  91889512.057 0        48.000  
        44.000                                                  
  22636797.344    22636792.198   118957212.242 0  92694029.430 0        45.000  
        42.000                                                  
  21086685.887                   110811757.321 0                        47.000  
                                                                
  20159056.659    20159053.496   105936600.984 0  82548010.064 0        50.000  
        50.000                                                  
 22  1  7 14  1  4.0000000  0  0
 22  1  7 14  1  5.0000000  0  8E02E03E07E08E11E12E25E30
  23406199.823                   123000471.372 0                        49.000  
                  23406197.964    94247139.784          53.000  
  26046257.602                   136873591.196 0                        44.000  
                  26046258.710   104877104.503          49.000  
  26883496.843                   141273737.791 0                        42.000  
                  26883497.575   108248719.598          46.000  
  22693817.557                   119257100.499 0                        49.000  
                  22693815.788    91378822.068          52.000  
  25082491.170                   131809069.685 0                        37.000  
                  25082488.329   100997072.932          40.000  
  26442863.658                   138957575.86510                        34.000  
                  26442860.978   106474035.060          37.000  
  24717470.256                   129891225.384 0                        46.000  
                  24717470.345    99527070.512          50.000  
  26581303.628                   139685717.780 0                        42.000  
                  26581304.325   107031930.373          47.000  
 22  1  7 14  1  6.0000000  0  8G06G10G12G13G15G17G19G24
  24582513.870    24582513.012   129182133.019 0 100661401.826 0        39.000  
        38.000                                                  
  24918331.708    24918328.706   130946103.232 0 102035924.503 0        41.000  
        38.000                                                  
  21679175.979    21679171.530   113924713.759 0  88772514.426 0        48.000  
        46.000                                                  
  23449030.709                   123225468.647 0                        44.000  
                                                                
  22440959.178    22440954.532   117928055.969 0  91891970.267 0        48.000  
        44.000                                                  
  22637221.555    22637216.498   118959441.762 0  92695766.714 0        45.000  
        42.000                                                  
  21086768.478                   110812191.637 0                        47.000  
                                                                
  20158893.479    20158890.334   105935743.403 0  82547341.817 0        50.000  
        50.000                                                  
 22  1  7 14  1  5.0000000  0  0
 22  1  7 14  1  6.0000000  0  8E02E03E07E08E11E12E25E30
  23406107.422                   122999986.651 0                        49.000  
                  23406105.832    94246768.372          53.000  
  26046809.291                   136876490.921 0                        44.000  
                  26046810.506   104879326.375          49.000  
  26883137.229                   141271848.197 0                        42.000  
                  26883137.979   108247271.736          46.000  
  22693950.860                   119257801.750 0                        49.000  
                  22693949.323    91379359.383          52.000  
  25082217.416                   131807630.051 0                        37.000  
                  25082214.289   100995969.831          40.000  
  26443061.504                   138958613.36310                        34.000  
                  26443058.413   106474830.046          37.000  
  24717780.355                   129892855.719 0                        46.000  
                  24717780.712    99528319.735          50.000  
  26580891.122                   139683549.962 0                        42.000  
                  26580891.783   107030269.320          47.000  
 22  1  7 14  1  7.0000000  0  8G06G10G12G13G15G17G19G24
  24581979.872    24581978.943   129179326.597 0 100659215.000 0        39.000  
        38.000                                                  
  24918546.226    24918543.241   130947230.142 0 102036802.617 0        41.000  
        38.000                                                  
  21678711.295    21678706.864   113922271.453 0  88770611.335 0        49.000  
        46.000                                                  
  23449742.129                   123229207.122 0                        44.000  
                                                                
  22441559.524    22441554.860   117931210.680 0  91894428.478 0        48.000  
        44.000                                                  
  22637645.908    22637640.816   118961671.400 0  92697504.094 0        45.000  
        42.000                                                  
  21086851.140                   110812626.349 0                        47.000  
                                                                
  20158730.317    20158727.172   105934885.963 0  82546673.682 0        50.000  
        50.000                                                  
 22  1  7 14  1  6.0000000  0  0
 22  1  7 14  1  7.0000000  0  8E02E03E07E08E11E12E25E30
  23406015.272                   122999501.816 0                        49.000  
                  23406013.520    94246396.875          53.000  
  26047361.193                   136879390.523 0                        44.000  
                  26047362.212   104881548.143          49.000  
  26882777.829                   141269958.632 0                        42.000  
                  26882778.437   108245823.892          46.000  
  22694084.467                   119258503.147 0                        49.000  
                  22694082.680    91379896.818          52.000  
  25081943.502                   131806190.519 0                        37.000  
                  25081940.375   100994866.815          40.000  
  26443259.439                   138959651.00810                        34.000  
                  26443255.723   106475625.100          37.000  
  24718090.758                   129894485.864 0                        46.000  
                  24718090.722    99529568.800          50.000  
  26580478.490                   139681381.921 0                        42.000  
                  26580479.366   107028608.096          47.000  
 22  1  7 14  1  8.0000000  0  8G06G10G12G13G15G17G19G24
  24581445.910    24581445.124   129176520.666 0 100657028.562 0        39.000  
        38.000                                                  
  24918760.958    24918757.759   130948357.910 0 102037681.406 0        41.000  
        37.000                                                  
  21678246.647    21678242.126   113919829.813 0  88768708.756 0        49.000  
        46.000                                                  
  23450453.655                   123232946.103 0                        44.000  
                                                                
  22442159.958    22442155.259   117934366.043 0  91896887.202 0        48.000  
        44.000                                                  
  22638070.297    22638065.115   118963901.830 0  92699242.087 0        45.000  
        42.000                                                  
  21086933.981                   110813062.112 0                        47.000  
                                                                
  20158567.369    20158564.117   105934029.339 0  82546006.183 0        50.000  
        50.000                                                  
 22  1  7 14  1  7.0000000  0  0
 22  1  7 14  1  8.0000000  0  8E02E03E07E08E11E12E25E30
  23405923.193                   122999017.538 0                        49.000  
                  23405921.406    94246025.803          53.000  
  26047912.989                   136882290.621 0                        44.000  
                  26047914.114   104883770.305          49.000  
  26882418.286                   141268069.772 0                        42.000  
                  26882418.894   108244376.584          46.000  
  22694218.252                   119259205.358 0                        49.000  
                  22694216.412    91380434.875          52.000  
  25081669.802                   131804751.721 0                        37.000  
                  25081666.675   100993764.384          40.000  
  26443456.999                   138960689.42110                        34.000  
                  26443453.408   106476420.789          37.000  
  24718400.874                   129896116.455 0                        46.000  
                  24718401.125    99530818.213          50.000  
  26580065.912                   139679214.335 0                        42.000  
                  26580066.681   107026947.225          47.000  
 22  1  7 14  1  9.0000000  0  8G06G10G12G13G15G17G19G24
  24580911.894    24580911.144   129173714.796 0 100654842.179 0        39.000  
        38.000                                                  
  24918975.743    24918972.402   130949486.061 0 102038560.469 0        41.000  
        37.000                                                  
  21677782.088    21677777.585   113917388.396 0  88766806.360 0        49.000  
        45.000                                                  
  23451165.200                   123236685.124 0                        44.000  
                                                                
  22442760.411    22442755.694   117937521.599 0  91899346.082 0        47.000  
        44.000                                                  
  22638494.794    22638489.594   118966132.580 0  92700980.343 0        45.000  
        42.000                                                  
  21087017.036                   110813498.447 0                        47.000  
                                                                
  20158404.475    20158401.151   105933173.058 0  82545338.949 0        50.000  
        50.000                                                  
 22  1  7 14  1  8.0000000  0  0
 22  1  7 14  1  9.0000000  0  8E02E03E07E08E11E12E25E30
  23405830.917                   122998533.345 0                        49.000  
                  23405829.255    94245654.800          53.000  
  26048464.820                   136885190.801 0                        44.000  
                  26048466.053   104885992.509          49.000  
  26882058.797                   141266181.143 0                        42.000  
                  26882059.512   108242929.459          46.000  
  22694351.895                   119259907.921 0                        49.000  
                  22694350.072    91380973.203          52.000  
  25081395.852                   131803313.231 0                        37.000  
                  25081393.083   100992662.153          40.000  
  26443655.113                   138961728.23010                        34.000  
                  26443651.111   106477216.738          37.000  
  24718711.259                   129897747.046 0                        46.000  
                  24718711.438    99532067.629          50.000  
  26579653.495                   139677046.735 0                        42.000  
                  26579654.210   107025286.341          47.000  
 22  1  7 14  1 10.0000000  0  8G06G10G12G13G15G17G19G24
  24580377.896    24580377.146   129170908.721 0 100652655.634 0        39.000  
        38.000                                                  
  24919190.547    24919187.009   130950614.330 0 102039439.637 0        41.000  
        37.000                                                  
  21677317.511    21677313.008   113914946.940 0  88764903.929 0        49.000  
        46.000                                                  
  23451876.691                   123240423.934 0                        44.000  
                                                                
  22443360.989    22443356.093   117940677.120 0  91901804.911 0        47.000  
        44.000                                                  
  22638919.362    22638914.162   118968363.401 0  92702718.640 0        45.000  
        42.000                                                  
  21087100.145                   110813935.119 0                        47.000  
                                                                
  20158241.545    20158238.222   105932316.868 0  82544671.794 0        50.000  
        50.000                                                  
 22  1  7 14  1  9.0000000  0  0
 22  1  7 14  1 10.0000000  0  8E02E03E07E08E11E12E25E30
  23405738.981                   122998048.973 0                        49.000  
                  23405737.015    94245283.663          53.000  
  26049016.669                   136888090.764 0                        44.000  
                  26049017.866   104888214.552          49.000  
  26881699.308                   141264292.485 0                        42.000  
                  26881700.113   108241482.295          46.000  
  22694485.591                   119260610.571 0                        49.000  
                  22694483.714    91381511.600          52.000  
  25081122.135                   131801874.744 0                        37.000  
                  25081119.365   100991559.954          40.000  
  26443852.709                   138962767.06010                        34.000  
                  26443848.724   106478012.756          37.000  
  24719021.573                   129899377.375 0                        46.000  
                  24719021.716    99533316.836          50.000  
  26579240.846                   139674878.867 0                        42.000  
                  26579241.650   107023625.245          47.000  
 22  1  7 14  1 11.0000000  0  8G06G10G12G13G15G17G19G24
  24579843.970    24579843.255   129168103.019 0 100650469.384 0        39.000  
        38.000                                                  
  24919405.332    24919401.848   130951743.303 0 102040319.377 0        42.000  
        38.000                                                  
  21676853.024    21676848.467   113912506.025 0  88763001.904 0        49.000  
        46.000                                                  
  23452588.271                   123244163.099 0                        44.000  
                                                                
  22443961.603    22443956.724   117943833.125 0  91904264.150 0        47.000  
        44.000                                                  
  22639344.037    22639338.837   118970594.870 0  92704457.450 0        45.000  
        42.000                                                  
  21087183.539                   110814372.683 0                        47.000  
                                                                
  20158078.669    20158075.417   105931461.342 0  82544005.143 0        50.000  
        50.000                                                  
 22  1  7 14  1 10.0000000  0  0
 22  1  7 14  1 11.0000000  0  8E02E03E07E08E11E12E25E30
  23405646.777                   122997565.018 0                        49.000  
                  23405644.954    94244912.838          53.000  
  26049568.589                   136890991.084 0                        44.000  
                  26049569.662   104890436.891          49.000  
  26881340.087                   141262404.385 0                        42.000  
                  26881340.731   108240035.570          46.000  
  22694619.483                   119261313.894 0                        49.000  
                  22694617.535    91382050.514          52.000  
  25080848.524                   131800436.914 0                        37.000  
                  25080845.629   100990458.220          40.000  
  26444050.644                   138963806.57410                        34.000  
                  26444046.463   106478809.259          37.000  
  24719332.065                   129901008.010 0                        46.000  
                  24719331.868    99534566.284          50.000  
  26578828.339                   139672711.304 0                        42.000  
                  26578829.286   107021964.378          47.000  
 22  1  7 14  1 12.0000000  0  8G06G10G12G13G15G17G19G24
  24579310.151    24579309.329   129165297.807 0 100648283.493 0        39.000  
        38.000                                                  
  24919620.386    24919616.830   130952873.087 0 102041199.728 0        42.000  
        38.000                                                  
  21676388.644    21676384.159   113910065.744 0  88761100.390 0        49.000  
        45.000                                                  
  23453299.833                   123247902.725 0                        44.000  
                                                                
  22444562.306    22444557.535   117946989.761 0  91906723.862 0        47.000  
        44.000                                                  
  22639768.802    22639763.602   118972827.073 0  92706196.828 0        45.000  
        42.000                                                  
  21087267.006                   110814811.254 0                        48.000  
                                                                
  20157916.043    20157912.862   105930606.584 0  82543339.098 0        50.000  
        50.000                                                  
 22  1  7 14  1 11.0000000  0  0
 22  1  7 14  1 12.0000000  0  8E02E03E07E08E11E12E25E30
  23405554.751                   122997081.565 0                        49.000  
                  23405552.964    94244542.404          53.000  
  26050120.349                   136893891.892 0                        44.000  
                  26050121.779   104892659.579          49.000  
  26880980.974                   141260516.927 0                        42.000  
                  26880981.599   108238589.334          46.000  
  22694753.411                   119262017.992 0                        49.000  
                  22694751.625    91382590.013          52.000  
  25080575.199                   131798999.756 0                        37.000  
                  25080572.108   100989357.034          40.000  
  26444248.686                   138964846.84810                        34.000  
                  26444244.362   106479606.357          37.000  
  24719642.396                   129902639.065 0                        46.000  
                  24719642.289    99535816.060          50.000  
  26578415.922                   139670544.132 0                        42.000  
                  26578416.905   107020303.829          47.000  
 22  1  7 14  1 13.0000000  0  8G06G10G12G13G15G17G19G24
  24578776.457    24578775.617   129162493.146 0 100646098.029 0        39.000  
        38.000                                                  
  24919835.618    24919831.991   130954003.753 0 102042080.757 0        42.000  
        38.000                                                  
  21675924.442    21675919.975   113907626.205 0  88759199.460 0        49.000  
        45.000                                                  
  23454011.628                   123251642.894 0                        44.000  
                                                                
  22445163.026    22445158.434   117950147.090 0  91909184.120 0        47.000  
        44.000                                                  
  22640193.763    22640188.456   118975060.100 0  92707936.829 0        45.000  
        42.000                                                  
  21087350.668                   110815250.902 0                        48.000  
                                                                
  20157753.542    20157750.397   105929752.671 0  82542673.719 0        50.000  
        50.000                                                  
 22  1  7 14  1 12.0000000  0  0
 22  1  7 14  1 13.0000000  0  8E02E03E07E08E11E12E25E30
  23405462.726                   122996598.707 0                        49.000  
                  23405461.082    94244172.422          53.000  
  26050672.305                   136896793.234 0                        44.000  
                  26050673.824   104894882.695          49.000  
  26880621.735                   141258630.200 0                        42.000  
                  26880622.503   108237143.669          46.000  
  22694887.465                   119262722.940 0                        49.000  
                  22694885.803    91383130.168          52.000  
  25080301.946                   131797563.414 0                        37.000  
                  25080298.873   100988256.467          40.000  
  26444447.068                   138965887.94910                        33.000  
                  26444442.565   106480404.086          37.000  
  24719952.960                   129904270.612 0                        46.000  
                  24719952.799    99537066.206          50.000  
  26578003.630                   139668377.458 0                        42.000  
                  26578004.577   107018643.653          47.000  
 22  1  7 14  1 14.0000000  0  8G06G10G12G13G15G17G19G24
  24578242.602    24578241.655   129159687.652 0 100643911.957 0        39.000  
        38.000                                                  
  24920050.744    24920047.170   130955133.935 0 102042961.430 0        42.000  
        38.000                                                  
  21675460.008    21675455.541   113905186.023 0  88757298.011 0        49.000  
        45.000                                                  
  23454723.262                   123255382.247 0                        44.000  
                                                                
  22445763.711    22445759.316   117953303.770 0  91911643.855 0        47.000  
        44.000                                                  
  22640618.635    22640613.202   118977292.590 0  92709676.439 0        45.000  
        42.000                                                  
  21087434.278                   110815690.277 0                        48.000  
                                                                
  20157590.881    20157587.753   105928898.260 0  82542007.936 0        50.000  
        50.000                                                  
 22  1  7 14  1 13.0000000  0  0
 22  1  7 14  1 14.0000000  0  8E02E03E07E08E11E12E25E30
  23405370.754                   122996115.075 0                        49.000  
                  23405369.038    94243801.849          53.000  
  26051224.262                   136899693.802 0                        44.000  
                  26051225.780   104897105.205          49.000  
  26880262.585                   141256742.842 0                        42.000  
                  26880263.443   108235697.512          46.000  
  22695021.411                   119263427.369 0                        49.000  
                  22695019.767    91383669.927          52.000  
  25080028.550                   131796126.514 0                        37.000  
                  25080025.370   100987155.444          40.000  
  26444644.932                   138966928.49510                        33.000  
                  26444640.590   106481201.395          37.000  
  24720263.095                   129905901.300 0                        46.000  
                  24720263.041    99538315.688          50.000  
  26577590.910                   139666209.916 0                        42.000  
                  26577592.035   107016982.813          47.000  
 22  1  7 14  1 15.0000000  0  8G06G10G12G13G15G17G19G24
  24577708.872    24577707.836   129156882.372 0 100641726.011 0        39.000  
        38.000                                                  
  24920265.922    24920262.313   130956264.649 0 102043842.499 0        42.000  
        38.000                                                  
  21674995.753    21674991.215   113902746.196 0  88755396.849 0        49.000  
        45.000                                                  
  23455434.967                   123259121.770 0                        44.000  
                                                                
  22446364.397    22446360.054   117956460.764 0  91914103.861 0        47.000  
        44.000                                                  
  22641043.596    22641038.092   118979525.547 0  92711416.414 0        45.000  
        42.000                                                  
  21087518.047                   110816130.371 0                        48.000  
                                                                
  20157428.380    20157425.181   105928044.323 0  82541342.536 0        50.000  
        50.000                                                  
 22  1  7 14  1 14.0000000  0  0
 22  1  7 14  1 15.0000000  0  8E02E03E07E08E11E12E25E30
  23405278.889                   122995631.672 0                        49.000  
                  23405277.013    94243431.444          53.000  
  26051776.343                   136902594.548 0                        44.000  
                  26051777.737   104899327.841          49.000  
  26879903.597                   141254855.848 0                        42.000  
                  26879904.294   108234251.633          46.000  
  22695155.661                   119264132.282 0                        49.000  
                  22695153.821    91384210.058          52.000  
  25079755.387                   131794690.008 0                        37.000  
                  25079752.027   100986054.758          40.000  
  26444842.885                   138967969.56110                        34.000  
                  26444838.704   106481999.079          37.000  
  24720573.462                   129907532.111 0                        46.000  
                  24720573.390    99539565.274          50.000  
  26577178.528                   139664042.477 0                        42.000  
                  26577179.618   107015322.050          47.000  
 22  1  7 14  1 16.0000000  0  8G06G10G12G13G15G17G19G24
  24577175.124    24577174.070   129154077.617 0 100639540.477 0        39.000  
        38.000                                                  
  24920481.155    24920477.706   130957396.210 0 102044724.230 0        42.000  
        38.000                                                  
  21674531.606    21674527.067   113900307.059 0  88753496.232 0        49.000  
        45.000                                                  
  23456146.673                   123262861.815 0                        44.000  
                                                                
  22446965.296    22446961.025   117959618.448 0  91916564.383 0        47.000  
        44.000                                                  
  22641468.575    22641463.017   118981759.293 0  92713156.991 0        45.000  
        42.000                                                  
  21087601.943                   110816571.524 0                        48.000  
                                                                
  20157266.111    20157262.787   105927191.206 0  82540677.769 0        50.000  
        50.000                                                  
 22  1  7 14  1 15.0000000  0  0
 22  1  7 14  1 16.0000000  0  8E02E03E07E08E11E12E25E30
  23405186.971                   122995148.823 0                        49.000  
                  23405185.291    94243061.472          53.000  
  26052328.424                   136905495.811 0                        44.000  
                  26052329.747   104901550.898          49.000  
  26879544.644                   141252969.567 0                        42.000  
                  26879545.269   108232806.308          46.000  
  22695289.804                   119264838.029 0                        49.000  
                  22695288.196    91384750.823          52.000  
  25079482.098                   131793254.276 0                        38.000  
                  25079478.846   100984954.652          40.000  
  26445041.052                   138969011.45210                        33.000  
                  26445037.032   106482797.388          37.000  
  24720883.829                   129909163.388 0                        46.000  
                  24720883.811    99540815.212          50.000  
  26576766.344                   139661875.522 0                        42.000  
                  26576767.165   107013661.650          47.000  
 22  1  7 14  1 17.0000000  0  8G06G10G12G13G15G17G19G24
  24576641.502    24576640.483   129151273.576 0 100637355.521 0        39.000  
        38.000                                                  
  24920696.637    24920693.260   130958528.849 0 102045606.794 0        42.000  
        38.000                                                  
  21674067.636    21674063.133   113897868.806 0  88751596.283 0        49.000  
        45.000                                                  
  23456858.539                   123266602.571 0                        44.000  
                                                                
  22447566.356    22447561.943   117962776.979 0  91919025.576 0        47.000  
        44.000                                                  
  22641893.875    22641888.300   118983994.025 0  92714898.338 0        45.000  
        42.000                                                  
  21087686.195                   110817013.919 0                        48.000  
                                                                
  20157103.896    20157100.680   105926339.098 0  82540013.794 0        50.000  
        50.000                                                  
 22  1  7 14  1 16.0000000  0  0
 22  1  7 14  1 17.0000000  0  8E02E03E07E08E11E12E25E30
  23405095.160                   122994666.716 0                        49.000  
                  23405093.480    94242692.070          53.000  
  26052880.523                   136908397.789 0                        44.000  
                  26052882.114   104903774.488          49.000  
  26879185.977                   141251084.184 0                        42.000  
                  26879186.513   108231361.659          46.000  
  22695424.322                   119265544.788 0                        49.000  
                  22695422.714    91385292.365          52.000  
  25079209.256                   131791819.489 0                        38.000  
                  25079205.771   100983855.272          40.000  
  26445239.613                   138970054.33410                        34.000  
                  26445235.414   106483596.457          37.000  
  24721194.446                   129910795.335 0                        46.000  
                  24721194.321    99542065.658          50.000  
  26576354.212                   139659709.195 0                        42.000  
                  26576354.927   107012001.739          46.000  
 22  1  7 14  1 18.0000000  0  8G06G10G12G13G15G17G19G24
  24576107.897    24576106.914   129148469.566 0 100635170.590 0        39.000  
        38.000                                                  
  24920912.245    24920908.975   130959661.801 0 102046489.633 0        41.000  
        38.000                                                  
  21673603.631    21673599.289   113895430.737 0  88749696.487 0        49.000  
        45.000                                                  
  23457570.441                   123270343.347 0                        44.000  
                                                                
  22448167.399    22448163.039   117965935.699 0  91921486.918 0        47.000  
        44.000                                                  
  22642319.247    22642313.672   118986229.059 0  92716639.933 0        45.000  
        42.000                                                  
  21087770.465                   110817456.885 0                        48.000  
                                                                
  20156941.735    20156938.554   105925487.321 0  82539350.069 0        50.000  
        50.000                                                  
 22  1  7 14  1 17.0000000  0  0
 22  1  7 14  1 18.0000000  0  8E02E03E07E08E11E12E25E30
  23405003.456                   122994184.695 0                        49.000  
                  23405001.758    94242322.718          53.000  
  26053432.712                   136911299.803 0                        44.000  
                  26053434.338   104905998.102          49.000  
  26878827.220                   141249199.006 0                        42.000  
                  26878827.810   108229917.177          46.000  
  22695558.822                   119266251.872 0                        49.000  
                  22695557.249    91385834.157          52.000  
  25078936.306                   131790384.967 0                        38.000  
                  25078932.768   100982756.099          40.000  
  26445438.567                   138971097.49910                        34.000  
                  26445433.903   106484395.781          37.000  
  24721505.135                   129912427.249 0                        46.000  
                  24721504.992    99543316.088          50.000  
  26575942.063                   139657542.835 0                        42.000  
                  26575942.742   107010341.810          46.000  
 22  1  7 14  1 19.0000000  0  8G06G10G12G13G15G17G19G24
  24575574.256    24575573.184   129145665.141 0 100632985.309 0        39.000  
        38.000                                                  
  24921127.745    24921124.529   130960794.709 0 102047372.432 0        41.000  
        38.000                                                  
  21673139.787    21673135.123   113892992.416 0  88747796.498 0        49.000  
        45.000                                                  
  23458282.217                   123274083.680 0                        44.000  
                                                                
  22448768.495    22448764.242   117969094.154 0  91923948.046 0        47.000  
        44.000                                                  
  22642744.548    22642738.937   118988463.944 0  92718381.390 0        45.000  
        42.000                                                  
  21087854.843                   110817899.952 0                        48.000  
                                                                
  20156779.645    20156776.482   105924635.413 0  82538686.247 0        50.000  
        50.000                                                  
 22  1  7 14  1 18.0000000  0  0
 22  1  7 14  1 19.0000000  0  8E02E03E07E08E11E12E25E30
  23404911.591                   122993702.281 0                        49.000  
                  23404909.912    94241953.084          53.000  
  26053984.865                   136914201.409 0                        44.000  
                  26053986.437   104908221.415          49.000  
  26878468.428                   141247313.585 0                        42.000  
                  26878469.018   108228472.503          46.000  
  22695693.268                   119266958.846 0                        49.000  
                  22695691.821    91386375.860          52.000  
  25078663.393                   131788950.279 0                        38.000  
                  25078659.765   100981656.795          40.000  
  26445637.199                   138972140.49510                        34.000  
                  26445632.446   106485194.998          37.000  
  24721815.466                   129914058.676 0                        46.000  
                  24721815.377    99544566.147          50.000  
  26575529.485                   139655375.997 0                        42.000  
                  26575530.397   107008681.506          47.000  
 22  1  7 14  1 20.0000000  0  8G06G10G12G13G15G17G19G24
  24575040.616    24575039.597   129142861.181 0 100630800.417 0        39.000  
        38.000                                                  
  24921343.514    24921340.244   130961928.390 0 102048255.801 0        41.000  
        38.000                                                  
  21672675.890    21672671.190   113890554.708 0  88745896.990 0        49.000  
        45.000                                                  
  23458994.012                   123277824.471 0                        44.000  
                                                                
  22449369.698    22449365.392   117972253.188 0  91926409.635 0        47.000  
        44.000                                                  
  22643169.956    22643164.363   118990699.557 0  92720123.435 0        45.000  
        42.000                                                  
  21087939.328                   110818344.004 0                        48.000  
                                                                
  20156617.716    20156614.535   105923784.244 0  82538023.000 0        50.000  
        50.000                                                  
 22  1  7 14  1 19.0000000  0  0
 22  1  7 14  1 20.0000000  0  8E02E03E07E08E11E12E25E30
  23404820.138                   122993220.344 0                        49.000  
                  23404818.208    94241583.811          53.000  
  26054537.232                   136917103.441 0                        44.000  
                  26054538.608   104910445.052          49.000  
  26878109.922                   141245428.792 0                        42.000  
                  26878110.297   108227028.318          46.000  
  22695827.983                   119267666.549 0                        49.000  
                  22695826.411    91386918.133          52.000  
  25078390.604                   131787516.294 0                        38.000  
                  25078386.941   100980558.032          40.000  
  26445835.688                   138973184.27310                        33.000  
                  26445831.167   106485994.771          37.000  
  24722125.922                   129915690.502 0                        46.000  
                  24722125.869    99545816.505          50.000  
  26575117.086                   139653209.544 0                        42.000  
                  26575118.123   107007021.498          46.000  
 22  1  7 14  1 21.0000000  0  8G06G10G12G13G15G17G19G24
  24574507.011    24574505.957   129140057.322 0 100628615.596 0        39.000  
        38.000                                                  
  24921559.336    24921556.030   130963062.510 0 102049139.533 0        41.000  
        37.000                                                  
  21672212.117    21672207.257   113888117.284 0  88743997.697 0        49.000  
        45.000                                                  
  23459705.878                   123281565.347 0                        44.000  
                                                                
  22449970.830    22449966.559   117975412.485 0  91928871.416 0        47.000  
        44.000                                                  
  22643595.435    22643589.860   118992935.554 0  92721865.763 0        45.000  
        42.000                                                  
  21088024.098                   110818788.699 0                        48.000  
                                                                
  20156455.840    20156452.624   105922933.494 0  82537360.067 0        50.000  
        50.000                                                  
 22  1  7 14  1 20.0000000  0  0
