     2.11           OBSERVATION DATA    M (Mixed)           RINEX VERSION / TYPE
RTCM3TORINEX on                         2022-01-15 23:59    PGM / RUN BY / DATE
RTCM3TORINEX                                                MARKER NAME
                                                            OBSERVER / AGENCY
                                                            REC # / TYPE / VERS
                                                            ANT # / TYPE
         .0000         .0000         .0000                  APPROX POSITION XYZ
         .0000         .0000         .0000                  ANTENNA: DELTA H/E/N
     1     1                                                WAVELENGTH FACT L1/2
     9    C1    C2    L1    L2    S1    S2    C7    L7    S7# / TYPES OF OBSERV
  2022     1    15    23    59   20.0000000     GPS         TIME OF FIRST OBS
                                                            END OF HEADER
 22  1 15 23 59 20.0000000  0  7E02E04E05E09E11E27E30
  27617492.478                   145130750.911 0                        36.000  
                  27617489.994   111204081.458          43.000  
  26828819.080                   140986266.852 0                        40.000  
                  26828816.239   108028444.913          46.000  
  25953412.125                   136386306.645 0                        44.000  
                  25953411.178   104503550.238          49.000  
  22667990.261                   119121233.477 0                        48.000  
                  22667988.814    91274744.274          52.000  
  25135551.143                   132088447.788 0                        39.000  
                  25135545.853   101210643.316          42.000  
  28135668.931                   147853819.13710                        39.000  
                  28135666.840   113290698.354          43.000  
  26822524.502                   140953065.370 0                        43.000  
                  26822522.733   108002998.548          46.000  
 22  1 15 23 59 21.0000000  0  8G01G08G10G14G21G23G27G32
  22964003.439    22964000.222   120676291.935 0  94033476.695 0        44.000  
        43.000                                                  
  20558993.018    20558990.320   108038402.800 0  84185735.356 0        50.000  
        49.000                                                  
  21873107.520    21873103.607   114944061.215 0  89566711.201 0        47.000  
        45.000                                                  
  25025867.792    25025862.735   131512436.803 0 102477223.718 0        42.000  
        42.000                                                  
  21649694.503                   113769596.063 0                        49.000  
                                                                
  24490288.269    24490283.855   128696845.374 0 100284127.512 0        38.000  
        39.000                                                  
  21273366.876    21273363.231   111792784.399 0  87111262.857 0        49.000  
        49.000                                                  
  21888595.585    21888591.726   115024901.642 0  89630667.733 0        48.000  
        46.000                                                  
 22  1 15 23 59 20.0000000  0  0
 22  1 15 23 59 21.0000000  0  7E02E04E05E09E11E27E30
  27618034.499                   145133598.761 0                        36.000  
                  27618031.944   111206263.588          43.000  
  26829182.911                   140988178.751 0                        40.000  
                  26829180.124   108029909.875          46.000  
  25952857.452                   136383393.222 0                        44.000  
                  25952856.738   104501317.877          49.000  
  22667840.912                   119120448.562 0                        48.000  
                  22667839.572    91274142.841          52.000  
  25135961.755                   132090606.495 0                        38.000  
                  25135956.644   101212297.385          42.000  
  28135497.281                   147852917.80010                        39.000  
                  28135495.333   113290007.704          43.000  
  26822811.693                   140954575.329 0                        43.000  
                  26822810.121   108004155.518          46.000  
 22  1 15 23 59 22.0000000  0  8G01G08G10G14G21G23G27G32
  22963440.761    22963437.652   120673335.449 0  94031172.942 0        44.000  
        43.000                                                  
  20559049.591    20559046.875   108038700.159 0  84185967.060 0        50.000  
        49.000                                                  
  21873551.262    21873547.277   114946392.801 0  89568528.005 0        47.000  
        45.000                                                  
  25025528.280    25025523.223   131510652.262 0 102475833.169 0        42.000  
        42.000                                                  
  21649413.442                   113768118.944 0                        49.000  
                                                                
  24490935.592    24490931.196   128700247.542 0 100286778.535 0        38.000  
        39.000                                                  
  21273840.601    21273837.028   111795274.167 0  87113202.938 0        49.000  
        49.000                                                  
  21888269.368    21888265.419   115023187.270 0  89629331.849 0        48.000  
        46.000                                                  
 22  1 15 23 59 21.0000000  0  0
 22  1 15 23 59 22.0000000  0  7E02E04E05E09E11E27E30
  27618576.467                   145136446.473 0                        36.000  
                  27618573.876   111208445.585          43.000  
  26829546.689                   140990090.817 0                        40.000  
                  26829544.026   108031374.960          46.000  
  25952303.102                   136380479.790 0                        44.000  
                  25952302.387   104499085.511          49.000  
  22667691.562                   119119663.922 0                        48.000  
                  22667690.151    91273541.628          52.000  
  25136372.671                   132092765.137 0                        39.000  
                  25136367.507   101213951.407          42.000  
  28135325.738                   147852016.69610                        39.000  
                  28135323.916   113289317.274          43.000  
  26823099.241                   140956085.481 0                        43.000  
                  26823097.508   108005312.652          46.000  
 22  1 15 23 59 23.0000000  0  8G01G08G10G14G21G23G27G32
  22962878.226    22962875.028   120670379.021 0  94028869.232 0        44.000  
        43.000                                                  
  20559106.361    20559103.502   108038998.061 0  84186199.196 0        50.000  
        49.000                                                  
  21873994.950    21873991.018   114948724.590 0  89570344.995 0        47.000  
        45.000                                                  
  25025188.769    25025183.730   131508868.173 0 102474442.970 0        42.000  
        42.000                                                  
  21649132.344                   113766641.936 0                        49.000  
                                                                
  24491583.058    24491578.609   128703649.639 0 100289429.542 0        38.000  
        39.000                                                  
  21274314.488    21274310.843   111797764.328 0  87115143.321 0        49.000  
        49.000                                                  
  21887943.187    21887939.292   115021473.349 0  89627996.340 0        48.000  
        46.000                                                  
 22  1 15 23 59 22.0000000  0  0
 22  1 15 23 59 23.0000000  0  7E02E04E05E09E11E27E30
  27619118.380                   145139294.129 0                        36.000  
                  27619115.772   111210627.544          43.000  
  26829910.627                   140992003.174 0                        40.000  
                  26829907.982   108032840.254          46.000  
  25951748.804                   136377566.461 0                        44.000  
                  25951747.911   104496853.209          49.000  
  22667542.553                   119118879.674 0                        48.000  
                  22667540.873    91272940.717          52.000  
  25136783.408                   132094923.814 0                        38.000  
                  25136778.280   101215605.457          42.000  
  28135154.053                   147851115.96410                        39.000  
                  28135152.480   113288627.103          43.000  
  26823386.540                   140957595.938 0                        43.000  
                  26823385.021   108006470.020          46.000  
 22  1 15 23 59 24.0000000  0  8G01G08G10G14G21G23G27G32
  22962315.602    22962312.475   120667422.726 0  94026565.628 0        44.000  
        42.000                                                  
  20559162.988    20559160.272   108039296.592 0  84186431.810 0        50.000  
        49.000                                                  
  21874438.691    21874434.671   114951056.682 0  89572162.216 0        47.000  
        45.000                                                  
  25024849.311    25024844.308   131507084.609 0 102473053.180 0        42.000  
        42.000                                                  
  21648851.264                   113765165.125 0                        49.000  
                                                                
  24492230.363    24492225.932   128707051.812 0 100292080.575 0        38.000  
        39.000                                                  
  21274788.482    21274784.872   111800254.962 0  87117084.079 0        49.000  
        49.000                                                  
  21887617.078    21887613.272   115019759.975 0  89626661.239 0        48.000  
        46.000                                                  
 22  1 15 23 59 23.0000000  0  0
 22  1 15 23 59 24.0000000  0  7E02E04E05E09E11E27E30
  27619660.169                   145142141.788 0                        36.000  
                  27619657.632   111212809.533          43.000  
  26830274.494                   140993915.844 0                        40.000  
                  26830271.921   108034305.811          46.000  
  25951194.400                   136374653.296 0                        44.000  
                  25951193.668   104494621.050          49.000  
  22667392.989                   119118095.903 0                        48.000  
                  22667391.720    91272340.168          52.000  
  25137194.342                   132097082.640 0                        39.000  
                  25137188.999   101217259.616          42.000  
  28134982.814                   147850215.72210                        39.000  
                  28134981.259   113287937.285          43.000  
  26823673.999                   140959106.798 0                        43.000  
                  26823672.480   108007627.687          46.000  
 22  1 15 23 59 25.0000000  0  8G01G08G10G14G21G23G27G32
  22961753.085    22961749.815   120664466.240 0  94024261.868 0        44.000  
        42.000                                                  
  20559219.883    20559217.167   108039595.427 0  84186664.669 0        50.000  
        49.000                                                  
  21874882.433    21874878.340   114953388.773 0  89573979.421 0        47.000  
        45.000                                                  
  25024509.818    25024505.118   131505301.254 0 102471663.557 0        42.000  
        42.000                                                  
  21648570.113                   113763688.200 0                        49.000  
                                                                
  24492877.687    24492873.255   128710453.703 0 100294731.411 0        38.000  
        39.000                                                  
  21275262.529    21275258.848   111802745.745 0  87119024.945 0        49.000  
        49.000                                                  
  21887291.129    21887287.287   115018046.829 0  89625326.329 0        48.000  
        46.000                                                  
 22  1 15 23 59 24.0000000  0  0
 22  1 15 23 59 25.0000000  0  7E02E04E05E09E11E27E30
  27620202.101                   145144989.154 0                        36.000  
                  27620199.617   111214991.283          43.000  
  26830638.450                   140995828.559 0                        40.000  
                  26830635.859   108035771.404          46.000  
  25950640.014                   136371740.005 0                        44.000  
                  25950639.245   104492388.793          49.000  
  22667244.354                   119117312.294 0                        48.000  
                  22667242.603    91271739.738          52.000  
  25137604.937                   132099241.250 0                        38.000  
                  25137599.844   101218913.631          42.000  
  28134811.432                   147849315.60310                        39.000  
                  28134809.913   113287247.597          43.000  
  26823961.493                   140960617.710 0                        43.000  
                  26823959.939   108008785.399          46.000  
 22  1 15 23 59 26.0000000  0  8G01G08G10G14G21G23G27G32
  22961190.533    22961187.298   120661510.018 0  94021958.309 0        44.000  
        42.000                                                  
  20559276.957    20559274.187   108039895.002 0  84186898.111 0        50.000  
        49.000                                                  
  21875326.263    21875322.314   114955721.275 0  89575796.957 0        47.000  
        45.000                                                  
  25024170.556    25024165.910   131503518.580 0 102470274.453 0        42.000  
        42.000                                                  
  21648289.141                   113762211.620 0                        49.000  
                                                                
  24493525.171    24493520.704   128713855.776 0 100297382.368 0        38.000  
        39.000                                                  
  21275736.648    21275733.020   111805237.127 0  87120966.286 0        49.000  
        49.000                                                  
  21886965.198    21886961.392   115016334.367 0  89623991.936 0        48.000  
        46.000                                                  
 22  1 15 23 59 25.0000000  0  0
 22  1 15 23 59 26.0000000  0  7E02E04E05E09E11E27E30
  27620744.336                   145147836.740 0                        36.000  
                  27620741.477   111217173.179          43.000  
  26831002.585                   140997741.787 0                        40.000  
                  26830999.833   108037237.375          46.000  
  25950085.592                   136368827.028 0                        44.000  
                  25950084.948   104490156.774          49.000  
  22667095.237                   119116529.295 0                        48.000  
                  22667093.736    91271139.773          52.000  
  25138015.746                   132101400.115 0                        39.000  
                  25138010.564   101220567.815          42.000  
  28134640.372                   147848416.08010                        39.000  
                  28134638.674   113286558.354          43.000  
  26824249.095                   140962129.148 0                        43.000  
                  26824247.558   108009943.516          46.000  
 22  1 15 23 59 27.0000000  0  8G01G08G10G14G21G23G27G32
  22960628.052    22960624.799   120658554.386 0  94019655.224 0        44.000  
        42.000                                                  
  20559334.173    20559331.439   108040195.666 0  84187132.387 0        50.000  
        49.000                                                  
  21875770.344    21875766.324   114958054.534 0  89577615.077 0        47.000  
        45.000                                                  
  25023831.438    25023826.792   131501736.862 0 102468886.113 0        42.000  
        42.000                                                  
  21648008.311                   113760735.687 0                        49.000  
                                                                
  24494172.726    24494168.152   128717258.346 0 100300033.709 0        38.000  
        39.000                                                  
  21276210.927    21276207.336   111807729.448 0  87122908.343 0        49.000  
        49.000                                                  
  21886639.553    21886635.711   115014622.915 0  89622658.337 0        48.000  
        46.000                                                  
 22  1 15 23 59 26.0000000  0  0
 22  1 15 23 59 27.0000000  0  7E02E04E05E09E11E27E30
  27621286.393                   145150684.772 0                        36.000  
                  27621283.481   111219355.446          43.000  
  26831366.827                   140999655.784 0                        40.000  
                  26831364.093   108038703.953          46.000  
  25949531.348                   136365914.688 0                        44.000  
                  25949530.758   104487925.240          49.000  
  22666946.496                   119115747.211 0                        48.000  
                  22666944.816    91270540.512          52.000  
  25138426.822                   132103559.543 0                        39.000  
                  25138421.569   101222222.453          42.000  
  28134469.580                   147847517.46110                        39.000  
                  28134467.561   113285869.804          43.000  
  26824536.769                   140963641.427 0                        43.000  
                  26824535.464   108011102.275          46.000  
 22  1 15 23 59 28.0000000  0  8G01G08G10G14G21G23G27G32
  22960065.642    22960062.372   120655598.880 0  94017352.241 0        44.000  
        42.000                                                  
  20559391.622    20559388.906   108040496.948 0  84187367.146 0        50.000  
        49.000                                                  
  21876214.372    21876210.512   114960388.090 0  89579433.434 0        47.000  
        45.000                                                  
  25023492.606    25023487.817   131499955.681 0 102467498.192 0        41.000  
        42.000                                                  
  21647727.392                   113759259.953 0                        49.000  
                                                                
  24494820.067    24494815.654   128720660.947 0 100302685.087 0        38.000  
        39.000                                                  
  21276685.261    21276681.687   111810222.212 0  87124850.763 0        49.000  
        49.000                                                  
  21886313.908    21886310.155   115012911.993 0  89621325.140 0        48.000  
        46.000                                                  
 22  1 15 23 59 27.0000000  0  0
 22  1 15 23 59 28.0000000  0  7E02E04E05E09E11E27E30
  27621828.271                   145153532.812 0                        37.000  
                  27621825.484   111221537.731          43.000  
  26831731.016                   141001570.145 0                        40.000  
                  26831728.371   108040170.801          46.000  
  25948977.391                   136363002.526 0                        44.000  
                  25948976.586   104485693.835          49.000  
  22666797.629                   119114965.601 0                        48.000  
                  22666796.128    91269941.618          52.000  
  25138837.935                   132105719.092 0                        39.000  
                  25138832.574   101223877.161          42.000  
  28134298.770                   147846619.30610                        39.000  
                  28134296.608   113285181.605          43.000  
  26824824.656                   140965154.092 0                        43.000  
                  26824823.280   108012261.325          46.000  
 22  1 15 23 59 29.0000000  0  8G01G08G10G14G21G23G27G32
  22959503.268    22959499.891   120652643.177 0  94015049.089 0        44.000  
        42.000                                                  
  20559449.000    20559446.176   108040798.522 0  84187602.143 0        50.000  
        49.000                                                  
  21876658.542    21876654.486   114962721.613 0  89581251.755 0        47.000  
        45.000                                                  
  25023153.737    25023148.895   131498174.711 0 102466110.407 0        42.000  
        42.000                                                  
  21647446.455                   113757784.089 0                        49.000  
                                                                
  24495467.587    24495463.048   128724063.270 0 100305336.252 0        38.000  
        39.000                                                  
  21277159.647    21277156.038   111812715.131 0  87126793.291 0        49.000  
        49.000                                                  
  21885988.477    21885984.617   115011201.289 0  89619992.135 0        48.000  
        46.000                                                  
 22  1 15 23 59 28.0000000  0  0
