     2.11           OBSERVATION DATA    M (Mixed)           RINEX VERSION / TYPE
RTCM3TORINEX on                         2022-01-15 03:59    PGM / RUN BY / DATE
RTCM3TORINEX                                                MARKER NAME
                                                            OBSERVER / AGENCY
                                                            REC # / TYPE / VERS
                                                            ANT # / TYPE
         .0000         .0000         .0000                  APPROX POSITION XYZ
         .0000         .0000         .0000                  ANTENNA: DELTA H/E/N
     1     1                                                WAVELENGTH FACT L1/2
     9    C1    C2    L1    L2    S1    S2    C7    L7    S7# / TYPES OF OBSERV
  2022     1    15     3    59   20.0000000     GPS         TIME OF FIRST OBS
                                                            END OF HEADER
 22  1 15  3 59 20.0000000  0  5E02E07E08E13E26
  28184082.207                   148108020.858 0                        35.000  
                  28184082.690   113485366.516          44.000  
  23464581.727                   123307969.549 0                        49.000  
                  23464581.459    94482736.388          53.000  
  24230364.889                   127330854.394 0                        42.000  
                  24230361.762    97565608.881          46.000  
  26295175.290                   138182102.448 0                        42.000  
                  26295173.664   105879795.377          45.000  
  23800919.893                   125074697.663 0                        48.000  
                  23800917.981    95836449.060          53.000  
 22  1 15  3 59 21.0000000  0 10G01G03G04G06G09G17G19G21G22G31
  21498644.347    21498640.916   112975882.971 0  88033159.762 0        47.000  
        47.000                                                  
  20307144.471    20307141.594   106714733.232 0  83154343.487 0        49.000  
        49.000                                                  
  20659580.447    20659575.640   108566778.699 0  84597496.840 0        48.000  
        49.000                                                  
  23710005.252    23710002.268   124596671.631 0  97088255.248 0        43.000  
        42.000                                                  
  22941950.009    22941945.863   120560427.296 0  93943198.236 0        45.000  
        45.000                                                  
  22909876.560    22909871.074   120392600.078 0  93812419.910 0        45.000  
        43.000                                                  
  22693348.370                   119253965.554 0                        46.000  
                                                                
  23473487.416                   123354372.892 0                        43.000  
                                                                
  21296395.758                   111913954.840 0                        45.000  
                                                                
  22993961.731    22993953.636   120834466.334 0  94156730.611 0        43.000  
        39.000                                                  
 22  1 15  3 59 20.0000000  0  0
 22  1 15  3 59 21.0000000  0  5E02E07E08E13E26
  28183781.829                   148106442.652 0                        35.000  
                  28183782.383   113484157.258          44.000  
  23464653.882                   123308347.929 0                        49.000  
                  23464653.382    94483026.313          53.000  
  24230815.974                   127333224.680 0                        42.000  
                  24230812.794    97567425.079          46.000  
  26295754.282                   138185145.697 0                        42.000  
                  26295752.746   105882127.229          45.000  
  23801089.202                   125075586.941 0                        48.000  
                  23801087.147    95837130.451          53.000  
 22  1 15  3 59 22.0000000  0 10G01G03G04G06G09G17G19G21G22G31
  21499191.978    21499188.601   112978761.046 0  88035402.427 0        47.000  
        47.000                                                  
  20307199.007    20307196.184   106715020.027 0  83154566.973 0        49.000  
        49.000                                                  
  20659313.180    20659308.498   108565374.301 0  84596402.506 0        48.000  
        49.000                                                  
  23709381.624    23709378.604   124593393.925 0  97085701.178 0        43.000  
        42.000                                                  
  22941362.064    22941357.954   120557337.662 0  93940790.723 0        45.000  
        45.000                                                  
  22910151.046    22910145.435   120394042.427 0  93813543.811 0        45.000  
        43.000                                                  
  22693412.020                   119254300.193 0                        46.000  
                                                                
  23474068.016                   123357423.852 0                        43.000  
                                                                
  21296691.169                   111915507.457 0                        45.000  
                                                                
  22994289.217    22994281.193   120836187.814 0  94158072.051 0        43.000  
        39.000                                                  
 22  1 15  3 59 21.0000000  0  0
 22  1 15  3 59 22.0000000  0  5E02E07E08E13E26
  28183481.612                   148104864.656 0                        35.000  
                  28183482.112   113482948.135          44.000  
  23464725.930                   123308726.417 0                        49.000  
                  23464725.394    94483316.318          53.000  
  24231267.078                   127335594.881 0                        42.000  
                  24231263.844    97569241.211          46.000  
  26296333.382                   138188188.949 0                        42.000  
                  26296331.881   105884459.055          45.000  
  23801258.457                   125076476.490 0                        48.000  
                  23801256.420    95837812.055          53.000  
 22  1 15  3 59 23.0000000  0 10G01G03G04G06G09G17G19G21G22G31
  21499739.628    21499736.376   112981639.508 0  88037645.378 0        47.000  
        47.000                                                  
  20307253.722    20307250.863   106715307.137 0  83154790.702 0        49.000  
        49.000                                                  
  20659045.966    20659041.320   108563970.338 0  84595308.506 0        48.000  
        49.000                                                  
  23708757.905    23708754.903   124590116.369 0  97083147.259 0        43.000  
        42.000                                                  
  22940774.173    22940770.117   120554248.251 0  93938383.401 0        45.000  
        45.000                                                  
  22910425.568    22910419.957   120395485.216 0  93814668.069 0        45.000  
        43.000                                                  
  22693475.758                   119254635.465 0                        46.000  
                                                                
  23474648.670                   123360474.977 0                        43.000  
                                                                
  21296986.722                   111917060.317 0                        45.000  
                                                                
  22994616.952    22994608.840   120837909.866 0  94159413.902 0        43.000  
        39.000                                                  
 22  1 15  3 59 22.0000000  0  0
 22  1 15  3 59 23.0000000  0  5E02E07E08E13E26
  28183181.394                   148103286.906 0                        35.000  
                  28183181.841   113481739.234          44.000  
  23464798.085                   123309105.137 0                        49.000  
                  23464797.549    94483606.513          53.000  
  24231718.003                   127337965.117 0                        42.000  
                  24231714.840    97571057.362          46.000  
  26296912.534                   138191232.292 0                        42.000  
                  26296910.855   105886790.974          45.000  
  23801427.909                   125077366.441 0                        48.000  
                  23801425.801    95838493.970          53.000  
 22  1 15  3 59 24.0000000  0 10G01G03G04G06G09G17G19G21G22G31
  21500287.421    21500284.169   112984518.205 0  88039888.509 0        46.000  
        47.000                                                  
  20307308.437    20307305.560   106715594.452 0  83155014.577 0        49.000  
        49.000                                                  
  20658778.985    20658774.161   108562566.709 0  84594214.763 0        48.000  
        49.000                                                  
  23708134.330    23708131.257   124586838.863 0  97080593.353 0        43.000  
        42.000                                                  
  22940186.372    22940182.137   120551158.932 0  93935976.127 0        45.000  
        45.000                                                  
  22910700.179    22910694.532   120396928.343 0  93815792.572 0        45.000  
        43.000                                                  
  22693539.569                   119254971.269 0                        46.000  
                                                                
  23475229.360                   123363526.120 0                        43.000  
                                                                
  21297282.258                   111918613.304 0                        45.000  
                                                                
  22994944.742    22994936.629   120839632.354 0  94160756.095 0        43.000  
        39.000                                                  
 22  1 15  3 59 23.0000000  0  0
 22  1 15  3 59 24.0000000  0  5E02E07E08E13E26
  28182881.141                   148101709.343 0                        35.000  
                  28182881.623   113480530.457          44.000  
  23464870.008                   123309483.977 0                        49.000  
                  23464869.579    94483896.787          53.000  
  24232168.928                   127340335.227 0                        42.000  
                  24232165.908    97572873.424          46.000  
  26297491.741                   138194275.620 0                        42.000  
                  26297490.026   105889122.882          45.000  
  23801597.147                   125078256.664 0                        48.000  
                  23801595.253    95839176.085          53.000  
 22  1 15  3 59 25.0000000  0 10G01G03G04G06G09G17G19G21G22G31
  21500835.250    21500832.158   112987397.359 0  88042132.008 0        46.000  
        47.000                                                  
  20307363.170    20307360.239   106715882.171 0  83155238.769 0        49.000  
        49.000                                                  
  20658512.040    20658507.162   108561163.603 0  84593121.438 0        48.000  
        49.000                                                  
  23707510.647    23707507.699   124583561.627 0  97078039.663 0        43.000  
        42.000                                                  
  22939598.463    22939594.264   120548069.905 0  93933569.099 0        45.000  
        45.000                                                  
  22910974.915    22910969.215   120398372.027 0  93816917.512 0        45.000  
        43.000                                                  
  22693603.611                   119255307.806 0                        46.000  
                                                                
  23475810.049                   123366577.521 0                        43.000  
                                                                
  21297577.829                   111920166.619 0                        45.000  
                                                                
  22995272.549    22995264.526   120841355.510 0  94162098.813 0        43.000  
        39.000                                                  
 22  1 15  3 59 24.0000000  0  0
 22  1 15  3 59 25.0000000  0  5E02E07E08E13E26
  28182581.138                   148100132.192 0                        35.000  
                  28182581.442   113479321.968          44.000  
  23464942.270                   123309863.131 0                        49.000  
                  23464941.895    94484187.307          53.000  
  24232620.013                   127342705.489 0                        42.000  
                  24232616.904    97574689.584          46.000  
  26298070.822                   138197319.148 0                        42.000  
                  26298069.214   105891454.926          45.000  
  23801766.813                   125079147.387 0                        48.000  
                  23801764.812    95839858.584          53.000  
 22  1 15  3 59 26.0000000  0 10G01G03G04G06G09G17G19G21G22G31
  21501383.346    21501380.219   112990277.330 0  88044376.130 0        46.000  
        47.000                                                  
  20307418.117    20307415.169   106716170.675 0  83155463.582 0        49.000  
        49.000                                                  
  20658245.202    20658240.341   108559761.415 0  84592028.821 0        48.000  
        49.000                                                  
  23706887.197    23706884.142   124580285.013 0  97075486.455 0        43.000  
        42.000                                                  
  22939010.751    22939006.587   120544981.569 0  93931162.605 0        45.000  
        45.000                                                  
  22911249.848    22911244.022   120399816.621 0  93818043.178 0        45.000  
        43.000                                                  
  22693667.886                   119255645.461 0                        46.000  
                                                                
  23476390.846                   123369629.535 0                        43.000  
                                                                
  21297873.597                   111921720.644 0                        45.000  
                                                                
  22995600.624    22995592.601   120843079.698 0  94163442.345 0        43.000  
        39.000                                                  
 22  1 15  3 59 25.0000000  0  0
 22  1 15  3 59 26.0000000  0  5E02E07E08E13E26
  28182281.349                   148098555.803 0                        35.000  
                  28182281.510   113478114.072          44.000  
  23465014.533                   123310242.984 0                        49.000  
                  23465013.997    94484478.370          53.000  
  24233071.170                   127345076.210 0                        42.000  
                  24233068.133    97576506.114          46.000  
  26298650.243                   138200363.239 0                        42.000  
                  26298648.456   105893787.421          45.000  
  23801936.354                   125080038.960 0                        48.000  
                  23801934.389    95840541.738          53.000  
 22  1 15  3 59 27.0000000  0 10G01G03G04G06G09G17G19G21G22G31
  21501931.461    21501928.387   112993158.042 0  88046620.850 0        46.000  
        47.000                                                  
  20307473.243    20307470.241   106716459.862 0  83155688.922 0        49.000  
        49.000                                                  
  20657978.649    20657973.735   108558360.051 0  84590936.848 0        48.000  
        49.000                                                  
  23706263.693    23706260.745   124577008.936 0  97072933.675 0        43.000  
        42.000                                                  
  22938423.110    22938419.000   120541893.813 0  93928756.561 0        45.000  
        45.000                                                  
  22911524.870    22911519.009   120401262.048 0  93819169.487 0        45.000  
        43.000                                                  
  22693732.250                   119255984.132 0                        46.000  
                                                                
  23476971.750                   123372682.104 0                        43.000  
                                                                
  21298169.312                   111923275.291 0                        45.000  
                                                                
  22995928.878    22995920.855   120844804.836 0  94164786.598 0        43.000  
        39.000                                                  
 22  1 15  3 59 26.0000000  0  0
 22  1 15  3 59 27.0000000  0  5E02E07E08E13E26
  28181981.471                   148096980.031 0                        35.000  
                  28181981.704   113476906.687          44.000  
  23465087.027                   123310623.464 0                        49.000  
                  23465086.348    94484769.905          53.000  
  24233522.452                   127347447.344 0                        42.000  
                  24233519.325    97578322.964          46.000  
  26299229.593                   138203407.811 0                        42.000  
                  26299227.895   105896120.291          45.000  
  23802106.450                   125080931.305 0                        48.000  
                  23802104.216    95841225.485          53.000  
 22  1 15  3 59 28.0000000  0 10G01G03G04G06G09G17G19G21G22G31
  21502479.629    21502476.501   112996038.473 0  88048865.342 0        46.000  
        47.000                                                  
  20307528.101    20307525.063   106716748.714 0  83155913.995 0        49.000  
        49.000                                                  
  20657711.972    20657707.112   108556958.471 0  84589844.709 0        48.000  
        49.000                                                  
  23705640.243    23705637.259   124573732.378 0  97070380.519 0        43.000  
        42.000                                                  
  22937835.416    22937831.395   120538805.629 0  93926350.184 0        45.000  
        45.000                                                  
  22911799.838    22911793.995   120402707.272 0  93820295.632 0        45.000  
        43.000                                                  
  22693796.686                   119256322.799 0                        46.000  
                                                                
  23477552.511                   123375734.171 0                        43.000  
                                                                
  21298465.062                   111924829.533 0                        45.000  
                                                                
  22996257.168    22996249.163   120846529.878 0  94166130.800 0        43.000  
        39.000                                                  
 22  1 15  3 59 27.0000000  0  0
 22  1 15  3 59 28.0000000  0  5E02E07E08E13E26
  28181681.540                   148095403.912 0                        35.000  
                  28181681.772   113475699.011          44.000  
  23465159.182                   123311003.516 0                        49.000  
                  23465158.700    94485061.109          53.000  
  24233973.520                   127349817.847 0                        42.000  
                  24233970.393    97580139.335          46.000  
  26299808.799                   138206451.870 0                        42.000  
                  26299807.137   105898452.733          45.000  
  23802276.170                   125081823.404 0                        48.000  
                  23802273.990    95841909.044          53.000  
 22  1 15  3 59 29.0000000  0 10G01G03G04G06G09G17G19G21G22G31
  21503027.904    21503024.723   112998919.233 0  88051110.096 0        46.000  
        47.000                                                  
  20307583.138    20307580.207   106717037.851 0  83156139.299 0        49.000  
        49.000                                                  
  20657445.313    20657440.524   108555557.304 0  84588752.898 0        48.000  
        49.000                                                  
  23705016.722    23705013.773   124570455.955 0  97067827.449 0        43.000  
        42.000                                                  
  22937247.882    22937243.683   120535717.623 0  93923943.948 0        45.000  
        45.000                                                  
  22912074.896    22912069.142   120404152.917 0  93821422.099 0        45.000  
        43.000                                                  
  22693861.175                   119256662.083 0                        46.000  
                                                                
  23478133.326                   123378786.349 0                        43.000  
                                                                
  21298760.830                   111926383.993 0                        45.000  
                                                                
  22996585.493    22996577.506   120848255.457 0  94167475.395 0        43.000  
        39.000                                                  
 22  1 15  3 59 28.0000000  0  0
 22  1 15  3 59 29.0000000  0  5E02E07E08E13E26
  28181381.590                   148093828.101 0                        35.000  
                  28181381.966   113474491.538          44.000  
  23465231.516                   123311383.780 0                        49.000  
                  23465231.052    94485352.484          53.000  
  24234424.642                   127352188.353 0                        42.000  
                  24234421.443    97581955.681          46.000  
  26300387.988                   138209495.979 0                        42.000  
                  26300386.487   105900785.244          45.000  
  23802445.979                   125082715.870 0                        48.000  
                  23802443.745    95842592.876          53.000  
 22  1 15  3 59 30.0000000  0 10G01G03G04G06G09G17G19G21G22G31
  21503576.179    21503572.963   113001800.360 0  88053355.119 0        46.000  
        47.000                                                  
  20307638.174    20307635.297   106717327.317 0  83156364.859 0        49.000  
        49.000                                                  
  20657178.850    20657173.954   108554156.601 0  84587661.445 0        48.000  
        49.000                                                  
  23704393.236    23704390.430   124567179.717 0  97065274.536 0        43.000  
        42.000                                                  
  22936660.313    22936656.007   120532629.850 0  93921537.900 0        45.000  
        45.000                                                  
  22912350.133    22912344.290   120405599.025 0  93822548.936 0        45.000  
        43.000                                                  
  22693925.951                   119257002.033 0                        46.000  
                                                                
  23478714.194                   123381838.716 0                        43.000  
                                                                
  21299056.652                   111927938.708 0                        45.000  
                                                                
  22996913.944    22996906.046   120849981.638 0  94168820.469 0        43.000  
        39.000                                                  
 22  1 15  3 59 29.0000000  0  0
 22  1 15  3 59 30.0000000  0  5E02E07E08E13E26
  28181081.784                   148092252.543 0                        35.000  
                  28181082.231   113473284.315          44.000  
  23465303.921                   123311764.293 0                        49.000  
                  23465303.618    94485644.048          53.000  
  24234875.959                   127354558.888 0                        42.000  
                  24234872.475    97583772.074          46.000  
  26300967.320                   138212540.222 0                        42.000  
                  26300965.729   105903117.837          45.000  
  23802615.985                   125083608.749 0                        48.000  
                  23802613.751    95843277.031          53.000  
 22  1 15  3 59 31.0000000  0 10G01G03G04G06G09G17G19G21G22G31
  21504124.633    21504121.470   113004682.311 0  88055600.793 0        46.000  
        47.000                                                  
  20307693.515    20307690.584   106717617.581 0  83156591.034 0        49.000  
        49.000                                                  
  20656912.476    20656907.527   108552756.816 0  84586570.699 0        48.000  
        49.000                                                  
  23703769.946    23703767.212   124563904.133 0  97062722.119 0        43.000  
        42.000                                                  
  22936072.976    22936068.616   120529542.763 0  93919132.358 0        45.000  
        45.000                                                  
  22912625.494    22912619.651   120407046.036 0  93823676.466 0        45.000  
        43.000                                                  
  22693990.762                   119257343.087 0                        46.000  
                                                                
  23479295.170                   123384891.704 0                        44.000  
                                                                
  21299352.617                   111929494.144 0                        45.000  
                                                                
  22997242.662    22997234.800   120851708.833 0  94170166.342 0        43.000  
        39.000                                                  
 22  1 15  3 59 30.0000000  0  0
 22  1 15  3 59 31.0000000  0  5E02E07E08E13E26
  28180782.085                   148090677.748 0                        35.000  
                  28180782.424   113472077.669          44.000  
  23465376.630                   123312145.507 0                        49.000  
                  23465376.077    94485936.143          53.000  
  24235327.277                   127356929.932 0                        42.000  
                  24235323.704    97585588.841          46.000  
  26301546.615                   138215585.041 0                        42.000  
                  26301545.025   105905450.873          45.000  
  23802785.830                   125084502.491 0                        48.000  
                  23802783.846    95843961.848          53.000  
 22  1 15  3 59 32.0000000  0 10G01G03G04G06G09G17G19G21G22G31
  21504673.105    21504670.067   113007564.773 0  88057846.871 0        46.000  
        47.000                                                  
  20307748.873    20307745.871   106717908.279 0  83156817.554 0        49.000  
        49.000                                                  
  20656646.174    20656641.189   108551357.606 0  84585480.404 0        48.000  
        49.000                                                  
  23703146.710    23703143.976   124560628.837 0  97060169.945 0        43.000  
        42.000                                                  
  22935485.639    22935481.297   120526456.023 0  93916727.117 0        45.000  
        45.000                                                  
  22912900.874    22912895.192   120408493.617 0  93824804.454 0        45.000  
        43.000                                                  
  22694055.769                   119257684.932 0                        46.000  
                                                                
  23479876.270                   123387944.992 0                        44.000  
                                                                
  21299648.670                   111931049.948 0                        45.000  
                                                                
  22997571.506    22997563.626   120853436.719 0  94171512.740 0        43.000  
        39.000                                                  
 22  1 15  3 59 31.0000000  0  0
 22  1 15  3 59 32.0000000  0  5E02E07E08E13E26
  28180482.546                   148089103.402 0                        35.000  
                  28180482.743   113470871.348          44.000  
  23465449.214                   123312527.079 0                        49.000  
                  23465448.661    94486228.521          53.000  
  24235778.184                   127359301.104 0                        42.000  
                  24235774.932    97587405.720          46.000  
  26302125.893                   138218630.095 0                        42.000  
                  26302124.660   105907784.105          45.000  
  23802956.211                   125085396.761 0                        48.000  
                  23802953.995    95844647.068          53.000  
 22  1 15  3 59 33.0000000  0 10G01G03G04G06G09G17G19G21G22G31
  21505221.684    21505218.521   113010447.422 0  88060093.089 0        47.000  
        47.000                                                  
  20307804.249    20307801.158   106718199.127 0  83157044.194 0        49.000  
        49.000                                                  
  20656379.890    20656374.958   108549958.676 0  84584390.326 0        48.000  
        49.000                                                  
  23702523.403    23702520.830   124557353.511 0  97057617.756 0        43.000  
        42.000                                                  
  22934898.320    22934893.942   120523369.321 0  93914321.899 0        45.000  
        45.000                                                  
  22913176.414    22913170.661   120409941.489 0  93825932.658 0        45.000  
        43.000                                                  
  22694120.884                   119258027.256 0                        46.000  
                                                                
  23480457.353                   123390998.253 0                        43.000  
                                                                
  21299944.689                   111932605.831 0                        45.000  
                                                                
  22997900.385    22997892.469   120855165.027 0  94172859.478 0        43.000  
        39.000                                                  
 22  1 15  3 59 32.0000000  0  0
 22  1 15  3 59 33.0000000  0  5E02E07E08E13E26
  28180182.919                   148087529.170 0                        35.000  
                  28180183.115   113469665.116          44.000  
  23465521.834                   123312908.728 0                        49.000  
                  23465521.316    94486520.953          53.000  
  24236229.341                   127361672.156 0                        42.000  
                  24236226.089    97589222.507          46.000  
  26302705.404                   138221675.075 0                        42.000  
                  26302704.046   105910117.272          45.000  
  23803126.503                   125086291.263 0                        48.000  
                  23803124.198    95845332.464          53.000  
 22  1 15  3 59 34.0000000  0 10G01G03G04G06G09G17G19G21G22G31
  21505770.370    21505767.100   113013330.377 0  88062339.548 0        46.000  
        47.000                                                  
  20307859.625    20307856.516   106718490.224 0  83157271.018 0        49.000  
        49.000                                                  
  20656113.838    20656108.817   108548560.112 0  84583300.540 0        48.000  
        49.000                                                  
  23701900.203    23701897.630   124554078.317 0  97055065.637 0        43.000  
        42.000                                                  
  22934310.948    22934306.570   120520282.777 0  93911916.791 0        46.000  
        45.000                                                  
  22913452.008    22913446.237   120411389.730 0  93827061.172 0        45.000  
        43.000                                                  
  22694186.159                   119258370.167 0                        46.000  
                                                                
  23481038.347                   123394051.608 0                        43.000  
                                                                
  21300240.778                   111934161.892 0                        45.000  
                                                                
  22998229.408    22998221.510   120856893.822 0  94174206.614 0        43.000  
        39.000                                                  
 22  1 15  3 59 33.0000000  0  0
 22  1 15  3 59 34.0000000  0  5E02E07E08E13E26
  28179883.201                   148085955.161 0                        35.000  
                  28179883.523   113468459.068          43.000  
  23465594.561                   123313290.549 0                        49.000  
                  23465593.971    94486813.515          53.000  
  24236680.659                   127364043.164 0                        42.000  
                  24236677.193    97591039.255          46.000  
  26303285.003                   138224720.111 0                        42.000  
                  26303283.431   105912450.475          45.000  
  23803296.652                   125087186.100 0                        48.000  
                  23803294.525    95846018.118          53.000  
 22  1 15  3 59 35.0000000  0 10G01G03G04G06G09G17G19G21G22G31
  21506319.146    21506315.786   113016213.933 0  88064586.475 0        46.000  
        47.000                                                  
  20307915.037    20307912.017   106718781.882 0  83157498.282 0        49.000  
        49.000                                                  
  20655847.804    20655842.890   108547162.234 0  84582211.290 0        48.000  
        49.000                                                  
  23701277.057    23701274.484   124550803.508 0  97052513.849 0        43.000  
        42.000                                                  
  22933723.664    22933719.233   120517196.682 0  93909512.044 0        46.000  
        45.000                                                  
  22913727.799    22913721.902   120412838.646 0  93828190.195 0        45.000  
        43.000                                                  
  22694251.578                   119258713.955 0                        46.000  
                                                                
  23481619.429                   123397105.368 0                        43.000  
                                                                
  21300536.958                   111935718.432 0                        45.000  
                                                                
  22998558.519    22998550.621   120858623.441 0  94175554.342 0        43.000  
        39.000                                                  
 22  1 15  3 59 34.0000000  0  0
 22  1 15  3 59 35.0000000  0  5E02E07E08E13E26
  28179583.895                   148084381.669 0                        35.000  
                  28179584.110   113467253.403          44.000  
  23465667.359                   123313672.832 0                        49.000  
                  23465666.663    94487106.433          53.000  
  24237131.941                   127366414.433 0                        42.000  
                  24237128.493    97592856.197          46.000  
  26303864.442                   138227765.488 0                        42.000  
                  26303862.923   105914783.956          45.000  
  23803467.176                   125088081.567 0                        48.000  
                  23803464.924    95846704.259          53.000  
 22  1 15  3 59 36.0000000  0 10G01G03G04G06G09G17G19G21G22G31
  21506867.885    21506864.508   113019097.880 0  88066833.706 0        46.000  
        47.000                                                  
  20307970.663    20307967.590   106719073.889 0  83157725.822 0        49.000  
        49.000                                                  
  20655581.949    20655576.910   108545764.841 0  84581122.409 0        48.000  
        49.000                                                  
  23700653.821    23700651.426   124547528.922 0  97049962.237 0        43.000  
        42.000                                                  
  22933136.435    22933132.021   120514110.831 0  93907107.489 0        45.000  
        45.000                                                  
  22914003.679    22913997.746   120414288.058 0  93829319.612 0        45.000  
        43.000                                                  
  22694317.139                   119259058.427 0                        46.000  
                                                                
  23482200.548                   123400159.313 0                        43.000  
                                                                
  21300833.154                   111937275.257 0                        45.000  
                                                                
  22998887.738    22998879.804   120860353.639 0  94176902.571 0        43.000  
        39.000                                                  
 22  1 15  3 59 35.0000000  0  0
 22  1 15  3 59 36.0000000  0  5E02E07E08E13E26
  28179284.410                   148082808.540 0                        35.000  
                  28179284.714   113466048.003          44.000  
  23465739.997                   123314055.390 0                        49.000  
                  23465739.532    94487399.562          53.000  
  24237583.063                   127368785.775 0                        42.000  
                  24237579.739    97594673.191          46.000  
  26304444.060                   138230810.987 0                        42.000  
                  26304442.469   105917117.525          45.000  
  23803637.593                   125088977.475 0                        48.000  
                  23803635.430    95847390.723          53.000  
 22  1 15  3 59 37.0000000  0 10G01G03G04G06G09G17G19G21G22G31
  21507416.804    21507413.284   113021982.087 0  88069081.143 0        46.000  
        47.000                                                  
  20308026.325    20308023.216   106719366.110 0  83157953.524 0        49.000  
        49.000                                                  
  20655316.004    20655311.055   108544367.782 0  84580033.799 0        48.000  
        49.000                                                  
  23700030.710    23700028.262   124544254.388 0  97047410.648 0        43.000  
        42.000                                                  
  22932549.241    22932544.791   120511025.094 0  93904703.014 0        45.000  
        45.000                                                  
  22914279.612    22914273.697   120415737.805 0  93830449.271 0        46.000  
        43.000                                                  
  22694382.772                   119259403.433 0                        46.000  
                                                                
  23482781.684                   123403213.305 0                        43.000  
                                                                
  21301129.530                   111938832.214 0                        45.000  
                                                                
  22999217.046    22999209.202   120862084.298 0  94178251.145 0        43.000  
        39.000                                                  
 22  1 15  3 59 36.0000000  0  0
 22  1 15  3 59 37.0000000  0  5E02E07E08E13E26
  28178984.872                   148081235.541 0                        35.000  
                  28178985.355   113464842.743          44.000  
  23465813.010                   123314438.080 0                        49.000  
                  23465812.349    94487692.797          53.000  
  24238034.309                   127371157.009 0                        42.000  
                  24238031.129    97596490.122          46.000  
  26305023.445                   138233856.519 0                        42.000  
                  26305021.890   105919451.106          45.000  
  23803808.260                   125089873.670 0                        48.000  
                  23803806.026    95848077.425          53.000  
 22  1 15  3 59 38.0000000  0 10G01G03G04G06G09G17G19G21G22G31
  21507965.633    21507962.345   113024866.694 0  88071328.879 0        46.000  
        47.000                                                  
  20308081.969    20308078.914   106719658.663 0  83158181.492 0        49.000  
        49.000                                                  
  20655050.238    20655045.253   108542971.205 0  84578945.550 0        48.000  
        49.000                                                  
  23699407.653    23699405.151   124540980.049 0  97044859.212 0        43.000  
        42.000                                                  
  22931962.172    22931957.687   120507939.606 0  93902298.743 0        45.000  
        45.000                                                  
  22914555.671    22914549.595   120417188.024 0  93831579.312 0        46.000  
        43.000                                                  
  22694448.637                   119259749.138 0                        46.000  
                                                                
  23483362.892                   123406267.494 0                        44.000  
                                                                
  21301425.870                   111940389.467 0                        45.000  
                                                                
  22999546.390    22999538.671   120863815.558 0  94179600.165 0        43.000  
        39.000                                                  
 22  1 15  3 59 37.0000000  0  0
 22  1 15  3 59 38.0000000  0  5E02E07E08E13E26
  28178685.655                   148079662.917 0                        35.000  
                  28178686.245   113463637.728          44.000  
  23465885.844                   123314821.031 0                        49.000  
                  23465885.219    94487986.222          53.000  
  24238485.824                   127373528.313 0                        42.000  
                  24238482.339    97598307.093          46.000  
  26305603.062                   138236902.166 0                        42.000  
                  26305601.686   105921784.778          45.000  
  23803978.766                   125090770.291 0                        48.000  
                  23803976.586    95848764.444          53.000  
 22  1 15  3 59 39.0000000  0 10G01G03G04G06G09G17G19G21G22G31
  21508514.802    21508511.407   113027752.143 0  88073577.281 0        46.000  
        47.000                                                  
  20308137.828    20308134.790   106719952.040 0  83158410.089 0        49.000  
        49.000                                                  
  20654784.651    20654779.755   108541575.558 0  84577858.038 0        48.000  
        49.000                                                  
  23698784.685    23698782.255   124537706.390 0  97042308.316 0        43.000  
        42.000                                                  
  22931375.121    22931370.618   120504854.823 0  93899895.006 0        45.000  
        45.000                                                  
  22914831.961    22914825.725   120418639.200 0  93832710.089 0        45.000  
        43.000                                                  
  22694514.681                   119260095.981 0                        46.000  
                                                                
  23483944.154                   123409322.319 0                        43.000  
                                                                
  21301722.317                   111941947.436 0                        45.000  
                                                                
  22999875.913    22999868.319   120865547.859 0  94180950.026 0        43.000  
        39.000                                                  
 22  1 15  3 59 38.0000000  0  0
 22  1 15  3 59 39.0000000  0  5E02E07E08E13E26
  28178386.671                   148078091.048 0                        35.000  
                  28178386.957   113462433.312          44.000  
  23465959.071                   123315204.716 0                        49.000  
                  23465958.142    94488280.213          53.000  
  24238936.945                   127375900.143 0                        42.000  
                  24238933.568    97600124.464          46.000  
  26306182.698                   138239948.417 0                        42.000  
                  26306181.268   105924118.923          45.000  
  23804149.915                   125091667.801 0                        48.000  
                  23804147.360    95849452.144          53.000  
 22  1 15  3 59 40.0000000  0 10G01G03G04G06G09G17G19G21G22G31
  21509063.935    21509060.522   113030637.853 0  88075825.902 0        46.000  
        47.000                                                  
  20308193.722    20308190.577   106720245.637 0  83158638.866 0        49.000  
        49.000                                                  
  20654519.260    20654514.293   108540180.263 0  84576770.797 0        48.000  
        49.000                                                  
  23698161.735    23698159.234   124534432.778 0  97039757.452 0        43.000  
        42.000                                                  
  22930788.213    22930783.585   120501770.160 0  93897491.384 0        45.000  
        45.000                                                  
  22915108.199    22915102.016   120420090.728 0  93833841.149 0        46.000  
        43.000                                                  
  22694580.797                   119260443.361 0                        46.000  
                                                                
  23484525.486                   123412377.221 0                        44.000  
                                                                
  21302018.871                   111943505.560 0                        45.000  
                                                                
  23000205.650    23000198.109   120867280.651 0  94182300.252 0        43.000  
        39.000                                                  
 22  1 15  3 59 39.0000000  0  0
 22  1 15  3 59 40.0000000  0  5E02E07E08E13E26
  28178087.454                   148076519.395 0                        34.000  
                  28178087.936   113461229.053          44.000  
  23466032.013                   123315588.533 0                        49.000  
                  23466031.155    94488574.311          53.000  
  24239388.192                   127378271.873 0                        42.000  
                  24239384.975    97601941.768          46.000  
  26306762.422                   138242994.674 0                        42.000  
                  26306760.904   105926453.066          45.000  
  23804320.690                   125092565.607 0                        48.000  
                  23804318.259    95850140.078          53.000  
 22  1 15  3 59 41.0000000  0 10G01G03G04G06G09G17G19G21G22G31
  21509613.068    21509609.690   113033523.655 0  88078074.569 0        46.000  
        47.000                                                  
  20308249.509    20308246.400   106720539.255 0  83158867.659 0        49.000  
        49.000                                                  
  20654253.762    20654248.777   108538785.115 0  84575683.668 0        48.000  
        49.000                                                  
  23697538.768    23697536.212   124531159.043 0  97037206.496 0        43.000  
        42.000                                                  
  22930201.269    22930196.552   120498685.418 0  93895087.676 0        46.000  
        45.000                                                  
  22915384.472    22915378.343   120421542.414 0  93834972.347 0        45.000  
        43.000                                                  
  22694647.001                   119260791.102 0                        46.000  
                                                                
  23485106.891                   123415431.982 0                        44.000  
                                                                
  21302315.283                   111945063.632 0                        45.000  
                                                                
  23000535.459    23000527.847   120869013.722 0  94183650.692 0        43.000  
        39.000                                                  
 22  1 15  3 59 40.0000000  0  0
 22  1 15  3 59 41.0000000  0  5E02E07E08E13E26
  28177788.362                   148074947.716 0                        34.000  
                  28177788.863   113460024.808          44.000  
  23466104.954                   123315972.295 0                        49.000  
                  23466104.221    94488868.361          53.000  
  24239839.509                   127380643.362 0                        42.000  
                  24239836.275    97603758.876          46.000  
  26307341.951                   138246040.763 0                        42.000  
                  26307340.575   105928787.080          45.000  
  23804491.482                   125093463.534 0                        48.000  
                  23804489.141    95850828.099          53.000  
 22  1 15  3 59 42.0000000  0 10G01G03G04G06G09G17G19G21G22G31
  21510162.254    21510158.984   113036410.216 0  88080323.842 0        46.000  
        47.000                                                  
  20308305.529    20308302.384   106720833.601 0  83159097.026 0        49.000  
        49.000                                                  
  20653988.425    20653983.458   108537390.838 0  84574597.219 0        48.000  
        49.000                                                  
  23696915.907    23696913.298   124527885.909 0  97034656.005 0        43.000  
        42.000                                                  
  22929614.397    22929609.715   120495601.298 0  93892684.481 0        46.000  
        45.000                                                  
  22915660.977    22915654.705   120422994.975 0  93836104.211 0        45.000  
        43.000                                                  
  22694713.421                   119261139.908 0                        46.000  
                                                                
  23485688.242                   123418487.318 0                        44.000  
                                                                
  21302611.891                   111946622.364 0                        45.000  
                                                                
  23000865.464    23000857.870   120870747.767 0  94185001.884 0        43.000  
        39.000                                                  
 22  1 15  3 59 41.0000000  0  0
 22  1 15  3 59 42.0000000  0  5E02E07E08E13E26
  28177489.556                   148073376.789 0                        35.000  
                  28177490.003   113458821.090          44.000  
  23466178.235                   123316356.707 0                        49.000  
                  23466177.395    94489162.912          53.000  
  24240290.845                   127383015.279 0                        42.000  
                  24240287.611    97605576.320          46.000  
  26307921.890                   138249087.348 0                        42.000  
                  26307920.335   105931121.497          45.000  
  23804662.506                   125094362.270 0                        48.000  
                  23804660.094    95851516.746          53.000  
 22  1 15  3 59 43.0000000  0 10G01G03G04G06G09G17G19G21G22G31
  21510711.548    21510708.331   113039296.927 0  88082573.214 0        46.000  
        47.000                                                  
  20308361.548    20308358.385   106721128.044 0  83159326.455 0        49.000  
        49.000                                                  
  20653723.160    20653718.174   108535996.772 0  84573510.927 0        48.000  
        49.000                                                  
  23696293.011    23696290.545   124524612.711 0  97032105.470 0        43.000  
        42.000                                                  
  22929027.471    22929022.860   120492517.187 0  93890281.264 0        46.000  
        45.000                                                  
  22915937.411    22915931.246   120424447.770 0  93837236.248 0        45.000  
        43.000                                                  
  22694779.893                   119261489.131 0                        46.000  
                                                                
  23486269.664                   123421542.572 0                        44.000  
                                                                
  21302908.481                   111948181.111 0                        45.000  
                                                                
  23001195.415    23001187.982   120872482.146 0  94186353.332 0        43.000  
        39.000                                                  
 22  1 15  3 59 42.0000000  0  0
 22  1 15  3 59 43.0000000  0  5E02E07E08E13E26
  28177190.751                   148071805.891 0                        35.000  
                  28177190.911   113457617.422          44.000  
  23466251.498                   123316741.129 0                        49.000  
                  23466250.533    94489457.464          53.000  
  24240742.092                   127385386.986 0                        42.000  
                  24240738.911    97607393.606          46.000  
  26308501.579                   138252133.843 0                        42.000  
                  26308500.113   105933455.801          45.000  
  23804833.709                   125095261.180 0                        48.000  
                  23804831.118    95852205.512          53.000  
 22  1 15  3 59 44.0000000  0 10G01G03G04G06G09G17G19G21G22G31
  21511260.967    21511257.786   113042184.025 0  88084822.914 0        46.000  
        47.000                                                  
  20308417.657    20308414.655   106721422.833 0  83159556.163 0        49.000  
        49.000                                                  
  20653458.037    20653452.926   108534603.191 0  84572425.022 0        48.000  
        49.000                                                  
  23695670.097    23695667.845   124521339.718 0  97029555.093 0        43.000  
        42.000                                                  
  22928440.652    22928436.006   120489433.323 0  93887878.237 0        46.000  
        45.000                                                  
  22916213.952    22916207.858   120425901.053 0  93838368.669 0        45.000  
        43.000                                                  
  22694846.384                   119261839.022 0                        46.000  
                                                                
  23486851.050                   123424598.028 0                        44.000  
                                                                
  21303205.214                   111949740.142 0                        45.000  
                                                                
  23001525.528    23001518.201   120874217.136 0  94187705.279 0        43.000  
        39.000                                                  
 22  1 15  3 59 43.0000000  0  0
 22  1 15  3 59 44.0000000  0  5E02E07E08E13E26
  28176892.016                   148070235.339 0                        35.000  
                  28176892.088   113456414.010          44.000  
  23466324.511                   123317125.823 0                        49.000  
                  23466323.796    94489752.232          53.000  
  24241193.517                   127387758.774 0                        42.000  
                  24241190.300    97609210.955          46.000  
  26309081.285                   138255180.461 0                        42.000  
                  26309079.784   105935790.227          45.000  
  23805004.609                   125096160.515 0                        48.000  
                  23805002.357    95852894.617          53.000  
 22  1 15  3 59 45.0000000  0 10G01G03G04G06G09G17G19G21G22G31
  21511810.457    21511807.259   113045071.510 0  88087072.896 0        47.000  
        47.000                                                  
  20308473.873    20308470.906   106721717.962 0  83159786.136 0        49.000  
        49.000                                                  
  20653192.950    20653187.732   108533210.068 0  84571339.478 0        48.000  
        49.000                                                  
  23695047.254    23695045.003   124518066.907 0  97027004.862 0        43.000  
        42.000                                                  
  22927853.833    22927849.116   120486349.690 0  93885475.410 0        46.000  
        45.000                                                  
  22916490.582    22916484.507   120427354.808 0  93839501.472 0        45.000  
        43.000                                                  
  22694913.178                   119262189.595 0                        46.000  
                                                                
  23487432.508                   123427653.654 0                        44.000  
                                                                
  21303501.929                   111951299.429 0                        45.000  
                                                                
  23001855.837    23001848.475   120875952.709 0  94189057.679 0        43.000  
        39.000                                                  
 22  1 15  3 59 44.0000000  0  0
 22  1 15  3 59 45.0000000  0  5E02E07E08E13E26
  28176593.175                   148068665.086 0                        35.000  
                  28176593.228   113455210.842          44.000  
  23466397.792                   123317510.776 0                        49.000  
                  23466396.987    94490047.196          53.000  
  24241644.781                   127390130.598 0                        42.000  
                  24241641.654    97611028.326          46.000  
  26309660.832                   138258227.207 0                        42.000  
                  26309659.599   105938124.752          45.000  
  23805175.901                   125097060.275 0                        48.000  
                  23805173.578    95853584.042          53.000  
 22  1 15  3 59 46.0000000  0 10G01G03G04G06G09G17G19G21G22G31
  21512360.072    21512356.874   113047959.823 0  88089323.536 0        46.000  
        47.000                                                  
  20308530.267    20308527.105   106722013.863 0  83160016.713 0        50.000  
        49.000                                                  
  20652928.095    20652922.806   108531817.860 0  84570254.636 0        48.000  
        49.000                                                  
  23694424.501    23694422.410   124514794.751 0  97024455.095 0        43.000  
        42.000                                                  
  22927267.211    22927262.440   120483266.720 0  93883073.108 0        45.000  
        45.000                                                  
  22916767.427    22916761.262   120428809.479 0  93840634.986 0        45.000  
        43.000                                                  
  22694980.026                   119262541.274 0                        46.000  
                                                                
  23488014.145                   123430709.909 0                        43.000  
                                                                
  21303798.858                   111952859.420 0                        45.000  
                                                                
  23002186.271    23002178.891   120877689.298 0  94190410.870 0        43.000  
        39.000                                                  
 22  1 15  3 59 45.0000000  0  0
 22  1 15  3 59 46.0000000  0  5E02E07E08E13E26
  28176294.530                   148067095.564 0                        35.000  
                  28176294.458   113454008.235          43.000  
  23466471.323                   123317896.418 0                        49.000  
                  23466470.358    94490342.688          53.000  
  24242096.206                   127392502.900 0                        42.000  
                  24242093.043    97612846.068          46.000  
  26310240.699                   138261274.527 0                        42.000  
                  26310239.520   105940459.699          45.000  
  23805347.176                   125097960.884 0                        48.000  
                  23805344.835    95854274.125          53.000  
 22  1 15  3 59 47.0000000  0 10G01G03G04G06G09G17G19G21G22G31
  21512909.742    21512906.561   113050848.406 0  88091574.383 0        46.000  
        47.000                                                  
  20308586.573    20308583.481   106722310.007 0  83160247.466 0        50.000  
        49.000                                                  
  20652663.205    20652657.933   108530426.016 0  84569170.087 0        48.000  
        49.000                                                  
  23693801.855    23693799.639   124511522.656 0  97021905.422 0        43.000  
        42.000                                                  
  22926680.553    22926675.872   120480183.912 0  93880670.913 0        45.000  
        45.000                                                  
  22917044.432    22917038.035   120430264.531 0  93841768.779 0        46.000  
        43.000                                                  
  22695047.017                   119262893.522 0                        46.000  
                                                                
  23488595.853                   123433766.245 0                        44.000  
                                                                
  21304095.734                   111954419.590 0                        45.000  
                                                                
  23002516.830    23002509.521   120879426.404 0  94191764.465 0        43.000  
        39.000                                                  
 22  1 15  3 59 46.0000000  0  0
 22  1 15  3 59 47.0000000  0  5E02E07E08E13E26
  28175996.171                   148065526.306 0                        35.000  
                  28175996.028   113452805.821          43.000  
  23466544.800                   123318282.222 0                        49.000  
                  23466543.674    94490638.306          53.000  
  24242547.631                   127394875.164 0                        42.000  
                  24242544.361    97614663.770          46.000  
  26310820.710                   138264321.872 0                        42.000  
                  26310819.245   105942794.678          45.000  
  23805518.861                   125098861.830 0                        48.000  
                  23805516.395    95854964.454          53.000  
 22  1 15  3 59 48.0000000  0 10G01G03G04G06G09G17G19G21G22G31
  21513459.393    21513456.301   113053737.133 0  88093825.336 0        46.000  
        47.000                                                  
  20308642.914    20308639.912   106722606.225 0  83160478.289 0        50.000  
        49.000                                                  
  20652398.386    20652393.061   108529034.377 0  84568085.686 0        48.000  
        49.000                                                  
  23693179.191    23693176.886   124508250.505 0  97019355.688 0        43.000  
        43.000                                                  
  22926093.895    22926089.249   120477101.068 0  93878268.699 0        45.000  
        45.000                                                  
  22917321.384    22917314.898   120431719.780 0  93842902.755 0        46.000  
        43.000                                                  
  22695114.098                   119263246.176 0                        46.000  
                                                                
  23489177.365                   123436822.482 0                        44.000  
                                                                
  21304392.574                   111955979.754 0                        45.000  
                                                                
  23002847.442    23002840.134   120881163.800 0  94193118.276 0        43.000  
        39.000                                                  
 22  1 15  3 59 47.0000000  0  0
 22  1 15  3 59 48.0000000  0  5E02E07E08E13E26
  28175697.365                   148063957.124 0                        35.000  
                  28175697.436   113451603.421          44.000  
  23466618.045                   123318668.014 0                        49.000  
                  23466617.205    94490933.908          53.000  
  24242998.931                   127397247.211 0                        42.000  
                  24242995.804    97616481.304          46.000  
  26311400.560                   138267369.056 0                        42.000  
                  26311399.237   105945129.554          45.000  
  23805690.279                   125099762.920 0                        49.000  
                  23805687.795    95855654.897          53.000  
 22  1 15  3 59 49.0000000  0 10G01G03G04G06G09G17G19G21G22G31
  21514009.133    21514005.988   113056626.174 0  88096076.537 0        46.000  
        47.000                                                  
  20308699.380    20308696.271   106722902.736 0  83160709.335 0        50.000  
        49.000                                                  
  20652133.674    20652128.331   108527643.149 0  84567001.613 0        48.000  
        49.000                                                  
  23692556.598    23692554.222   124504978.507 0  97016806.086 0        43.000  
        43.000                                                  
  22925507.416    22925502.717   120474018.407 0  93875866.623 0        45.000  
        45.000                                                  
  22917598.408    22917591.957   120433175.465 0  93844037.049 0        46.000  
        43.000                                                  
  22695181.357                   119263599.445 0                        46.000  
                                                                
  23489758.930                   123439878.851 0                        43.000  
                                                                
  21304689.593                   111957540.141 0                        45.000  
                                                                
  23003178.144    23003170.854   120882901.756 0  94194472.516 0        43.000  
        39.000                                                  
 22  1 15  3 59 48.0000000  0  0
 22  1 15  3 59 49.0000000  0  5E02E07E08E13E26
  28175398.845                   148062388.122 0                        35.000  
                  28175398.917   113450401.234          44.000  
  23466691.612                   123319054.008 0                        49.000  
                  23466690.575    94491229.679          53.000  
  24243450.357                   127399619.243 0                        42.000  
                  24243447.283    97618298.841          46.000  
  26311980.392                   138270416.346 0                        42.000  
                  26311979.051   105947464.479          45.000  
  23805861.839                   125100664.382 0                        49.000  
                  23805859.302    95856345.628          53.000  
 22  1 15  3 59 50.0000000  0 10G01G03G04G06G09G17G19G21G22G31
  21514558.981    21514555.872   113059516.206 0  88098328.515 0        46.000  
        47.000                                                  
  20308756.025    20308752.915   106723200.190 0  83160941.117 0        50.000  
        49.000                                                  
  20651869.159    20651863.691   108526253.004 0  84565918.385 0        48.000  
        49.000                                                  
  23691934.167    23691931.772   124501707.290 0  97014257.078 0        43.000  
        42.000                                                  
  22924920.919    22924916.345   120470936.596 0  93873465.212 0        45.000  
        45.000                                                  
  22917875.628    22917869.249   120434632.228 0  93845172.191 0        46.000  
        43.000                                                  
  22695248.812                   119263954.006 0                        46.000  
                                                                
  23490340.674                   123442936.012 0                        44.000  
                                                                
  21304986.594                   111959101.400 0                        45.000  
                                                                
  23003509.079    23003501.752   120884640.910 0  94195827.703 0        43.000  
        39.000                                                  
 22  1 15  3 59 49.0000000  0  0
 22  1 15  3 59 50.0000000  0  5E02E07E08E13E26
  28175100.665                   148060820.096 0                        36.000  
                  28175100.379   113449199.751          44.000  
  23466765.197                   123319440.877 0                        49.000  
                  23466764.285    94491526.104          53.000  
  24243901.889                   127401991.926 0                        41.000  
                  24243898.815    97620116.867          46.000  
  26312560.474                   138273464.372 0                        42.000  
                  26312559.080   105949799.973          45.000  
  23806033.650                   125101566.872 0                        49.000  
                  23806031.112    95857037.148          53.000  
 22  1 15  3 59 51.0000000  0 10G01G03G04G06G09G17G19G21G22G31
  21515109.025    21515106.041   113062406.662 0  88100580.811 0        46.000  
        47.000                                                  
  20308812.777    20308809.524   106723498.004 0  83161173.182 0        50.000  
        49.000                                                  
  20651604.698    20651599.230   108524863.337 0  84564835.530 0        48.000  
        49.000                                                  
  23691311.646    23691309.305   124498436.275 0  97011708.254 0        42.000  
        42.000                                                  
  22924334.547    22924330.008   120467855.047 0  93871064.007 0        46.000  
        45.000                                                  
  22918152.955    22918146.504   120436089.493 0  93846307.727 0        46.000  
        43.000                                                  
  22695316.447                   119264309.238 0                        46.000  
                                                                
  23490922.597                   123445993.364 0                        43.000  
                                                                
  21305283.738                   111960662.949 0                        45.000  
                                                                
  23003840.120    23003832.847   120886380.662 0  94197183.340 0        43.000  
        39.000                                                  
 22  1 15  3 59 50.0000000  0  0
 22  1 15  3 59 51.0000000  0  5E02E07E08E13E26
  28174802.538                   148059252.396 0                        35.000  
                  28174801.984   113447998.527          44.000  
  23466838.996                   123319828.022 0                        49.000  
                  23466837.852    94491822.748          53.000  
  24244353.385                   127404364.683 0                        41.000  
                  24244350.312    97621934.956          46.000  
  26313140.520                   138276512.563 0                        42.000  
                  26313139.055   105952135.597          45.000  
  23806205.443                   125102469.802 0                        49.000  
                  23806202.995    95857729.004          53.000  
 22  1 15  3 59 52.0000000  0 10G01G03G04G06G09G17G19G21G22G31
  21515659.123    21515656.139   113065297.149 0  88102833.139 0        46.000  
        47.000                                                  
  20308869.421    20308866.169   106723795.812 0  83161405.245 0        50.000  
        49.000                                                  
  20651340.200    20651334.768   108523473.797 0  84563752.769 0        48.000  
        49.000                                                  
  23690689.142    23690686.784   124495165.116 0  97009159.299 0        43.000  
        42.000                                                  
  22923748.121    22923743.565   120464773.371 0  93868662.718 0        45.000  
        45.000                                                  
  22918430.247    22918423.796   120437546.881 0  93847443.345 0        46.000  
        43.000                                                  
  22695384.081                   119264664.794 0                        46.000  
                                                                
  23491504.430                   123449050.552 0                        43.000  
                                                                
  21305580.864                   111962224.413 0                        45.000  
                                                                
  23004171.233    23004164.014   120888120.658 0  94198539.204 0        43.000  
        39.000                                                  
 22  1 15  3 59 51.0000000  0  0
 22  1 15  3 59 52.0000000  0  5E02E07E08E13E26
  28174504.286                   148057684.656 0                        35.000  
                  28174503.607   113446797.271          44.000  
  23466912.580                   123320215.067 0                        49.000  
                  23466911.544    94492119.319          53.000  
  24244804.650                   127406737.143 0                        41.000  
                  24244801.755    97623752.808          46.000  
  26313720.620                   138279560.501 0                        42.000  
                  26313719.083   105954471.037          45.000  
  23806377.289                   125103372.808 0                        49.000  
                  23806374.716    95858420.918          53.000  
 22  1 15  3 59 53.0000000  0 10G01G03G04G06G09G17G19G21G22G31
  21516209.221    21516206.201   113068188.044 0  88105085.782 0        46.000  
        47.000                                                  
  20308926.209    20308922.939   106724093.988 0  83161637.580 0        50.000  
        49.000                                                  
  20651075.935    20651070.449   108522084.755 0  84562670.403 0        48.000  
        49.000                                                  
  23690066.782    23690064.316   124491894.183 0  97006610.515 0        43.000  
        42.000                                                  
  22923161.749    22923157.121   120461691.977 0  93866261.618 0        45.000  
        45.000                                                  
  22918707.610    22918701.123   120439004.780 0  93848579.369 0        46.000  
        42.000                                                  
  22695451.822                   119265021.059 0                        46.000  
                                                                
  23492086.299                   123452107.959 0                        43.000  
                                                                
  21305878.080                   111963786.182 0                        45.000  
                                                                
  23004502.292    23004495.306   120889861.279 0  94199895.534 0        43.000  
        39.000                                                  
 22  1 15  3 59 52.0000000  0  0
 22  1 15  3 59 53.0000000  0  5E02E07E08E13E26
  28174206.016                   148056117.267 0                        35.000  
                  28174205.534   113445596.289          43.000  
  23466986.254                   123320602.414 0                        49.000  
                  23466985.236    94492416.109          53.000  
  24245256.254                   127409109.683 0                        42.000  
                  24245253.127    97625570.724          46.000  
  26314300.577                   138282608.615 0                        42.000  
                  26314299.147   105956806.603          45.000  
  23806549.189                   125104276.263 0                        49.000  
                  23806546.759    95859113.178          53.000  
 22  1 15  3 59 54.0000000  0 10G01G03G04G06G09G17G19G21G22G31
  21516759.390    21516756.406   113071079.397 0  88107338.789 0        46.000  
        47.000                                                  
  20308983.015    20308979.709   106724392.576 0  83161870.249 0        50.000  
        49.000                                                  
  20650811.742    20650806.095   108520696.253 0  84561588.449 0        48.000  
        49.000                                                  
  23689444.351    23689441.956   124488623.517 0  97004061.954 0        43.000  
        42.000                                                  
  22922575.503    22922570.821   120458610.892 0  93863860.781 0        45.000  
        45.000                                                  
  22918985.116    22918978.629   120440463.221 0  93849715.824 0        46.000  
        42.000                                                  
  22695519.760                   119265378.064 0                        46.000  
                                                                
  23492668.150                   123455165.611 0                        43.000  
                                                                
  21306175.278                   111965348.283 0                        45.000  
                                                                
  23004833.638    23004826.740   120891602.551 0  94201252.377 0        43.000  
        39.000                                                  
 22  1 15  3 59 53.0000000  0  0
 22  1 15  3 59 54.0000000  0  5E02E07E08E13E26
  28173907.800                   148054550.280 0                        35.000  
                  28173907.175   113444395.611          43.000  
  23467060.018                   123320990.087 0                        49.000  
                  23467059.035    94492713.166          53.000  
  24245707.840                   127411482.334 0                        42.000  
                  24245704.677    97627388.734          46.000  
  26314880.623                   138285656.935 0                        41.000  
                  26314879.176   105959142.322          45.000  
  23806721.393                   125105180.214 0                        49.000  
                  23806718.766    95859805.813          53.000  
 22  1 15  3 59 55.0000000  0 10G01G03G04G06G09G17G19G21G22G31
  21517309.649    21517306.754   113073971.296 0  88109592.210 0        46.000  
        47.000                                                  
  20309039.910    20309036.604   106724691.664 0  83162103.309 0        50.000  
        49.000                                                  
  20650547.620    20650542.027   108519308.385 0  84560506.992 0        48.000  
        49.000                                                  
  23688821.883    23688819.632   124485353.210 0  97001513.651 0        43.000  
        42.000                                                  
  22921989.291    22921984.574   120455530.208 0  93861460.246 0        45.000  
        45.000                                                  
  22919262.747    22919256.206   120441922.296 0  93850852.761 0        46.000  
        42.000                                                  
  22695587.823                   119265735.894 0                        46.000  
                                                                
  23493250.108                   123458223.593 0                        43.000  
                                                                
  21306472.582                   111966910.824 0                        45.000  
                                                                
  23005165.001    23005158.246   120893344.581 0  94202609.782 0        43.000  
        39.000                                                  
 22  1 15  3 59 54.0000000  0  0
 22  1 15  3 59 55.0000000  0  5E02E07E08E13E26
  28173609.584                   148052983.734 0                        35.000  
                  28173609.227   113443195.286          43.000  
  23467133.906                   123321378.183 0                        49.000  
                  23467132.923    94493010.531          53.000  
  24246159.175                   127413855.188 0                        42.000  
                  24246156.263    97629206.904          46.000  
  26315460.723                   138288705.524 0                        41.000  
                  26315459.383   105961478.259          45.000  
  23806893.489                   125106084.743 0                        49.000  
                  23806890.881    95860498.894          53.000  
 22  1 15  3 59 56.0000000  0 10G01G03G04G06G09G17G19G21G22G31
  21517859.925    21517857.120   113076863.550 0  88111845.917 0        46.000  
        47.000                                                  
  20309096.966    20309093.695   106724991.060 0  83162336.600 0        50.000  
        49.000                                                  
  20650283.587    20650278.012   108517920.960 0  84559425.884 0        48.000  
        49.000                                                  
  23688199.559    23688197.361   124482083.054 0  96998965.482 0        42.000  
        42.000                                                  
  22921403.062    22921398.452   120452449.747 0  93859059.891 0        45.000  
        45.000                                                  
  22919540.520    22919533.980   120443381.817 0  93851990.062 0        45.000  
        42.000                                                  
  22695656.101                   119266094.381 0                        46.000  
                                                                
  23493832.103                   123461281.744 0                        43.000  
                                                                
  21306769.941                   111968473.591 0                        44.000  
                                                                
  23005496.579    23005489.824   120895087.173 0  94203967.642 0        43.000  
        39.000                                                  
 22  1 15  3 59 55.0000000  0  0
 22  1 15  3 59 56.0000000  0  5E02E07E08E13E26
  28173311.600                   148051417.548 0                        36.000  
                  28173311.046   113441995.195          43.000  
  23467207.723                   123321766.507 0                        49.000  
                  23467206.776    94493308.078          53.000  
  24246610.690                   127416228.065 0                        41.000  
                  24246607.831    97631025.087          46.000  
  26316040.680                   138291754.243 0                        41.000  
                  26316039.501   105963814.288          45.000  
  23807065.693                   125106989.680 0                        49.000  
                  23807063.049    95861192.280          53.000  
 22  1 15  3 59 57.0000000  0 10G01G03G04G06G09G17G19G21G22G31
  21518410.256    21518407.540   113079756.074 0  88114099.836 0        46.000  
        47.000                                                  
  20309154.003    20309150.644   106725290.697 0  83162570.088 0        50.000  
        49.000                                                  
  20650019.644    20650014.104   108516533.885 0  84558345.046 0        48.000  
        49.000                                                  
  23687577.234    23687575.108   124478812.987 0  96996417.380 0        43.000  
        42.000                                                  
  22920816.941    22920812.330   120449369.404 0  93856659.617 0        45.000  
        45.000                                                  
  22919818.259    22919811.808   120444841.709 0  93853127.635 0        46.000  
        42.000                                                  
  22695724.343                   119266453.413 0                        46.000  
                                                                
  23494414.025                   123464339.958 0                        43.000  
                                                                
  21307067.263                   111970036.501 0                        45.000  
                                                                
  23005828.335    23005821.491   120896830.236 0  94205325.890 0        43.000  
        39.000                                                  
 22  1 15  3 59 56.0000000  0  0
 22  1 15  3 59 57.0000000  0  5E02E07E08E13E26
  28173013.777                   148049851.518 0                        36.000  
                  28173013.009   113440795.261          43.000  
  23467281.665                   123322154.975 0                        49.000  
                  23467280.575    94493605.740          53.000  
  24247062.186                   127418600.889 0                        41.000  
                  24247059.274    97632843.227          46.000  
  26316620.905                   138294802.959 0                        41.000  
                  26316619.583   105966150.328          45.000  
  23807237.968                   125107894.907 0                        49.000  
                  23807235.234    95861885.898          53.000  
 22  1 15  3 59 58.0000000  0 10G01G03G04G06G09G17G19G21G22G31
  21518960.711    21518958.102   113082649.355 0  88116354.338 0        46.000  
        47.000                                                  
  20309211.149    20309207.771   106725591.035 0  83162804.117 0        50.000  
        49.000                                                  
  20649755.790    20649750.393   108515147.645 0  84557264.866 0        48.000  
        49.000                                                  
  23686955.088    23686952.908   124475543.495 0  96993869.726 0        43.000  
        42.000                                                  
  22920230.854    22920226.280   120446289.665 0  93854259.820 0        46.000  
        45.000                                                  
  22920096.247    22920089.779   120446302.445 0  93854265.862 0        46.000  
        42.000                                                  
  22695792.817                   119266813.488 0                        46.000  
                                                                
  23494995.966                   123467398.707 0                        43.000  
                                                                
  21307364.836                   111971600.049 0                        45.000  
                                                                
  23006160.127    23006153.462   120898574.249 0  94206684.850 0        43.000  
        39.000                                                  
 22  1 15  3 59 57.0000000  0  0
 22  1 15  3 59 58.0000000  0  5E02E07E08E13E26
  28172715.865                   148048286.163 0                        36.000  
                  28172715.239   113439595.835          43.000  
  23467355.803                   123322544.068 0                        49.000  
                  23467354.642    94493903.872          53.000  
  24247513.897                   127420974.128 0                        41.000  
                  24247510.931    97634661.675          46.000  
  26317201.148                   138297852.194 0                        41.000  
                  26317200.005   105968486.746          45.000  
  23807410.333                   125108800.936 0                        49.000  
                  23807407.688    95862580.128          53.000  
 22  1 15  3 59 59.0000000  0 10G01G03G04G06G09G17G19G21G22G31
  21519511.345    21519508.629   113085542.939 0  88118609.076 0        46.000  
        47.000                                                  
  20309268.329    20309264.988   106725891.613 0  83163038.334 0        50.000  
        49.000                                                  
  20649492.079    20649486.611   108513761.785 0  84556184.970 0        48.000  
        49.000                                                  
  23686332.978    23686330.691   124472274.088 0  96991322.137 0        43.000  
        42.000                                                  
  22919644.822    22919640.158   120443210.076 0  93851860.143 0        45.000  
        45.000                                                  
  22920374.253    22920367.803   120447763.551 0  93855404.393 0        46.000  
        42.000                                                  
  22695861.452                   119267174.131 0                        46.000  
                                                                
  23495577.978                   123470457.555 0                        43.000  
                                                                
  21307662.409                   111973163.769 0                        44.000  
                                                                
  23006492.115    23006485.504   120900318.761 0  94208044.208 0        43.000  
        39.000                                                  
 22  1 15  3 59 58.0000000  0  0
 22  1 15  3 59 59.0000000  0  5E02E07E08E13E26
  28172418.060                   148046721.043 0                        35.000  
                  28172417.220   113438396.598          43.000  
  23467429.781                   123322933.329 0                        49.000  
                  23467428.655    94494202.141          53.000  
  24247965.537                   127423347.316 0                        41.000  
                  24247962.606    97636480.081          46.000  
  26317781.409                   138300901.441 0                        41.000  
                  26317780.230   105970823.186          45.000  
  23807582.876                   125109707.284 0                        49.000  
                  23807580.142    95863274.605          53.000  
 22  1 15  4  0  0.0000000  0 10G01G03G04G06G09G17G19G21G22G31
  21520062.050    21520059.352   113088436.983 0  88120864.178 0        46.000  
        47.000                                                  
  20309325.689    20309322.276   106726192.617 0  83163272.887 0        50.000  
        49.000                                                  
  20649228.403    20649222.971   108512376.484 0  84555105.517 0        48.000  
        49.000                                                  
  23685710.868    23685708.670   124469004.963 0  96988774.755 0        43.000  
        42.000                                                  
  22919058.754    22919054.286   120440130.818 0  93849460.721 0        45.000  
        45.000                                                  
  22920652.438    22920645.898   120449225.232 0  93856543.358 0        46.000  
        42.000                                                  
  22695930.265                   119267535.535 0                        46.000  
                                                                
  23496160.061                   123473516.662 0                        43.000  
                                                                
  21307959.964                   111974727.845 0                        44.000  
                                                                
  23006824.158    23006817.635   120902063.945 0  94209404.119 0        43.000  
        39.000                                                  
 22  1 15  3 59 59.0000000  0  0
 22  1 15  4  0  0.0000000  0  5E02E07E08E13E26
  28172120.219                   148045156.325 0                        35.000  
                  28172119.433   113437197.665          43.000  
  23467503.956                   123323322.935 0                        49.000  
                  23467502.955    94494500.666          53.000  
  24248417.391                   127425720.642 0                        41.000  
                  24248414.121    97638298.615          46.000  
  26318361.777                   138303950.905 0                        41.000  
                  26318360.562   105973159.793          45.000  
  23807755.259                   125110614.146 0                        49.000  
                  23807752.721    95863969.480          53.000  
 22  1 15  4  0  1.0000000  0 10G01G03G04G06G09G17G19G21G22G31
  21520612.774    21520610.147   113091331.212 0  88123119.414 0        46.000  
        47.000                                                  
  20309382.941    20309379.564   106726493.765 0  83163507.543 0        50.000  
        49.000                                                  
  20648964.800    20648959.403   108510991.445 0  84554026.264 0        48.000  
        49.000                                                  
  23685088.740    23685086.578   124465735.826 0  96986227.376 0        43.000  
        42.000                                                  
  22918472.739    22918468.468   120437051.584 0  93847061.321 0        45.000  
        45.000                                                  
  22920930.498    22920924.137   120450687.171 0  93857682.545 0        46.000  
        42.000                                                  
  22695999.133                   119267897.414 0                        46.000  
                                                                
  23496742.144                   123476575.754 0                        43.000  
                                                                
  21308257.644                   111976291.985 0                        45.000  
                                                                
  23007156.307    23007149.981   120903809.531 0  94210764.298 0        43.000  
        39.000                                                  
 22  1 15  4  0  0.0000000  0  0
 22  1 15  4  0  1.0000000  0  5E02E07E08E13E26
  28171822.396                   148043591.718 0                        35.000  
                  28171821.627   113435998.815          43.000  
  23467578.130                   123323712.589 0                        49.000  
                  23467576.986    94494799.239          53.000  
  24248869.066                   127428093.795 0                        41.000  
                  24248865.725    97640117.012          46.000  
  26318941.966                   138307000.320 0                        41.000  
                  26318940.841   105975496.346          45.000  
  23807927.874                   125111521.219 0                        49.000  
                  23807925.372    95864664.508          53.000  
 22  1 15  4  0  2.0000000  0 10G01G03G04G06G09G17G19G21G22G31
  21521163.407    21521160.959   113094225.725 0  88125374.888 0        45.000  
        47.000                                                  
  20309440.265    20309436.906   106726795.153 0  83163742.389 0        50.000  
        49.000                                                  
  20648701.321    20648695.924   108509606.773 0  84552947.298 0        48.000  
        49.000                                                  
  23684466.702    23684464.575   124462466.795 0  96983680.092 0        43.000  
        42.000                                                  
  22917886.867    22917882.561   120433972.497 0  93844662.034 0        45.000  
        45.000                                                  
  22921208.701    22921202.375   120452149.492 0  93858822.023 0        46.000  
        42.000                                                  
  22696068.089                   119268259.854 0                        46.000  
                                                                
  23497324.299                   123479634.911 0                        43.000  
                                                                
  21308555.360                   111977856.287 0                        45.000  
                                                                
  23007488.564    23007482.292   120905555.580 0  94212124.865 0        43.000  
        39.000                                                  
 22  1 15  4  0  1.0000000  0  0
 22  1 15  4  0  2.0000000  0  5E02E07E08E13E26
  28171524.644                   148042027.325 0                        35.000  
                  28171524.019   113434800.133          43.000  
  23467652.340                   123324102.401 0                        49.000  
                  23467651.286    94495097.928          53.000  
  24249320.742                   127430466.916 0                        41.000  
                  24249317.311    97641935.361          46.000  
  26319522.263                   138310049.746 0                        41.000  
                  26319521.066   105977832.915          45.000  
  23808100.596                   125112428.618 0                        49.000  
                  23808098.040    95865359.783          53.000  
 22  1 15  4  0  3.0000000  0 10G01G03G04G06G09G17G19G21G22G31
  21521714.309    21521711.933   113097121.092 0  88127631.019 0        45.000  
        47.000                                                  
  20309497.714    20309494.301   106727097.369 0  83163977.880 0        50.000  
        49.000                                                  
  20648438.056    20648432.678   108508223.054 0  84551869.074 0        48.000  
        49.000                                                  
  23683844.771    23683842.626   124459198.421 0  96981133.312 0        43.000  
        42.000                                                  
  22917301.085    22917296.689   120430894.143 0  93842263.317 0        46.000  
        45.000                                                  
  22921487.100    22921480.900   120453612.784 0  93859962.227 0        46.000  
        42.000                                                  
  22696137.224                   119268623.458 0                        46.000  
                                                                
  23497906.561                   123482694.754 0                        43.000  
                                                                
  21308853.183                   111979421.349 0                        45.000  
                                                                
  23007820.981    23007814.763   120907302.725 0  94213486.278 0        43.000  
        39.000                                                  
 22  1 15  4  0  2.0000000  0  0
 22  1 15  4  0  3.0000000  0  5E02E07E08E13E26
  28171226.857                   148040463.757 0                        35.000  
                  28171226.607   113433602.075          43.000  
  23467726.693                   123324492.965 0                        49.000  
                  23467725.549    94495397.189          53.000  
  24249772.542                   127432840.559 0                        42.000  
                  24249768.950    97643754.124          46.000  
  26320102.684                   138313099.779 0                        41.000  
                  26320101.594   105980169.949          45.000  
  23808273.460                   125113336.930 0                        49.000  
                  23808270.834    95866055.764          53.000  
 22  1 15  4  0  4.0000000  0 10G01G03G04G06G09G17G19G21G22G31
  21522265.444    21522263.049   113100016.885 0  88129887.474 0        45.000  
        47.000                                                  
  20309555.395    20309551.911   106727399.946 0  83164213.654 0        50.000  
        49.000                                                  
  20648174.739    20648169.449   108506839.826 0  84550791.240 0        48.000  
        49.000                                                  
  23683222.857    23683220.695   124455930.282 0  96978586.714 0        43.000  
        42.000                                                  
  22916715.339    22916710.907   120427816.048 0  93839864.792 0        46.000  
        45.000                                                  
  22921765.589    22921759.371   120455076.557 0  93861102.837 0        46.000  
        42.000                                                  
  22696206.467                   119268987.747 0                        46.000  
                                                                
  23498488.877                   123485754.785 0                        43.000  
                                                                
  21309151.202                   111980986.710 0                        45.000  
                                                                
  23008153.506    23008147.323   120909050.476 0  94214848.147 0        43.000  
        39.000                                                  
 22  1 15  4  0  3.0000000  0  0
 22  1 15  4  0  4.0000000  0  5E02E07E08E13E26
  28170929.248                   148038900.532 0                        35.000  
                  28170929.159   113432404.261          43.000  
  23467801.028                   123324883.798 0                        49.000  
                  23467799.920    94495696.661          53.000  
  24250224.360                   127435214.281 0                        42.000  
                  24250220.786    97645572.953          46.000  
  26320683.017                   138316149.974 0                        41.000  
                  26320681.837   105982507.122          45.000  
  23808446.308                   125114245.679 0                        49.000  
                  23808443.788    95866752.076          53.000  
 22  1 15  4  0  5.0000000  0 10G01G03G04G06G09G17G19G21G22G31
  21522816.524    21522814.219   113102912.931 0  88132144.137 0        45.000  
        47.000                                                  
  20309613.023    20309609.538   106727702.725 0  83164449.586 0        50.000  
        49.000                                                  
  20647911.510    20647906.149   108505456.938 0  84549713.665 0        48.000  
        49.000                                                  
  23682600.961    23682598.728   124452662.213 0  96976040.163 0        43.000  
        42.000                                                  
  22916129.628    22916125.125   120424738.046 0  93837466.362 0        46.000  
        45.000                                                  
  22922044.239    22922037.931   120456540.679 0  93862243.714 0        46.000  
        42.000                                                  
  22696275.852                   119269352.587 0                        46.000  
                                                                
  23499071.175                   123488814.854 0                        43.000  
                                                                
  21309449.097                   111982552.203 0                        44.000  
                                                                
  23008486.155    23008480.098   120910798.671 0  94216210.385 0        43.000  
        40.000                                                  
 22  1 15  4  0  4.0000000  0  0
 22  1 15  4  0  5.0000000  0  5E02E07E08E13E26
  28170631.747                   148037337.495 0                        35.000  
                  28170631.676   113431206.589          43.000  
  23467875.417                   123325274.760 0                        49.000  
                  23467874.380    94495996.231          53.000  
  24250676.143                   127437587.898 0                        42.000  
                  24250672.515    97647391.709          46.000  
  26321263.438                   138319200.166 0                        41.000  
                  26321262.277   105984844.273          45.000  
  23808619.315                   125115154.721 0                        49.000  
                  23808616.814    95867448.617          53.000  
 22  1 15  4  0  6.0000000  0 10G01G03G04G06G09G17G19G21G22G31
  21523367.587    21523365.443   113105809.422 0  88134401.139 0        45.000  
        47.000                                                  
  20309670.668    20309667.255   106728005.924 0  83164685.847 0        50.000  
        49.000                                                  
  20647648.460    20647643.064   108504074.584 0  84548636.511 0        48.000  
        49.000                                                  
  23681979.066    23681976.886   124449394.388 0  96973493.801 0        43.000  
        42.000                                                  
  22915543.953    22915539.414   120421660.376 0  93835068.176 0        46.000  
        45.000                                                  
  22922322.906    22922316.598   120458005.348 0  93863385.011 0        46.000  
        42.000                                                  
  22696345.470                   119269718.163 0                        46.000  
                                                                
  23499653.509                   123491875.197 0                        43.000  
                                                                
  21309747.134                   111984118.048 0                        44.000  
                                                                
  23008818.930    23008812.819   120912547.546 0  94217573.143 0        43.000  
        40.000                                                  
 22  1 15  4  0  5.0000000  0  0
 22  1 15  4  0  6.0000000  0  5E02E07E08E13E26
  28170334.335                   148035774.828 0                        35.000  
                  28170334.442   113430009.239          43.000  
  23467950.002                   123325666.060 0                        49.000  
                  23467948.805    94496296.052          53.000  
  24251127.729                   127439961.655 0                        42.000  
                  24251124.280    97649210.553          46.000  
  26321843.949                   138322250.551 0                        41.000  
                  26321842.681   105987181.589          45.000  
  23808792.413                   125116064.253 0                        49.000  
                  23808789.911    95868145.527          53.000  
 22  1 15  4  0  7.0000000  0 10G01G03G04G06G09G17G19G21G22G31
  21523918.829    21523916.613   113108706.295 0  88136658.449 0        45.000  
        47.000                                                  
  20309728.439    20309724.919   106728309.458 0  83164922.371 0        50.000  
        49.000                                                  
  20647385.571    20647380.014   108502692.705 0  84547559.715 0        48.000  
        49.000                                                  
  23681357.295    23681355.115   124446126.765 0  96970947.606 0        43.000  
        42.000                                                  
  22914958.367    22914953.721   120418582.929 0  93832670.163 0        46.000  
        45.000                                                  
  22922601.734    22922595.355   120459470.477 0  93864526.682 0        46.000  
        42.000                                                  
  22696415.231                   119270084.406 0                        46.000  
                                                                
  23500235.896                   123494935.706 0                        43.000  
                                                                
  21310045.225                   111985684.137 0                        44.000  
                                                                
  23009151.794    23009145.719   120914297.000 0  94218936.349 0        43.000  
        40.000                                                  
 22  1 15  4  0  6.0000000  0  0
 22  1 15  4  0  7.0000000  0  5E02E07E08E13E26
  28170037.084                   148034212.458 0                        35.000  
                  28170037.102   113428812.125          43.000  
  23468024.623                   123326057.612 0                        49.000  
                  23468023.283    94496596.072          53.000  
  24251579.600                   127442335.451 0                        42.000  
                  24251575.884    97651029.427          46.000  
  26322424.514                   138325301.069 0                        41.000  
                  26322423.156   105989518.991          45.000  
  23808965.689                   125116974.202 0                        49.000  
                  23808962.955    95868842.761          53.000  
 22  1 15  4  0  8.0000000  0 10G01G03G04G06G09G17G19G21G22G31
  21524470.106    21524467.890   113111603.514 0  88138916.027 0        45.000  
        47.000                                                  
  20309786.120    20309782.743   106728613.293 0  83165159.120 0        50.000  
        49.000                                                  
  20647122.700    20647117.196   108501311.246 0  84546483.256 0        48.000  
        49.000                                                  
  23680735.561    23680733.327   124442859.298 0  96968401.521 0        43.000  
        42.000                                                  
  22914372.745    22914368.207   120415505.678 0  93830272.305 0        46.000  
        45.000                                                  
  22922880.580    22922874.237   120460936.055 0  93865668.679 0        46.000  
        42.000                                                  
  22696485.063                   119270451.282 0                        46.000  
                                                                
  23500818.337                   123497996.336 0                        43.000  
                                                                
  21310343.316                   111987250.466 0                        44.000  
                                                                
  23009484.712    23009478.744   120916046.991 0  94220299.971 0        43.000  
        40.000                                                  
 22  1 15  4  0  7.0000000  0  0
 22  1 15  4  0  8.0000000  0  5E02E07E08E13E26
  28169740.011                   148032650.374 0                        35.000  
                  28169739.708   113427615.206          43.000  
  23468098.923                   123326449.385 0                        49.000  
                  23468097.868    94496896.266          53.000  
  24252030.990                   127444709.246 0                        42.000  
                  24252027.541    97652848.327          46.000  
  26323005.025                   138328351.669 0                        41.000  
                  26323003.720   105991856.466          45.000  
  23809138.732                   125117884.539 0                        49.000  
                  23809136.356    95869540.296          53.000  
 22  1 15  4  0  9.0000000  0 10G01G03G04G06G09G17G19G21G22G31
  21525021.526    21525019.150   113114501.091 0  88141173.873 0        45.000  
        47.000                                                  
  20309844.069    20309840.674   106728917.431 0  83165396.113 0        50.000  
        48.000                                                  
  20646859.918    20646854.396   108499930.236 0  84545407.137 0        47.000  
        49.000                                                  
  23680113.861    23680111.681   124439591.980 0  96965855.566 0        43.000  
        42.000                                                  
  22913787.338    22913782.710   120412428.654 0  93827874.619 0        45.000  
        45.000                                                  
  22923159.534    22923153.262   120462402.061 0  93866811.020 0        45.000  
        43.000                                                  
  22696555.056                   119270818.799 0                        46.000  
                                                                
  23501400.813                   123501057.133 0                        43.000  
                                                                
  21310641.336                   111988817.024 0                        44.000  
                                                                
  23009817.880    23009811.983   120917797.542 0  94221664.053 0        43.000  
        40.000                                                  
 22  1 15  4  0  8.0000000  0  0
 22  1 15  4  0  9.0000000  0  5E02E07E08E13E26
  28169442.921                   148031088.626 0                        35.000  
                  28169442.421   113426418.510          43.000  
  23468173.579                   123326841.377 0                        49.000  
                  23468172.454    94497196.615          53.000  
  24252482.379                   127447083.071 0                        42.000  
                  24252479.216    97654667.221          46.000  
  26323585.625                   138331402.377 0                        41.000  
                  26323584.142   105994194.015          45.000  
  23809312.008                   125118795.256 0                        49.000  
                  23809309.471    95870238.112          53.000  
 22  1 15  4  0 10.0000000  0 10G01G03G04G06G09G17G19G21G22G31
  21525572.928    21525570.605   113117399.088 0  88143432.047 0        45.000  
        47.000                                                  
  20309902.001    20309898.677   106729221.948 0  83165633.394 0        50.000  
        48.000                                                  
  20646597.154    20646591.686   108498549.716 0  84544331.407 0        47.000  
        49.000                                                  
  23679492.091    23679490.090   124436324.894 0  96963309.780 0        43.000  
        43.000                                                  
  22913201.735    22913197.178   120409351.894 0  93825477.148 0        45.000  
        45.000                                                  
  22923438.541    22923432.447   120463868.581 0  93867953.760 0        46.000  
        43.000                                                  
  22696625.209                   119271187.016 0                        46.000  
                                                                
  23501983.307                   123504118.135 0                        43.000  
                                                                
  21310939.481                   111990383.887 0                        44.000  
                                                                
  23010151.137    23010145.098   120919548.724 0  94223028.592 0        43.000  
        40.000                                                  
 22  1 15  4  0  9.0000000  0  0
 22  1 15  4  0 10.0000000  0  5E02E07E08E13E26
  28169145.813                   148029527.176 0                        35.000  
                  28169145.438   113425222.079          43.000  
  23468248.290                   123327233.651 0                        49.000  
                  23468247.039    94497497.195          53.000  
  24252934.287                   127449456.961 0                        42.000  
                  24252931.035    97656486.180          46.000  
  26324166.100                   138334453.229 0                        41.000  
                  26324164.635   105996531.683          45.000  
  23809485.516                   125119706.429 0                        49.000  
                  23809482.890    95870936.287          53.000  
 22  1 15  4  0 11.0000000  0 10G01G03G04G06G09G17G19G21G22G31
  21526124.492    21526122.222   113120297.756 0  88145690.750 0        45.000  
        47.000                                                  
  20309960.039    20309956.644   106729527.089 0  83165871.175 0        50.000  
        48.000                                                  
  20646334.479    20646329.047   108497169.953 0  84543256.267 0        48.000  
        49.000                                                  
  23678870.499    23678868.462   124433058.304 0  96960764.381 0        43.000  
        43.000                                                  
  22912616.292    22912611.610   120406275.661 0  93823080.075 0        45.000  
        45.000                                                  
  22923717.798    22923711.812   120465335.858 0  93869097.093 0        46.000  
        43.000                                                  
  22696695.470                   119271556.187 0                        46.000  
                                                                
  23502565.856                   123507179.592 0                        43.000  
                                                                
  21311237.768                   111991951.323 0                        44.000  
                                                                
  23010484.555    23010478.551   120921300.771 0  94224393.849 0        43.000  
        40.000                                                  
 22  1 15  4  0 10.0000000  0  0
 22  1 15  4  0 11.0000000  0  5E02E07E08E13E26
  28168848.955                   148027966.352 0                        35.000  
                  28168848.419   113424026.119          43.000  
  23468323.268                   123327626.483 0                        49.000  
                  23468321.803    94497798.196          53.000  
  24253386.320                   127451831.200 0                        42.000  
                  24253382.907    97658305.392          46.000  
  26324746.718                   138337504.501 0                        41.000  
                  26324745.432   105998869.671          45.000  
  23809659.042                   125120618.315 0                        49.000  
                  23809656.451    95871634.998          53.000  
 22  1 15  4  0 12.0000000  0 10G01G03G04G06G09G17G19G21G22G31
  21526676.180    21526673.946   113123196.988 0  88147949.899 0        45.000  
        47.000                                                  
  20310018.203    20310014.844   106729832.759 0  83166109.362 0        50.000  
        49.000                                                  
  20646072.091    20646066.605   108495790.853 0  84542181.653 0        48.000  
        49.000                                                  
  23678248.925    23678246.942   124429792.102 0  96958219.292 0        43.000  
        43.000                                                  
  22912030.974    22912026.203   120403199.852 0  93820683.356 0        46.000  
        45.000                                                  
  22923997.216    22923991.230   120466803.790 0  93870240.952 0        46.000  
        43.000                                                  
  22696765.910                   119271926.218 0                        46.000  
                                                                
  23503148.493                   123510241.437 0                        43.000  
                                                                
  21311536.199                   111993519.199 0                        44.000  
                                                                
  23010818.206    23010812.077   120923053.600 0  94225759.671 0        43.000  
        39.000                                                  
 22  1 15  4  0 11.0000000  0  0
 22  1 15  4  0 12.0000000  0  5E02E07E08E13E26
  28168552.293                   148026406.035 0                        35.000  
                  28168551.578   113422830.554          43.000  
  23468397.961                   123328019.761 0                        49.000  
                  23468396.674    94498099.539          53.000  
  24253838.174                   127454205.667 0                        42.000  
                  24253834.761    97660124.799          46.000  
  26325327.462                   138340556.095 0                        41.000  
                  26325326.121   106001207.906          45.000  
  23809832.658                   125121530.805 0                        49.000  
                  23809830.156    95872334.186          53.000  
 22  1 15  4  0 13.0000000  0 10G01G03G04G06G09G17G19G21G22G31
  21527227.939    21527225.652   113126096.358 0  88150209.132 0        45.000  
        47.000                                                  
  20310076.349    20310073.168   106730138.514 0  83166347.612 0        50.000  
        48.000                                                  
  20645809.613    20645804.162   108494411.970 0  84541107.197 0        47.000  
        49.000                                                  
  23677627.351    23677625.439   124426525.820 0  96955674.156 0        43.000  
        43.000                                                  
  22911445.674    22911440.957   120400124.045 0  93818286.622 0        46.000  
        45.000                                                  
  22924276.580    22924270.594   120468271.956 0  93871384.979 0        46.000  
        43.000                                                  
  22696836.386                   119272296.657 0                        46.000  
                                                                
  23503731.130                   123513303.208 0                        43.000  
                                                                
  21311834.576                   111995087.098 0                        45.000  
                                                                
  23011151.892    23011145.656   120924806.768 0  94227125.779 0        43.000  
        40.000                                                  
 22  1 15  4  0 12.0000000  0  0
 22  1 15  4  0 13.0000000  0  5E02E07E08E13E26
  28168255.453                   148024845.748 0                        35.000  
                  28168254.756   113421635.022          43.000  
  23468472.832                   123328413.033 0                        49.000  
                  23468471.402    94498400.884          53.000  
  24254290.081                   127456579.924 0                        42.000  
                  24254286.489    97661944.036          46.000  
  26325907.955                   138343607.567 0                        41.000  
                  26325906.793   106003546.048          45.000  
  23810006.380                   125122443.465 0                        49.000  
                  23810003.772    95873033.499          53.000  
 22  1 15  4  0 14.0000000  0 10G01G03G04G06G09G17G19G21G22G31
  21527779.681    21527777.376   113128995.949 0  88152468.558 0        45.000  
        47.000                                                  
  20310134.638    20310131.278   106730444.460 0  83166585.998 0        50.000  
        48.000                                                  
  20645547.331    20645541.827   108493033.396 0  84540032.981 0        47.000  
        49.000                                                  
  23677005.849    23677003.937   124423259.606 0  96953129.040 0        43.000  
        43.000                                                  
  22910860.446    22910855.746   120397048.306 0  93815889.937 0        46.000  
        45.000                                                  
  22924556.087    22924550.101   120469740.436 0  93872529.238 0        45.000  
        43.000                                                  
  22696906.968                   119272667.615 0                        46.000  
                                                                
  23504313.839                   123516364.991 0                        43.000  
                                                                
  21312132.953                   111996655.106 0                        45.000  
                                                                
  23011485.542    23011479.360   120926560.359 0  94228492.216 0        43.000  
        40.000                                                  
 22  1 15  4  0 13.0000000  0  0
 22  1 15  4  0 14.0000000  0  5E02E07E08E13E26
  28167958.506                   148023285.649 0                        35.000  
                  28167957.898   113420439.637          43.000  
  23468547.632                   123328806.422 0                        49.000  
                  23468546.399    94498702.305          53.000  
  24254741.864                   127458954.071 0                        42.000  
                  24254738.272    97663763.189          46.000  
  26326488.680                   138346659.011 0                        41.000  
                  26326487.501   106005884.159          45.000  
  23810179.889                   125123356.396 0                        49.000  
                  23810177.441    95873733.015          53.000  
 22  1 15  4  0 15.0000000  0 10G01G03G04G06G09G17G19G21G22G31
  21528331.512    21528329.332   113131896.017 0  88154728.356 0        45.000  
        47.000                                                  
  20310192.944    20310189.567   106730750.831 0  83166824.733 0        50.000  
        48.000                                                  
  20645285.014    20645279.528   108491655.376 0  84538959.197 0        47.000  
        49.000                                                  
  23676384.328    23676382.434   124419993.659 0  96950584.153 0        43.000  
        42.000                                                  
  22910275.253    22910270.482   120393972.901 0  93813493.520 0        46.000  
        45.000                                                  
  22924835.648    22924829.644   120471209.485 0  93873673.948 0        45.000  
        43.000                                                  
  22696977.730                   119273039.340 0                        46.000  
                                                                
  23504896.619                   123519427.050 0                        43.000  
                                                                
  21312431.401                   111998223.478 0                        45.000  
                                                                
  23011819.371    23011813.242   120928314.640 0  94229859.186 0        43.000  
        40.000                                                  
 22  1 15  4  0 14.0000000  0  0
 22  1 15  4  0 15.0000000  0  5E02E07E08E13E26
  28167661.951                   148021725.983 0                        36.000  
                  28167660.897   113419244.551          43.000  
  23468622.574                   123329200.157 0                        49.000  
                  23468621.270    94499003.999          53.000  
  24255193.575                   127461328.369 0                        42.000  
                  24255190.054    97665582.444          46.000  
  26327069.423                   138349710.662 0                        41.000  
                  26327068.208   106008222.443          45.000  
  23810353.718                   125124269.846 0                        49.000  
                  23810351.288    95874432.924          53.000  
 22  1 15  4  0 16.0000000  0 10G01G03G04G06G09G17G19G21G22G31
  21528883.504    21528881.324   113134796.675 0  88156988.607 0        45.000  
        47.000                                                  
  20310251.304    20310248.088   106731057.751 0  83167063.894 0        50.000  
        49.000                                                  
  20645022.822    20645017.425   108490278.045 0  84537885.955 0        47.000  
        49.000                                                  
  23675762.987    23675760.860   124416728.105 0  96948039.570 0        43.000  
        42.000                                                  
  22909690.079    22909685.254   120390897.957 0  93811097.462 0        46.000  
        45.000                                                  
  22925115.280    22925109.366   120472679.213 0  93874819.196 0        46.000  
        43.000                                                  
  22697048.562                   119273411.938 0                        46.000  
                                                                
  23505479.453                   123522489.487 0                        43.000  
                                                                
  21312730.046                   111999792.337 0                        45.000  
                                                                
  23012153.397    23012147.304   120930069.698 0  94231226.777 0        43.000  
        40.000                                                  
 22  1 15  4  0 15.0000000  0  0
 22  1 15  4  0 16.0000000  0  5E02E07E08E13E26
  28167365.701                   148020166.820 0                        36.000  
                  28167364.200   113418049.879          43.000  
  23468697.731                   123329594.356 0                        49.000  
                  23468696.212    94499306.045          53.000  
  24255645.286                   127463702.916 0                        42.000  
                  24255641.926    97667401.902          46.000  
  26327650.256                   138352762.673 0                        41.000  
                  26327648.934   106010560.991          45.000  
  23810527.870                   125125183.914 0                        49.000  
                  23810525.243    95875133.317          53.000  
 22  1 15  4  0 17.0000000  0 10G01G03G04G06G09G17G19G21G22G31
  21529435.496    21529433.281   113137697.636 0  88159249.086 0        45.000  
        47.000                                                  
  20310309.736    20310306.448   106731364.929 0  83167303.249 0        50.000  
        49.000                                                  
  20644760.737    20644755.376   108488901.102 0  84536813.007 0        47.000  
        49.000                                                  
  23675141.609    23675139.519   124413462.680 0  96945495.086 0        43.000  
        42.000                                                  
  22909104.904    22909100.169   120387823.157 0  93808701.521 0        46.000  
        45.000                                                  
  22925395.002    22925389.070   120474149.330 0  93875964.736 0        46.000  
        43.000                                                  
  22697119.538                   119273785.136 0                        46.000  
                                                                
  23506062.341                   123525552.024 0                        43.000  
                                                                
  21313028.566                   112001361.366 0                        45.000  
                                                                
  23012487.459    23012481.437   120931825.273 0  94232594.746 0        43.000  
        40.000                                                  
 22  1 15  4  0 16.0000000  0  0
 22  1 15  4  0 17.0000000  0  5E02E07E08E13E26
  28167069.218                   148018607.903 0                        36.000  
                  28167067.467   113416855.370          43.000  
  23468772.871                   123329988.717 0                        49.000  
                  23468771.334    94499608.224          53.000  
  24256097.050                   127466077.418 0                        42.000  
                  24256093.905    97669221.333          46.000  
  26328231.106                   138355814.696 0                        41.000  
                  26328229.748   106012899.567          45.000  
  23810701.771                   125126098.321 0                        49.000  
                  23810699.377    95875833.966          53.000  
 22  1 15  4  0 18.0000000  0 10G01G03G04G06G09G17G19G21G22G31
  21529987.721    21529985.398   113140599.039 0  88161509.920 0        45.000  
        47.000                                                  
  20310368.293    20310364.987   106731672.503 0  83167542.921 0        50.000  
        48.000                                                  
  20644498.830    20644493.541   108487524.679 0  84535740.470 0        47.000  
        49.000                                                  
  23674520.143    23674518.123   124410197.505 0  96942950.791 0        43.000  
        43.000                                                  
  22908519.908    22908514.994   120384748.665 0  93806305.804 0        45.000  
        45.000                                                  
  22925674.813    22925668.952   120475619.979 0  93877110.687 0        46.000  
        43.000                                                  
  22697190.728                   119274159.043 0                        46.000  
                                                                
  23506645.121                   123528614.802 0                        43.000  
                                                                
  21313327.086                   112002930.726 0                        45.000  
                                                                
  23012821.609    23012815.623   120933581.505 0  94233963.250 0        43.000  
        40.000                                                  
 22  1 15  4  0 17.0000000  0  0
 22  1 15  4  0 18.0000000  0  5E02E07E08E13E26
  28166772.753                   148017049.373 0                        36.000  
                  28166770.805   113415661.163          43.000  
  23468847.885                   123330383.406 0                        49.000  
                  23468846.420    94499910.651          53.000  
  24256548.994                   127468452.036 0                        42.000  
                  24256545.849    97671040.843          46.000  
  26328811.868                   138358866.936 0                        41.000  
                  26328810.527   106015238.288          45.000  
  23810875.637                   125127013.209 0                        49.000  
                  23810873.332    95876534.984          53.000  
 22  1 15  4  0 19.0000000  0 10G01G03G04G06G09G17G19G21G22G31
  21530539.945    21530537.711   113143500.921 0  88163771.132 0        45.000  
        47.000                                                  
  20310426.885    20310423.580   106731980.517 0  83167782.937 0        50.000  
        48.000                                                  
  20644237.031    20644231.724   108486148.819 0  84534668.378 0        47.000  
        49.000                                                  
  23673898.819    23673896.835   124406932.626 0  96940406.720 0        43.000  
        43.000                                                  
  22907934.930    22907929.980   120381674.511 0  93803910.349 0        45.000  
        45.000                                                  
  22925954.785    22925949.013   120477091.185 0  93878257.086 0        46.000  
        43.000                                                  
  22697262.187                   119274533.725 0                        46.000  
                                                                
  23507227.955                   123531677.847 0                        43.000  
                                                                
  21313625.856                   112004500.454 0                        45.000  
                                                                
  23013156.028    23013149.988   120935338.407 0  94235332.246 0        43.000  
        40.000                                                  
 22  1 15  4  0 18.0000000  0  0
 22  1 15  4  0 19.0000000  0  5E02E07E08E13E26
  28166476.163                   148015491.222 0                        36.000  
                  28166474.358   113414467.267          43.000  
  23468922.988                   123330778.450 0                        49.000  
                  23468921.594    94500213.342          53.000  
  24257001.026                   127470826.782 0                        42.000  
                  24256997.631    97672860.469          46.000  
  26329392.879                   138361919.379 0                        41.000  
                  26329391.414   106017577.170          45.000  
  23811049.913                   125127928.613 0                        49.000  
                  23811047.483    95877236.395          53.000  
 22  1 15  4  0 20.0000000  0 10G01G03G04G06G09G17G19G21G22G31
  21531092.223    21531090.150   113146403.557 0  88166032.926 0        45.000  
        47.000                                                  
  20310485.621    20310482.262   106732289.253 0  83168023.509 0        50.000  
        48.000                                                  
  20643975.447    20643970.014   108484773.815 0  84533596.935 0        47.000  
        49.000                                                  
  23673277.638    23673275.690   124403668.313 0  96937863.116 0        43.000  
        43.000                                                  
  22907350.184    22907345.127   120378600.969 0  93801515.394 0        46.000  
        45.000                                                  
  22926234.900    22926229.146   120478563.254 0  93879404.162 0        46.000  
        43.000                                                  
  22697333.573                   119274909.455 0                        46.000  
                                                                
  23507810.986                   123534741.440 0                        43.000  
                                                                
  21313924.805                   112006070.827 0                        45.000  
                                                                
  23013490.625    23013484.514   120937096.270 0  94236702.024 0        43.000  
        40.000                                                  
 22  1 15  4  0 19.0000000  0  0
 22  1 15  4  0 20.0000000  0  5E02E07E08E13E26
  28166179.698                   148013933.799 0                        36.000  
                  28166178.090   113413273.896          43.000  
  23468998.431                   123331174.125 0                        49.000  
                  23468996.930    94500516.518          53.000  
  24257453.005                   127473201.978 0                        42.000  
                  24257449.575    97674680.402          46.000  
  26329973.979                   138364972.344 0                        41.000  
                  26329972.371   106019916.455          45.000  
  23811224.279                   125128844.821 0                        49.000  
                  23811221.885    95877938.427          53.000  
 22  1 15  4  0 21.0000000  0 10G01G03G04G06G09G17G19G21G22G31
  21531644.537    21531642.446   113149305.926 0  88168294.517 0        45.000  
        47.000                                                  
  20310544.374    20310541.068   106732597.682 0  83168263.835 0        50.000  
        48.000                                                  
  20643713.773    20643708.305   108483398.627 0  84532525.360 0        48.000  
        49.000                                                  
  23672656.278    23672654.402   124400403.548 0  96935319.144 0        43.000  
        43.000                                                  
  22906765.277    22906760.166   120375527.017 0  93799120.102 0        45.000  
        45.000                                                  
  22926514.997    22926509.225   120480035.135 0  93880551.080 0        46.000  
        43.000                                                  
  22697405.139                   119275285.214 0                        46.000  
                                                                
  23508393.784                   123537804.564 0                        43.000  
                                                                
  21314223.593                   112007640.815 0                        45.000  
                                                                
  23013825.151    23013818.933   120938854.072 0  94238071.733 0        43.000  
        40.000                                                  
 22  1 15  4  0 20.0000000  0  0
 22  1 15  4  0 21.0000000  0  5E02E07E08E13E26
  28165883.376                   148012376.012 0                        36.000  
                  28165881.500   113412080.303          43.000  
  23469073.588                   123331569.413 0                        49.000  
                  23469072.159    94500819.405          53.000  
  24257904.716                   127475576.551 0                        42.000  
                  24257901.500    97676499.894          46.000  
  26330554.776                   138368024.777 0                        41.000  
                  26330553.204   106022255.335          45.000  
  23811398.502                   125129760.794 0                        49.000  
                  23811396.269    95878640.275          53.000  
 22  1 15  4  0 22.0000000  0 10G01G03G04G06G09G17G19G21G22G31
  21532196.886    21532194.885   113152208.656 0  88170556.386 0        45.000  
        47.000                                                  
  20310603.217    20310599.732   106732906.406 0  83168504.407 0        50.000  
        48.000                                                  
  20643452.152    20643446.756   108482023.876 0  84531454.130 0        48.000  
        49.000                                                  
  23672035.062    23672033.203   124397138.960 0  96932775.302 0        43.000  
        43.000                                                  
  22906180.317    22906175.170   120372453.274 0  93796724.974 0        45.000  
        45.000                                                  
  22926795.219    22926789.447   120481507.474 0  93881698.348 0        46.000  
        43.000                                                  
  22697476.829                   119275661.601 0                        46.000  
                                                                
  23508976.689                   123540867.849 0                        43.000  
                                                                
  21314522.398                   112009211.047 0                        45.000  
                                                                
  23014159.874    23014153.584   120940612.441 0  94239441.904 0        43.000  
        40.000                                                  
 22  1 15  4  0 21.0000000  0  0
 22  1 15  4  0 22.0000000  0  5E02E07E08E13E26
  28165587.411                   148010818.542 0                        36.000  
                  28165585.178   113410886.890          43.000  
  23469148.906                   123331964.924 0                        49.000  
                  23469147.441    94501122.461          53.000  
  24258356.535                   127477951.139 0                        42.000  
                  24258353.390    97678319.392          46.000  
  26331135.484                   138371077.320 0                        42.000  
                  26331134.126   106024594.296          45.000  
  23811572.976                   125130677.167 0                        49.000  
                  23811570.617    95879342.432          53.000  
 22  1 15  4  0 23.0000000  0 10G01G03G04G06G09G17G19G21G22G31
  21532749.378    21532747.270   113155112.120 0  88172818.819 0        45.000  
        47.000                                                  
  20310662.078    20310658.522   106733215.835 0  83168745.516 0        50.000  
        49.000                                                  
  20643190.657    20643185.421   108480649.941 0  84530383.538 0        48.000  
        49.000                                                  
  23671413.970    23671412.112   124393874.911 0  96930231.896 0        43.000  
        43.000                                                  
  22905595.517    22905590.389   120369380.131 0  93794330.325 0        46.000  
        45.000                                                  
  22927075.619    22927069.705   120482980.614 0  93882846.263 0        46.000  
        43.000                                                  
  22697548.645                   119276039.003 0                        46.000  
                                                                
  23509559.684                   123543931.651 0                        43.000  
                                                                
  21314821.204                   112010781.893 0                        45.000  
                                                                
  23014494.668    23014488.432   120942371.748 0  94240812.774 0        43.000  
        40.000                                                  
 22  1 15  4  0 22.0000000  0  0
 22  1 15  4  0 23.0000000  0  5E02E07E08E13E26
  28165291.339                   148009261.741 0                        36.000  
                  28165288.784   113409694.027          43.000  
  23469224.492                   123332361.048 0                        49.000  
                  23469222.777    94501425.980          53.000  
  24258808.192                   127480326.146 0                        42.000  
                  24258805.315    97680139.196          46.000  
  26331716.406                   138374130.332 0                        41.000  
                  26331715.048   106026933.612          45.000  
  23811747.610                   125131594.302 0                        49.000  
                  23811745.179    95880045.170          53.000  
 22  1 15  4  0 24.0000000  0 10G01G03G04G06G09G17G19G21G22G31
  21533302.031    21533299.905   113158016.191 0  88175081.734 0        45.000  
        47.000                                                  
  20310720.956    20310717.489   106733525.821 0  83168987.063 0        50.000  
        49.000                                                  
  20642929.305    20642923.980   108479276.701 0  84529313.479 0        47.000  
        49.000                                                  
  23670792.897    23670791.056   124390611.267 0  96927688.790 0        44.000  
        42.000                                                  
  22905010.807    22905005.607   120366307.447 0  93791936.026 0        46.000  
        45.000                                                  
  22927356.074    22927350.123   120484454.470 0  93883994.711 0        46.000  
        43.000                                                  
  22697620.532                   119276417.295 0                        46.000  
                                                                
  23510142.732                   123546995.867 0                        43.000  
                                                                
  21315120.350                   112012353.231 0                        45.000  
                                                                
  23014829.623    23014823.476   120944131.854 0  94242184.313 0        43.000  
        40.000                                                  
 22  1 15  4  0 23.0000000  0  0
 22  1 15  4  0 24.0000000  0  5E02E07E08E13E26
  28164995.303                   148007705.482 0                        37.000  
                  28164992.641   113408501.556          43.000  
  23469300.007                   123332757.645 0                        49.000  
                  23469298.273    94501729.868          53.000  
  24259260.225                   127482701.409 0                        41.000  
                  24259257.330    97681959.194          46.000  
  26332297.524                   138377183.684 0                        41.000  
                  26332296.059   106029273.205          45.000  
  23811922.297                   125132512.086 0                        49.000  
                  23811919.706    95880748.410          53.000  
 22  1 15  4  0 25.0000000  0 10G01G03G04G06G09G17G19G21G22G31
  21533854.684    21533852.558   113160920.450 0  88177344.790 0        45.000  
        47.000                                                  
  20310780.067    20310776.564   106733835.966 0  83169228.732 0        50.000  
        49.000                                                  
  20642668.060    20642662.610   108477903.749 0  84528243.641 0        47.000  
        49.000                                                  
  23670171.769    23670169.982   124387347.662 0  96925145.723 0        44.000  
        42.000                                                  
  22904426.079    22904420.897   120363234.815 0  93789541.779 0        46.000  
        45.000                                                  
  22927636.582    22927630.649   120485928.596 0  93885143.373 0        46.000  
        43.000                                                  
  22697692.526                   119276796.079 0                        46.000  
                                                                
  23510725.763                   123550060.071 0                        43.000  
                                                                
  21315419.370                   112013924.652 0                        45.000  
                                                                
  23015164.721    23015158.592   120945892.382 0  94243556.139 0        43.000  
        40.000                                                  
 22  1 15  4  0 24.0000000  0  0
 22  1 15  4  0 25.0000000  0  5E02E07E08E13E26
  28164699.267                   148006149.333 0                        36.000  
                  28164696.640   113407309.202          43.000  
  23469375.360                   123333154.321 0                        49.000  
                  23469373.663    94502033.812          53.000  
  24259712.186                   127485076.531 0                        41.000  
                  24259709.238    97683779.095          46.000  
  26332878.589                   138380237.010 0                        41.000  
                  26332877.106   106031612.760          45.000  
  23812097.038                   125133430.108 0                        49.000  
                  23812094.447    95881451.829          53.000  
 22  1 15  4  0 26.0000000  0 10G01G03G04G06G09G17G19G21G22G31
  21534407.338    21534405.175   113163824.929 0  88179608.018 0        45.000  
        47.000                                                  
  20310839.088    20310835.550   106734146.290 0  83169470.539 0        50.000  
        48.000                                                  
  20642406.797    20642401.400   108476531.091 0  84527174.042 0        47.000  
        49.000                                                  
  23669550.821    23669548.837   124384084.074 0  96922602.656 0        43.000  
        42.000                                                  
  22903841.351    22903836.222   120360162.278 0  93787147.575 0        45.000  
        45.000                                                  
  22927917.215    22927911.371   120487403.028 0  93886292.292 0        46.000  
        43.000                                                  
  22697764.699                   119277175.360 0                        45.000  
                                                                
  23511308.811                   123553124.278 0                        43.000  
                                                                
  21315718.444                   112015496.178 0                        45.000  
                                                                
  23015499.783    23015493.797   120947653.318 0  94244928.288 0        43.000  
        40.000                                                  
 22  1 15  4  0 25.0000000  0  0
 22  1 15  4  0 26.0000000  0  5E02E07E08E13E26
  28164403.052                   148004593.368 0                        36.000  
                  28164400.569   113406116.965          43.000  
  23469450.893                   123333551.076 0                        49.000  
                  23469449.249    94502337.824          53.000  
  24260164.201                   127487451.533 0                        41.000  
                  24260161.217    97685598.908          46.000  
  26333459.725                   138383290.274 0                        41.000  
                  26333458.117   106033952.276          45.000  
  23812271.726                   125134348.373 0                        49.000  
                  23812269.135    95882155.435          53.000  
 22  1 15  4  0 27.0000000  0 10G01G03G04G06G09G17G19G21G22G31
  21534960.152    21534957.989   113166730.097 0  88181871.788 0        45.000  
        47.000                                                  
  20310898.270    20310894.625   106734457.247 0  83169712.850 0        50.000  
        48.000                                                  
  20642145.748    20642140.369   108475159.216 0  84526105.041 0        47.000  
        49.000                                                  
  23668929.944    23668927.817   124380820.967 0  96920059.990 0        43.000  
        42.000                                                  
  22903256.766    22903251.548   120357090.265 0  93784753.804 0        45.000  
        45.000                                                  
  22928197.955    22928192.022   120488878.245 0  93887441.799 0        46.000  
        43.000                                                  
  22697837.033                   119277555.620 0                        45.000  
                                                                
  23511892.020                   123556188.974 0                        43.000  
                                                                
  21316017.696                   112017068.259 0                        45.000  
                                                                
  23015834.988    23015829.127   120949415.149 0  94246301.148 0        43.000  
        40.000                                                  
 22  1 15  4  0 26.0000000  0  0
 22  1 15  4  0 27.0000000  0  5E02E07E08E13E26
  28164107.052                   148003037.993 0                        36.000  
                  28164104.497   113404925.188          43.000  
  23469526.246                   123333948.400 0                        49.000  
                  23469524.799    94502642.263          53.000  
  24260616.287                   127489826.884 0                        41.000  
                  24260613.339    97687418.973          46.000  
  26334040.612                   138386343.970 0                        42.000  
                  26334039.200   106036292.107          45.000  
  23812446.592                   125135267.372 0                        49.000  
                  23812444.037    95882859.598          53.000  
 22  1 15  4  0 28.0000000  0 10G01G03G04G06G09G17G19G21G22G31
  21535513.269    21535511.107   113169636.522 0  88184136.527 0        45.000  
        47.000                                                  
  20310957.613    20310954.147   106734769.414 0  83169956.097 0        50.000  
        48.000                                                  
  20641884.860    20641879.571   108473788.676 0  84525037.093 0        47.000  
        49.000                                                  
  23668309.156    23668306.976   124377558.946 0  96917518.148 0        44.000  
        42.000                                                  
  22902672.413    22902667.195   120354019.371 0  93782360.890 0        45.000  
        45.000                                                  
  22928478.945    22928473.156   120490354.804 0  93888592.373 0        46.000  
        43.000                                                  
  22697909.635                   119277937.424 0                        45.000  
                                                                
  23512475.354                   123559254.731 0                        43.000  
                                                                
  21316317.074                   112018641.502 0                        45.000  
                                                                
  23016170.532    23016164.707   120951178.448 0  94247675.147 0        43.000  
        40.000                                                  
 22  1 15  4  0 27.0000000  0  0
 22  1 15  4  0 28.0000000  0  5E02E07E08E13E26
  28163811.588                   148001483.847 0                        37.000  
                  28163808.657   113403734.336          43.000  
  23469602.351                   123334346.866 0                        49.000  
                  23469600.653    94502947.576          53.000  
  24261068.266                   127492203.153 0                        41.000  
                  24261065.425    97689239.762          46.000  
  26334622.052                   138389398.660 0                        42.000  
                  26334620.587   106038632.728          45.000  
  23812621.726                   125136187.668 0                        49.000  
                  23812619.243    95883564.767          53.000  
 22  1 15  4  0 29.0000000  0 10G01G03G04G06G09G17G19G21G22G31
  21536066.262    21536064.064   113172542.582 0  88186400.997 0        45.000  
        47.000                                                  
  20311016.903    20311013.436   106735081.179 0  83170199.030 0        50.000  
        48.000                                                  
  20641624.026    20641618.737   108472417.863 0  84523968.927 0        47.000  
        49.000                                                  
  23667688.404    23667686.117   124374296.377 0  96914975.889 0        44.000  
        42.000                                                  
  22902087.899    22902082.717   120350947.969 0  93779967.608 0        45.000  
        45.000                                                  
  22928759.864    22928754.039   120491831.090 0  93889742.717 0        46.000  
        43.000                                                  
  22697982.272                   119278319.146 0                        45.000  
                                                                
  23513058.617                   123562319.906 0                        43.000  
                                                                
  21316616.344                   112020214.252 0                        45.000  
                                                                
  23016506.005    23016500.180   120952941.567 0  94249049.024 0        43.000  
        40.000                                                  
 22  1 15  4  0 28.0000000  0  0
 22  1 15  4  0 29.0000000  0  5E02E07E08E13E26
  28163515.802                   147999929.253 0                        37.000  
                  28163512.871   113402543.151          43.000  
  23469677.990                   123334744.821 0                        49.000  
                  23469676.400    94503252.507          53.000  
  24261520.460                   127494578.739 0                        41.000  
                  24261517.475    97691060.009          46.000  
  26335203.260                   138392452.752 0                        42.000  
                  26335201.812   106040972.869          45.000  
  23812796.718                   125137107.638 0                        49.000  
                  23812794.341    95884269.672          53.000  
 22  1 15  4  0 30.0000000  0 10G01G03G04G06G09G17G19G21G22G31
  21536619.183    21536617.075   113175448.575 0  88188665.400 0        45.000  
        47.000                                                  
  20311076.353    20311072.761   106735392.829 0  83170441.879 0        50.000  
        48.000                                                  
  20641363.138    20641357.849   108471047.053 0  84522900.770 0        47.000  
        49.000                                                  
  23667067.581    23667065.168   124371033.540 0  96912433.423 0        44.000  
        42.000                                                  
  22901503.350    22901498.097   120347876.352 0  93777574.136 0        45.000  
        44.000                                                  
  22929040.747    22929035.011   120493307.387 0  93890893.078 0        46.000  
        43.000                                                  
  22698054.928                   119278701.088 0                        45.000  
                                                                
  23513641.826                   123565384.808 0                        43.000  
                                                                
  21316915.543                   112021786.817 0                        44.000  
                                                                
  23016841.550    23016835.689   120954704.830 0  94250422.988 0        43.000  
        40.000                                                  
 22  1 15  4  0 29.0000000  0  0
 22  1 15  4  0 30.0000000  0  5E02E07E08E13E26
  28163220.123                   147998374.520 0                        37.000  
                  28163217.050   113401351.858          43.000  
  23469753.844                   123335142.591 0                        49.000  
                  23469752.022    94503557.288          53.000  
  24261972.510                   127496953.902 0                        41.000  
                  24261969.472    97692879.940          46.000  
  26335784.450                   138395506.500 0                        42.000  
                  26335782.841   106043312.759          45.000  
  23812971.959                   125138027.570 0                        49.000  
                  23812969.368    95884974.557          53.000  
 22  1 15  4  0 31.0000000  0 10G01G03G04G06G09G17G19G21G22G31
  21537172.283    21537170.246   113178355.008 0  88190930.158 0        45.000  
        47.000                                                  
  20311135.750    20311132.229   106735704.881 0  83170685.034 0        50.000  
        49.000                                                  
  20641102.429    20641097.087   108469676.788 0  84521833.032 0        47.000  
        49.000                                                  
  23666446.793    23666444.202   124367770.976 0  96909891.156 0        44.000  
        42.000                                                  
  22900918.926    22900913.619   120344805.050 0  93775180.918 0        45.000  
        44.000                                                  
  22929321.845    22929316.091   120494784.222 0  93892043.852 0        46.000  
        43.000                                                  
  22698127.726                   119279083.746 0                        45.000  
                                                                
  23514225.089                   123568449.954 0                        43.000  
                                                                
  21317214.849                   112023359.719 0                        45.000  
                                                                
  23017177.255    23017171.323   120956468.733 0  94251797.440 0        43.000  
        40.000                                                  
 22  1 15  4  0 30.0000000  0  0
 22  1 15  4  0 31.0000000  0  5E02E07E08E13E26
  28162924.498                   147996820.172 0                        37.000  
                  28162921.353   113400160.866          43.000  
  23469829.662                   123335540.670 0                        49.000  
                  23469827.751    94503862.320          53.000  
  24262424.436                   127499329.179 0                        41.000  
                  24262421.416    97694699.960          46.000  
  26336365.657                   138398560.448 0                        42.000  
                  26336363.996   106045652.792          45.000  
  23813147.076                   125138947.992 0                        49.000  
                  23813144.520    95885679.813          53.000  
 22  1 15  4  0 32.0000000  0 10G01G03G04G06G09G17G19G21G22G31
  21537725.472    21537723.435   113181261.979 0  88193195.328 0        45.000  
        47.000                                                  
  20311195.307    20311191.608   106736017.435 0  83170928.578 0        50.000  
        48.000                                                  
  20640841.631    20640836.431   108468307.138 0  84520765.769 0        47.000  
        49.000                                                  
  23665825.987    23665823.307   124364508.762 0  96907349.169 0        43.000  
        42.000                                                  
  22900334.519    22900329.284   120341734.121 0  93772787.993 0        45.000  
        45.000                                                  
  22929602.960    22929597.278   120496261.661 0  93893195.116 0        46.000  
        43.000                                                  
  22698200.650                   119279467.237 0                        45.000  
                                                                
  23514808.423                   123571515.422 0                        43.000  
                                                                
  21317514.334                   112024933.033 0                        45.000  
                                                                
  23017513.032    23017507.189   120958233.352 0  94253172.486 0        43.000  
        40.000                                                  
 22  1 15  4  0 31.0000000  0  0
 22  1 15  4  0 32.0000000  0  5E02E07E08E13E26
  28162628.712                   147995266.273 0                        37.000  
                  28162625.424   113398970.237          43.000  
  23469905.374                   123335939.159 0                        49.000  
                  23469903.694    94504167.654          53.000  
  24262876.629                   127501704.662 0                        42.000  
                  24262873.520    97696520.124          46.000  
  26336946.794                   138401614.675 0                        42.000  
                  26336944.971   106047993.040          45.000  
  23813322.371                   125139868.971 0                        49.000  
                  23813319.708    95886385.501          53.000  
 22  1 15  4  0 33.0000000  0 10G01G03G04G06G09G17G19G21G22G31
  21538278.912    21538276.714   113184169.747 0  88195461.112 0        45.000  
        47.000                                                  
  20311254.918    20311251.130   106736330.720 0  83171172.703 0        50.000  
        48.000                                                  
  20640581.208    20640576.026   108466938.373 0  84519699.199 0        47.000  
        49.000                                                  
  23665205.360    23665202.626   124361247.134 0  96904807.652 0        43.000  
        42.000                                                  
  22899750.113    22899745.110   120338663.857 0  93770395.573 0        45.000  
        45.000                                                  
  22929884.290    22929878.679   120497739.998 0  93894347.067 0        46.000  
        43.000                                                  
  22698273.841                   119279851.814 0                        45.000  
                                                                
  23515391.811                   123574581.475 0                        43.000  
                                                                
  21317813.944                   112026507.027 0                        45.000  
                                                                
  23017849.059    23017843.198   120959998.980 0  94254548.300 0        43.000  
        40.000                                                  
 22  1 15  4  0 32.0000000  0  0
 22  1 15  4  0 33.0000000  0  5E02E07E08E13E26
  28162333.266                   147993713.143 0                        37.000  
                  28162329.888   113397780.153          43.000  
  23469981.478                   123336338.329 0                        49.000  
                  23469979.584    94504473.509          53.000  
  24263328.930                   127504080.577 0                        42.000  
                  24263325.588    97698340.641          46.000  
  26337527.984                   138404669.421 0                        42.000  
                  26337526.429   106050333.698          45.000  
  23813497.684                   125140790.796 0                        49.000  
                  23813495.075    95887091.832          53.000  
 22  1 15  4  0 34.0000000  0 10G01G03G04G06G09G17G19G21G22G31
  21538832.369    21538830.082   113187078.226 0  88197727.459 0        45.000  
        47.000                                                  
  20311314.618    20311310.830   106736644.714 0  83171417.367 0        50.000  
        48.000                                                  
  20640320.892    20640315.674   108465570.430 0  84518633.263 0        47.000  
        49.000                                                  
  23664584.733    23664582.035   124357986.067 0  96902266.554 0        43.000  
        42.000                                                  
  22899166.010    22899160.900   120335594.198 0  93768003.622 0        45.000  
        45.000                                                  
  22930165.781    22930160.188   120499219.153 0  93895499.652 0        46.000  
        43.000                                                  
  22698347.301                   119280237.404 0                        45.000  
                                                                
  23515975.360                   123577648.070 0                        43.000  
                                                                
  21318113.590                   112028081.634 0                        45.000  
                                                                
  23018185.282    23018179.421   120961765.541 0  94255924.830 0        43.000  
        40.000                                                  
 22  1 15  4  0 33.0000000  0  0
 22  1 15  4  0 34.0000000  0  5E02E07E08E13E26
  28162037.766                   147992160.658 0                        36.000  
                  28162034.585   113396590.594          43.000  
  23470057.510                   123336738.095 0                        49.000  
                  23470055.723    94504779.821          53.000  
  24263781.123                   127506456.908 0                        42.000  
                  24263777.782    97700161.457          46.000  
  26338109.138                   138407724.657 0                        42.000  
                  26338107.905   106052674.721          45.000  
  23813673.175                   125141713.387 0                        49.000  
                  23813670.692    95887798.755          53.000  
 22  1 15  4  0 35.0000000  0 10G01G03G04G06G09G17G19G21G22G31
  21539385.844    21539383.575   113189986.643 0  88199993.760 0        45.000  
        47.000                                                  
  20311374.319    20311370.584   106736958.574 0  83171661.936 0        50.000  
        48.000                                                  
  20640060.612    20640055.305   108464202.481 0  84517567.335 0        47.000  
        49.000                                                  
  23663964.160    23663961.408   124354724.739 0  96899725.259 0        44.000  
        42.000                                                  
  22898581.765    22898576.815   120332524.293 0  93765611.494 0        45.000  
        45.000                                                  
  22930447.272    22930441.732   120500698.312 0  93896652.236 0        46.000  
        43.000                                                  
  22698420.582                   119280623.190 0                        45.000  
                                                                
  23516558.730                   123580714.364 0                        43.000  
                                                                
  21318413.217                   112029656.048 0                        45.000  
                                                                
  23018521.524    23018515.573   120963532.220 0  94257301.454 0        43.000  
        40.000                                                  
 22  1 15  4  0 34.0000000  0  0
 22  1 15  4  0 35.0000000  0  5E02E07E08E13E26
  28161742.373                   147990608.033 0                        37.000  
                  28161739.031   113395400.909          43.000  
  23470133.525                   123337137.658 0                        49.000  
                  23470131.703    94505085.978          53.000  
  24264233.299                   127508832.813 0                        42.000  
                  24264229.850    97701981.958          46.000  
  26338690.614                   138410779.565 0                        42.000  
                  26338689.113   106055015.488          45.000  
  23813848.810                   125142635.942 0                        49.000  
                  23813846.237    95888505.645          53.000  
 22  1 15  4  0 36.0000000  0 10G01G03G04G06G09G17G19G21G22G31
  21539939.319    21539937.068   113192895.197 0  88202260.166 0        45.000  
        47.000                                                  
  20311434.037    20311430.303   106737272.546 0  83171906.587 0        50.000  
        48.000                                                  
  20639800.260    20639795.078   108462834.776 0  84516501.593 0        47.000  
        49.000                                                  
  23663343.498    23663340.674   124351463.369 0  96897183.937 0        44.000  
        42.000                                                  
  22897997.519    22897992.605   120329454.399 0  93763219.378 0        45.000  
        45.000                                                  
  22930728.780    22930723.241   120502177.717 0  93897805.026 0        46.000  
        43.000                                                  
  22698494.148                   119281009.431 0                        45.000  
                                                                
  23517142.261                   123583780.610 0                        43.000  
                                                                
  21318712.774                   112031230.494 0                        45.000  
                                                                
  23018857.837    23018851.851   120965299.248 0  94258678.368 0        43.000  
        40.000                                                  
 22  1 15  4  0 35.0000000  0  0
 22  1 15  4  0 36.0000000  0  5E02E07E08E13E26
  28161447.141                   147989055.510 0                        37.000  
                  28161443.638   113394211.300          43.000  
  23470209.629                   123337537.248 0                        49.000  
                  23470207.825    94505392.157          53.000  
  24264685.349                   127511208.540 0                        42.000  
                  24264681.990    97703802.320          46.000  
  26339272.018                   138413834.370 0                        42.000  
                  26339270.374   106057356.182          45.000  
  23814024.534                   125143558.676 0                        49.000  
                  23814021.764    95889212.678          53.000  
 22  1 15  4  0 37.0000000  0 10G01G03G04G06G09G17G19G21G22G31
  21540492.937    21540490.757   113195804.278 0  88204526.984 0        46.000  
        47.000                                                  
  20311493.863    20311490.217   106737586.992 0  83172151.617 0        50.000  
        49.000                                                  
  20639540.159    20639534.905   108461467.681 0  84515436.320 0        47.000  
        49.000                                                  
  23662723.031    23662720.119   124348202.334 0  96894642.868 0        44.000  
        42.000                                                  
  22897413.381    22897408.377   120326384.884 0  93760827.555 0        45.000  
        45.000                                                  
  22931010.360    22931004.857   120503657.715 0  93898958.280 0        46.000  
        43.000                                                  
  22698567.858                   119281396.458 0                        45.000  
                                                                
  23517725.863                   123586847.167 0                        43.000  
                                                                
  21319012.384                   112032805.342 0                        45.000  
                                                                
  23019194.203    23019188.253   120967067.016 0  94260055.863 0        43.000  
        40.000                                                  
 22  1 15  4  0 36.0000000  0  0
 22  1 15  4  0 37.0000000  0  5E02E07E08E13E26
  28161151.623                   147987503.434 0                        37.000  
                  28161148.085   113393022.060          43.000  
  23470285.662                   123337937.231 0                        49.000  
                  23470283.893    94505698.644          53.000  
  24265137.275                   127513584.439 0                        42.000  
                  24265134.255    97705622.817          46.000  
  26339853.351                   138416889.415 0                        42.000  
                  26339851.743   106059697.064          45.000  
  23814200.240                   125144481.980 0                        49.000  
                  23814197.560    95889920.147          53.000  
 22  1 15  4  0 38.0000000  0 10G01G03G04G06G09G17G19G21G22G31
  21541046.627    21541044.357   113198713.842 0  88206794.177 0        46.000  
        47.000                                                  
  20311553.760    20311550.222   106737901.891 0  83172396.985 0        50.000  
        49.000                                                  
  20639280.093    20639274.804   108460101.146 0  84514371.494 0        47.000  
        49.000                                                  
  23662102.530    23662099.528   124344941.590 0  96892102.022 0        43.000  
        42.000                                                  
  22896829.296    22896824.436   120323315.729 0  93758435.995 0        45.000  
        45.000                                                  
  22931292.173    22931286.651   120505138.297 0  93900111.964 0        46.000  
        43.000                                                  
  22698641.657                   119281784.278 0                        45.000  
                                                                
  23518309.537                   123589914.006 0                        43.000  
                                                                
  21319312.333                   112034380.580 0                        45.000  
                                                                
  23019530.730    23019524.762   120968835.464 0  94261433.870 0        43.000  
        40.000                                                  
 22  1 15  4  0 37.0000000  0  0
 22  1 15  4  0 38.0000000  0  5E02E07E08E13E26
  28160856.409                   147985951.779 0                        37.000  
                  28160852.871   113391833.125          43.000  
  23470361.856                   123338337.578 0                        49.000  
                  23470360.015    94506005.397          53.000  
  24265589.397                   127515960.503 0                        42.000  
                  24265586.395    97707443.430          46.000  
  26340434.827                   138419944.698 0                        42.000  
                  26340433.147   106062038.134          45.000  
  23814376.179                   125145405.797 0                        49.000  
                  23814373.302    95890628.002          53.000  
 22  1 15  4  0 39.0000000  0 10G01G03G04G06G09G17G19G21G22G31
  21541600.477    21541598.172   113201624.266 0  88209062.047 0        46.000  
        47.000                                                  
  20311613.871    20311610.279   106738217.614 0  83172643.001 0        50.000  
        48.000                                                  
  20639020.188    20639014.934   108458735.577 0  84513307.415 0        47.000  
        49.000                                                  
  23661482.189    23661479.222   124341681.535 0  96889561.731 0        43.000  
        42.000                                                  
  22896245.193    22896240.458   120320247.285 0  93756045.009 0        45.000  
        45.000                                                  
  22931574.200    22931568.589   120506619.841 0  93901266.421 0        46.000  
        43.000                                                  
  22698715.671                   119282173.251 0                        45.000  
                                                                
  23518893.246                   123592981.511 0                        43.000  
                                                                
  21319612.247                   112035956.555 0                        45.000  
                                                                
  23019867.365    23019861.486   120970604.992 0  94262812.727 0        43.000  
        40.000                                                  
 22  1 15  4  0 38.0000000  0  0
 22  1 15  4  0 39.0000000  0  5E02E07E08E13E26
  28160561.266                   147984400.906 0                        36.000  
                  28160557.871   113390644.809          43.000  
  23470438.210                   123338738.655 0                        49.000  
                  23470436.280    94506312.722          53.000  
  24266041.894                   127518337.090 0                        42.000  
                  24266038.571    97709264.451          46.000  
  26341016.142                   138423000.595 0                        42.000  
                  26341014.731   106064379.660          45.000  
  23814551.992                   125146330.518 0                        49.000  
                  23814549.347    95891336.561          53.000  
 22  1 15  4  0 40.0000000  0 10G01G03G04G06G09G17G19G21G22G31
  21542154.435    21542151.897   113204534.687 0  88211329.901 0        46.000  
        47.000                                                  
  20311673.947    20311670.337   106738533.276 0  83172888.978 0        50.000  
        49.000                                                  
  20638760.408    20638755.119   108457370.079 0  84512243.392 0        48.000  
        49.000                                                  
  23660861.830    23660858.828   124338421.284 0  96887021.270 0        43.000  
        42.000                                                  
  22895661.234    22895656.534   120317178.683 0  93753653.892 0        45.000  
        45.000                                                  
  22931856.208    22931850.526   120508101.450 0  93902420.924 0        46.000  
        43.000                                                  
  22698789.702                   119282562.479 0                        45.000  
                                                                
  23519476.884                   123596048.785 0                        43.000  
                                                                
  21319912.143                   112037532.398 0                        45.000  
                                                                
  23020204.125    23020198.192   120972374.708 0  94264191.738 0        43.000  
        40.000                                                  
 22  1 15  4  0 39.0000000  0  0
 22  1 15  4  0 40.0000000  0  5E02E07E08E13E26
  28160266.231                   147982849.973 0                        37.000  
                  28160262.907   113389456.428          43.000  
  23470514.475                   123339139.595 0                        49.000  
                  23470512.652    94506619.936          53.000  
  24266494.106                   127520713.327 0                        42.000  
                  24266490.728    97711085.197          46.000  
  26341597.690                   138426056.236 0                        42.000  
                  26341596.260   106066720.998          45.000  
  23814727.912                   125147255.274 0                        49.000  
                  23814725.214    95892045.138          53.000  
 22  1 15  4  0 41.0000000  0 10G01G03G04G06G09G17G19G21G22G31
  21542708.303    21542705.765   113207445.528 0  88213598.075 0        46.000  
        47.000                                                  
  20311733.987    20311730.466   106738849.316 0  83173135.234 0        50.000  
        48.000                                                  
  20638500.646    20638495.536   108456005.085 0  84511179.756 0        48.000  
        49.000                                                  
  23660241.471    23660238.433   124335161.279 0  96884481.007 0        43.000  
        42.000                                                  
  22895077.310    22895072.682   120314110.370 0  93751262.990 0        45.000  
        45.000                                                  
  22932138.182    22932132.446   120509583.567 0  93903575.825 0        46.000  
        43.000                                                  
  22698863.948                   119282952.429 0                        45.000  
                                                                
  23520060.630                   123599116.266 0                        43.000  
                                                                
  21320212.181                   112039108.549 0                        45.000  
                                                                
  23020541.099    23020535.005   120974145.061 0  94265571.216 0        43.000  
        40.000                                                  
 22  1 15  4  0 40.0000000  0  0
 22  1 15  4  0 41.0000000  0  5E02E07E08E13E26
  28159971.142                   147981299.411 0                        37.000  
                  28159967.764   113388268.326          43.000  
  23470590.811                   123339540.837 0                        49.000  
                  23470589.078    94506927.379          53.000  
  24266946.424                   127523089.643 0                        42.000  
                  24266942.975    97712906.022          46.000  
  26342179.183                   138429112.044 0                        42.000  
                  26342177.789   106069062.441          45.000  
  23814903.976                   125148180.488 0                        49.000  
                  23814901.295    95892754.066          53.000  
 22  1 15  4  0 42.0000000  0 10G01G03G04G06G09G17G19G21G22G31
  21543262.386    21543259.902   113210356.979 0  88215866.754 0        46.000  
        47.000                                                  
  20311794.205    20311790.667   106739165.925 0  83173381.949 0        50.000  
        48.000                                                  
  20638241.134    20638235.988   108454640.789 0  84510116.669 0        48.000  
        49.000                                                  
  23659621.273    23659618.146   124331901.690 0  96881941.068 0        43.000  
        42.000                                                  
  22894493.511    22894488.990   120311042.534 0  93748872.475 0        45.000  
        45.000                                                  
  22932420.351    22932414.562   120511066.393 0  93904731.267 0        46.000  
        43.000                                                  
  22698938.265                   119283343.271 0                        46.000  
                                                                
  23520644.339                   123602184.185 0                        43.000  
                                                                
  21320512.256                   112040685.193 0                        45.000  
                                                                
  23020878.108    23020872.069   120975916.221 0  94266951.358 0        43.000  
        40.000                                                  
 22  1 15  4  0 41.0000000  0  0
 22  1 15  4  0 42.0000000  0  5E02E07E08E13E26
  28159676.035                   147979749.394 0                        36.000  
                  28159672.711   113387080.666          43.000  
  23470667.255                   123339942.565 0                        49.000  
                  23470665.379    94507235.199          53.000  
  24267398.850                   127525466.241 0                        42.000  
                  24267395.097    97714727.043          46.000  
  26342760.802                   138432168.190 0                        42.000  
                  26342759.247   106071404.181          45.000  
  23815080.236                   125149106.351 0                        49.000  
                  23815077.484    95893463.500          53.000  
 22  1 15  4  0 43.0000000  0 10G01G03G04G06G09G17G19G21G22G31
  21543816.504    21543814.056   113213268.847 0  88218135.731 0        46.000  
        47.000                                                  
  20311854.567    20311851.064   106739482.928 0  83173628.969 0        50.000  
        48.000                                                  
  20637981.605    20637976.458   108453277.016 0  84509053.997 0        48.000  
        49.000                                                  
  23659001.057    23658997.894   124328642.366 0  96879401.344 0        43.000  
        42.000                                                  
  22893909.766    22893905.245   120307974.996 0  93746482.189 0        45.000  
        45.000                                                  
  22932702.664    22932696.821   120512549.736 0  93905887.114 0        46.000  
        43.000                                                  
  22699012.725                   119283734.841 0                        46.000  
                                                                
  23521228.227                   123605252.324 0                        43.000  
                                                                
  21320812.277                   112042262.160 0                        45.000  
                                                                
  23021215.225    23021209.239   120977688.029 0  94268331.972 0        43.000  
        40.000                                                  
 22  1 15  4  0 42.0000000  0  0
 22  1 15  4  0 43.0000000  0  5E02E07E08E13E26
  28159381.321                   147978199.735 0                        36.000  
                  28159377.747   113385893.254          43.000  
  23470743.699                   123340344.603 0                        49.000  
                  23470741.965    94507543.251          53.000  
  24267850.954                   127527842.930 0                        42.000  
                  24267847.523    97716548.149          46.000  
  26343342.367                   138435224.530 0                        42.000  
                  26343340.813   106073746.043          45.000  
  23815256.460                   125150032.689 0                        49.000  
                  23815253.762    95894173.285          53.000  
 22  1 15  4  0 44.0000000  0 10G01G03G04G06G09G17G19G21G22G31
  21544370.587    21544368.210   113216180.905 0  88220404.869 0        46.000  
        47.000                                                  
  20311914.803    20311911.337   106739800.059 0  83173876.078 0        50.000  
        48.000                                                  
  20637722.146    20637716.929   108451913.498 0  84507991.520 0        48.000  
        49.000                                                  
  23658380.877    23658377.714   124325383.013 0  96876861.572 0        43.000  
        42.000                                                  
  22893326.038    22893321.589   120304907.468 0  93744091.902 0        45.000  
        45.000                                                  
  22932985.013    22932979.116   120514033.338 0  93907043.160 0        46.000  
        43.000                                                  
  22699087.311                   119284126.857 0                        46.000  
                                                                
  23521812.062                   123608320.401 0                        43.000  
                                                                
  21321112.351                   112043839.176 0                        45.000  
                                                                
  23021552.521    23021546.535   120979460.198 0  94269712.906 0        43.000  
        40.000                                                  
 22  1 15  4  0 43.0000000  0  0
 22  1 15  4  0 44.0000000  0  5E02E07E08E13E26
  28159086.178                   147976650.203 0                        36.000  
                  28159082.908   113384705.955          43.000  
  23470820.375                   123340746.678 0                        49.000  
                  23470818.534    94507851.339          53.000  
  24268303.148                   127530219.461 0                        42.000  
                  24268299.681    97718369.120          46.000  
  26343923.968                   138438280.778 0                        42.000  
                  26343922.485   106076087.842          45.000  
  23815432.863                   125150959.226 0                        49.000  
                  23815430.129    95894883.231          53.000  
 22  1 15  4  0 45.0000000  0 10G01G03G04G06G09G17G19G21G22G31
  21544924.866    21544922.364   113219093.337 0  88222674.310 0        46.000  
        47.000                                                  
  20311975.165    20311971.788   106740117.549 0  83174123.472 0        50.000  
        48.000                                                  
  20637462.742    20637457.506   108450550.470 0  84506929.412 0        48.000  
        49.000                                                  
  23657760.714    23657757.534   124322123.879 0  96874321.981 0        43.000  
        42.000                                                  
  22892742.275    22892737.897   120301840.203 0  93741701.833 0        45.000  
        45.000                                                  
  22933267.415    22933261.518   120515517.423 0  93908199.595 0        46.000  
        43.000                                                  
  22699161.967                   119284519.562 0                        45.000  
                                                                
  23522396.022                   123611388.690 0                        43.000  
                                                                
  21321412.461                   112045416.489 0                        45.000  
                                                                
  23021889.888    23021883.831   120981232.978 0  94271094.279 0        43.000  
        40.000                                                  
 22  1 15  4  0 44.0000000  0  0
 22  1 15  4  0 45.0000000  0  5E02E07E08E13E26
  28158791.304                   147975100.964 0                        36.000  
                  28158788.212   113383518.893          43.000  
  23470896.890                   123341149.032 0                        49.000  
                  23470895.085    94508159.639          53.000  
  24268755.198                   127532596.044 0                        42.000  
                  24268752.017    97720190.150          46.000  
  26344505.569                   138441337.162 0                        42.000  
                  26344504.032   106078429.762          45.000  
  23815609.087                   125151886.207 0                        49.000  
                  23815606.622    95895593.515          53.000  
 22  1 15  4  0 46.0000000  0 10G01G03G04G06G09G17G19G21G22G31
  21545479.127    21545476.697   113222006.308 0  88224944.151 0        46.000  
        47.000                                                  
  20312035.687    20312032.256   106740435.511 0  83174371.235 0        50.000  
        48.000                                                  
  20637203.498    20637198.209   108449188.044 0  84505867.781 0        48.000  
        49.000                                                  
  23657140.588    23657137.443   124318865.054 0  96871782.641 0        43.000  
        42.000                                                  
  22892158.637    22892154.402   120298773.311 0  93739312.049 0        45.000  
        45.000                                                  
  22933549.906    22933543.973   120517002.110 0  93909356.501 0        46.000  
        43.000                                                  
  22699236.874                   119284913.072 0                        45.000  
                                                                
  23522980.017                   123614457.301 0                        43.000  
                                                                
  21321712.679                   112046994.189 0                        45.000  
                                                                
  23022227.380    23022221.305   120983006.476 0  94272476.221 0        43.000  
        40.000                                                  
 22  1 15  4  0 45.0000000  0  0
 22  1 15  4  0 46.0000000  0  5E02E07E08E13E26
  28158496.572                   147973552.229 0                        36.000  
                  28158493.391   113382332.185          43.000  
  23470973.548                   123341551.764 0                        49.000  
                  23470971.707    94508468.224          53.000  
  24269207.642                   127534972.806 0                        42.000  
                  24269204.229    97722011.303          46.000  
  26345087.206                   138444393.809 0                        42.000  
                  26345085.848   106080771.848          45.000  
  23815785.598                   125152813.739 0                        49.000  
                  23815783.060    95896304.219          53.000  
 22  1 15  4  0 47.0000000  0 10G01G03G04G06G09G17G19G21G22G31
  21546033.639    21546031.209   113224919.831 0  88227214.422 0        46.000  
        47.000                                                  
  20312096.263    20312092.832   106740753.990 0  83174619.403 0        50.000  
        48.000                                                  
  20636944.290    20636939.054   108447826.260 0  84504806.653 0        48.000  
        49.000                                                  
  23656520.568    23656517.495   124315606.637 0  96869243.612 0        43.000  
        42.000                                                  
  22891575.089    22891570.925   120295706.839 0  93736922.590 0        45.000  
        45.000                                                  
  22933832.612    22933826.554   120518487.446 0  93910513.894 0        46.000  
        43.000                                                  
  22699311.889                   119285307.429 0                        46.000  
                                                                
  23523563.959                   123617526.253 0                        43.000  
                                                                
  21322012.968                   112048572.345 0                        45.000  
                                                                
  23022565.016    23022558.904   120984780.734 0  94273858.763 0        43.000  
        40.000                                                  
 22  1 15  4  0 46.0000000  0  0
 22  1 15  4  0 47.0000000  0  5E02E07E08E13E26
  28158202.073                   147972003.991 0                        36.000  
                  28158198.713   113381145.845          43.000  
  23471050.242                   123341954.925 0                        49.000  
                  23471048.401    94508777.146          53.000  
  24269660.139                   127537349.801 0                        42.000  
                  24269656.672    97723832.628          46.000  
  26345669.075                   138447450.768 0                        42.000  
                  26345667.520   106083114.195          45.000  
  23815962.322                   125153741.864 0                        49.000  
                  23815959.606    95897015.382          53.000  
 22  1 15  4  0 48.0000000  0 10G01G03G04G06G09G17G19G21G22G31
  21546588.204    21546585.631   113227833.647 0  88229484.939 0        46.000  
        47.000                                                  
  20312156.928    20312153.462   106741072.721 0  83174867.762 0        49.000  
        48.000                                                  
  20636685.207    20636680.096   108446464.867 0  84503745.825 0        48.000  
        49.000                                                  
  23655900.478    23655897.440   124312348.322 0  96866704.663 0        43.000  
        42.000                                                  
  22890991.540    22890987.484   120292640.528 0  93734533.259 0        45.000  
        45.000                                                  
  22934115.407    22934109.314   120519973.166 0  93911671.598 0        46.000  
        43.000                                                  
  22699387.046                   119285702.368 0                        46.000  
                                                                
  23524147.918                   123620595.296 0                        42.000  
                                                                
  21322313.257                   112050150.685 0                        45.000  
                                                                
  23022902.597    23022896.700   120986555.495 0  94275241.697 0        43.000  
        40.000                                                  
 22  1 15  4  0 47.0000000  0  0
 22  1 15  4  0 48.0000000  0  5E02E07E08E13E26
  28157907.430                   147970455.949 0                        36.000  
                  28157904.267   113379959.715          43.000  
  23471126.811                   123342358.280 0                        49.000  
                  23471125.238    94509086.203          53.000  
  24270112.315                   127539726.754 0                        42.000  
                  24270108.955    97725653.925          46.000  
  26346250.926                   138450507.753 0                        42.000  
                  26346249.264   106085456.572          45.000  
  23816138.993                   125154670.335 0                        49.000  
                  23816136.242    95897726.806          53.000  
 22  1 15  4  0 49.0000000  0 10G01G03G04G06G09G17G19G21G22G31
  21547142.698    21547140.178   113230747.895 0  88231755.770 0        46.000  
        47.000                                                  
  20312217.755    20312214.270   106741391.836 0  83175116.428 0        50.000  
        49.000                                                  
  20636426.231    20636421.031   108445103.976 0  84502685.394 0        48.000  
        49.000                                                  
  23655280.405    23655277.492   124309090.242 0  96864165.911 0        43.000  
        42.000                                                  
  22890408.098    22890404.024   120289574.505 0  93732144.150 0        45.000  
        45.000                                                  
  22934398.220    22934392.162   120521459.403 0  93912829.702 0        46.000  
        43.000                                                  
  22699462.292                   119286098.005 0                        46.000  
                                                                
  23524732.021                   123623664.562 0                        43.000  
                                                                
  21322613.724                   112051729.330 0                        45.000  
                                                                
  23023240.465    23023234.461   120988330.883 0  94276625.123 0        43.000  
        40.000                                                  
 22  1 15  4  0 48.0000000  0  0
 22  1 15  4  0 49.0000000  0  5E02E07E08E13E26
  28157612.842                   147968908.309 0                        36.000  
                  28157609.714   113378773.839          43.000  
  23471203.862                   123342761.919 0                        49.000  
                  23471201.932    94509395.490          53.000  
  24270564.580                   127542103.780 0                        42.000  
                  24270561.363    97727475.294          46.000  
  26346832.688                   138453564.917 0                        42.000  
                  26346831.097   106087799.063          45.000  
  23816315.861                   125155599.267 0                        49.000  
                  23816313.109    95898438.583          53.000  
 22  1 15  4  0 50.0000000  0 10G01G03G04G06G09G17G19G21G22G31
  21547697.334    21547694.850   113233662.275 0  88234026.725 0        46.000  
        47.000                                                  
  20312278.474    20312275.025   106741711.057 0  83175365.167 0        50.000  
        49.000                                                  
  20636167.255    20636162.145   108443743.331 0  84501625.147 0        48.000  
        49.000                                                  
  23654660.403    23654657.526   124305832.127 0  96861627.106 0        43.000  
        42.000                                                  
  22889824.639    22889820.547   120286508.488 0  93729755.046 0        45.000  
        45.000                                                  
  22934681.069    22934674.958   120522945.871 0  93913987.998 0        46.000  
        43.000                                                  
  22699537.682                   119286494.097 0                        46.000  
                                                                
  23525316.142                   123626733.766 0                        42.000  
                                                                
  21322914.192                   112053308.004 0                        45.000  
                                                                
  23023578.457    23023572.239   120990106.629 0  94278008.813 0        43.000  
        40.000                                                  
 22  1 15  4  0 49.0000000  0  0
 22  1 15  4  0 50.0000000  0  5E02E07E08E13E26
  28157318.324                   147967360.702 0                        36.000  
                  28157315.197   113377588.045          43.000  
  23471280.609                   123343165.599 0                        49.000  
                  23471278.822    94509704.796          53.000  
  24271016.863                   127544480.625 0                        42.000  
                  24271013.682    97729296.526          46.000  
  26347414.450                   138456621.976 0                        42.000  
                  26347412.841   106090141.495          45.000  
  23816492.550                   125156528.387 0                        49.000  
                  23816489.923    95899150.510          53.000  
 22  1 15  4  0 51.0000000  0 10G01G03G04G06G09G17G19G21G22G31
  21548252.006    21548249.612   113236577.329 0  88236298.193 0        46.000  
        47.000                                                  
  20312339.246    20312335.851   106742030.906 0  83175614.407 0        50.000  
        49.000                                                  
  20635908.458    20635903.401   108442383.443 0  84500565.496 0        48.000  
        49.000                                                  
  23654040.491    23654037.650   124302574.496 0  96859088.702 0        43.000  
        42.000                                                  
  22889241.233    22889237.123   120283442.999 0  93727366.355 0        45.000  
        45.000                                                  
  22934964.025    22934957.967   120524433.096 0  93915146.873 0        46.000  
        43.000                                                  
  22699613.214                   119286891.136 0                        46.000  
                                                                
  23525900.316                   123629803.440 0                        42.000  
                                                                
  21323214.749                   112054887.237 0                        45.000  
                                                                
  23023916.557    23023910.303   120991883.259 0  94279393.190 0        43.000  
        40.000                                                  
 22  1 15  4  0 50.0000000  0  0
 22  1 15  4  0 51.0000000  0  5E02E07E08E13E26
  28157024.057                   147965813.760 0                        37.000  
                  28157020.769   113376402.711          43.000  
  23471357.553                   123343569.814 0                        49.000  
                  23471355.713    94510014.521          53.000  
  24271469.378                   127546857.815 0                        42.000  
                  24271466.036    97731118.008          46.000  
  26347996.336                   138459679.439 0                        42.000  
                  26347994.603   106092484.232          45.000  
  23816669.525                   125157458.217 0                        49.000  
                  23816666.809    95899862.975          53.000  
 22  1 15  4  0 52.0000000  0 10G01G03G04G06G09G17G19G21G22G31
  21548806.786    21548804.445   113239493.003 0  88238570.138 0        46.000  
        47.000                                                  
  20312400.197    20312396.749   106742351.342 0  83175864.097 0        50.000  
        48.000                                                  
  20635649.840    20635644.872   108441024.256 0  84499506.390 0        48.000  
        49.000                                                  
  23653420.597    23653417.791   124299317.288 0  96856550.631 0        43.000  
        42.000                                                  
  22888657.899    22888653.843   120280377.982 0  93724978.017 0        45.000  
        45.000                                                  
  22935247.159    22935241.155   120525921.026 0  93916306.301 0        46.000  
        43.000                                                  
  22699688.961                   119287289.074 0                        45.000  
                                                                
  23526484.418                   123632873.524 0                        42.000  
                                                                
  21323515.270                   112056466.970 0                        45.000  
                                                                
  23024254.782    23024248.474   120993660.686 0  94280778.203 0        43.000  
        40.000                                                  
 22  1 15  4  0 51.0000000  0  0
 22  1 15  4  0 52.0000000  0  5E02E07E08E13E26
  28156729.665                   147964267.344 0                        36.000  
                  28156726.467   113375217.804          43.000  
  23471434.444                   123343974.521 0                        49.000  
                  23471432.746    94510324.620          53.000  
  24271921.750                   127549235.285 0                        42.000  
                  24271918.498    97732939.696          46.000  
  26348578.170                   138462737.281 0                        42.000  
                  26348576.579   106094827.235          45.000  
  23816846.499                   125158388.710 0                        49.000  
                  23816843.944    95900575.948          53.000  
 22  1 15  4  0 53.0000000  0 10G01G03G04G06G09G17G19G21G22G31
  21549361.655    21549359.296   113242408.759 0  88240842.158 0        46.000  
        47.000                                                  
  20312461.166    20312457.736   106742671.822 0  83176113.815 0        50.000  
        49.000                                                  
  20635391.257    20635386.415   108439665.243 0  84498447.420 0        48.000  
        49.000                                                  
  23652800.828    23652797.933   124296060.009 0  96854012.483 0        43.000  
        42.000                                                  
  22888074.601    22888070.526   120277312.924 0  93722589.667 0        45.000  
        45.000                                                  
  22935530.401    22935524.290   120527409.144 0  93917465.866 0        46.000  
        43.000                                                  
  22699764.725                   119287687.402 0                        46.000  
                                                                
  23527068.575                   123635943.488 0                        42.000  
                                                                
  21323815.952                   112058046.690 0                        45.000  
                                                                
  23024593.060    23024586.824   120995438.425 0  94282163.431 0        43.000  
        40.000                                                  
 22  1 15  4  0 52.0000000  0  0
 22  1 15  4  0 53.0000000  0  5E02E07E08E13E26
  28156435.309                   147962720.981 0                        36.000  
                  28156432.199   113374032.912          43.000  
  23471511.513                   123344379.187 0                        49.000  
                  23471509.708    94510634.686          53.000  
  24272373.961                   127551612.511 0                        42.000  
                  24272370.798    97734761.194          46.000  
  26349160.110                   138465794.950 0                        42.000  
                  26349158.395   106097170.134          45.000  
  23817023.724                   125159319.317 0                        49.000  
                  23817020.990    95901289.011          53.000  
 22  1 15  4  0 54.0000000  0 10G01G03G04G06G09G17G19G21G22G31
  21549916.542    21549914.219   113245325.152 0  88243114.676 0        46.000  
        47.000                                                  
  20312522.332    20312518.830   106742992.883 0  83176363.992 0        50.000  
        49.000                                                  
  20635132.836    20635127.850   108438306.954 0  84497389.018 0        48.000  
        49.000                                                  
  23652181.005    23652178.199   124292803.182 0  96851474.691 0        43.000  
        42.000                                                  
  22887491.338    22887487.442   120274248.348 0  93720201.699 0        45.000  
        45.000                                                  
  22935813.750    22935807.621   120528897.962 0  93918625.985 0        46.000  
        43.000                                                  
  22699840.704                   119288086.634 0                        46.000  
                                                                
  23527652.677                   123639013.893 0                        43.000  
                                                                
  21324116.563                   112059626.917 0                        45.000  
                                                                
  23024931.535    23024925.335   120997216.991 0  94283549.330 0        43.000  
        40.000                                                  
 22  1 15  4  0 53.0000000  0  0
 22  1 15  4  0 54.0000000  0  5E02E07E08E13E26
  28156141.113                   147961175.172 0                        36.000  
                  28156137.932   113372848.466          43.000  
  23471588.600                   123344784.370 0                        49.000  
                  23471586.777    94510945.151          53.000  
  24272826.548                   127553990.022 0                        42.000  
                  24272823.117    97736582.934          46.000  
  26349741.854                   138468852.994 0                        42.000  
                  26349740.317   106099513.313          45.000  
  23817200.967                   125160250.602 0                        49.000  
                  23817198.180    95902002.593          53.000  
 22  1 15  4  0 55.0000000  0 10G01G03G04G06G09G17G19G21G22G31
  21550471.571    21550469.302   113248241.817 0  88245387.403 0        46.000  
        47.000                                                  
  20312583.444    20312580.031   106743314.190 0  83176614.364 0        50.000  
        49.000                                                  
  20634874.467    20634869.393   108436949.032 0  84496330.893 0        48.000  
        49.000                                                  
  23651561.271    23651558.448   124289546.437 0  96848936.958 0        43.000  
        42.000                                                  
  22886908.254    22886904.412   120271183.912 0  93717813.820 0        45.000  
        45.000                                                  
  22936097.117    22936090.988   120530387.157 0  93919786.398 0        46.000  
        43.000                                                  
  22699916.719                   119288486.429 0                        45.000  
                                                                
  23528237.030                   123642084.353 0                        43.000  
                                                                
  21324417.263                   112061207.308 0                        45.000  
                                                                
  23025270.136    23025263.774   120998996.036 0  94284935.619 0        43.000  
        40.000                                                  
 22  1 15  4  0 54.0000000  0  0
 22  1 15  4  0 55.0000000  0  5E02E07E08E13E26
  28155847.168                   147959629.569 0                        37.000  
                  28155844.005   113371664.190          42.000  
  23471665.544                   123345189.694 0                        49.000  
                  23471663.953    94511255.726          53.000  
  24273278.723                   127556367.468 0                        42.000  
                  24273275.632    97738404.624          46.000  
  26350324.045                   138471911.059 0                        42.000  
                  26350322.276   106101856.499          45.000  
  23817378.264                   125161182.202 0                        49.000  
                  23817375.565    95902716.416          53.000  
 22  1 15  4  0 56.0000000  0 10G01G03G04G06G09G17G19G21G22G31
  21551026.619    21551024.403   113251159.020 0  88247660.555 0        47.000  
        47.000                                                  
  20312644.663    20312641.233   106743635.982 0  83176865.108 0        50.000  
        49.000                                                  
  20634616.206    20634611.167   108435591.726 0  84495273.257 0        48.000  
        49.000                                                  
  23650941.556    23650938.768   124286290.050 0  96846399.523 0        43.000  
        41.000                                                  
  22886325.187    22886321.363   120268119.875 0  93715426.262 0        45.000  
        45.000                                                  
  22936380.591    22936374.480   120531876.967 0  93920947.292 0        46.000  
        43.000                                                  
  22699992.895                   119288887.051 0                        46.000  
                                                                
  23528821.347                   123645155.150 0                        43.000  
                                                                
  21324718.088                   112062788.130 0                        45.000  
                                                                
  23025608.807    23025602.428   121000775.832 0  94286322.463 0        43.000  
        40.000                                                  
 22  1 15  4  0 55.0000000  0  0
 22  1 15  4  0 56.0000000  0  5E02E07E08E13E26
  28155553.079                   147958084.458 0                        37.000  
                  28155549.845   113370480.259          42.000  
  23471742.649                   123345595.428 0                        49.000  
                  23471741.201    94511566.616          53.000  
  24273731.149                   127558745.131 0                        42.000  
                  24273728.058    97740226.461          46.000  
  26350905.896                   138474969.386 0                        42.000  
                  26350904.180   106104199.903          45.000  
  23817555.650                   125162114.388 0                        49.000  
                  23817552.898    95903430.684          53.000  
 22  1 15  4  0 57.0000000  0 10G01G03G04G06G09G17G19G21G22G31
  21551581.792    21551579.522   113254076.455 0  88249933.869 0        47.000  
        47.000                                                  
  20312705.883    20312702.577   106743957.973 0  83177116.008 0        50.000  
        49.000                                                  
  20634357.892    20634352.942   108434234.741 0  84494215.861 0        48.000  
        49.000                                                  
  23650321.912    23650319.053   124283033.699 0  96843862.113 0        43.000  
        41.000                                                  
  22885742.157    22885738.315   120265055.924 0  93713038.771 0        45.000  
        45.000                                                  
  22936664.173    22936657.990   120533367.101 0  93922108.439 0        46.000  
        43.000                                                  
  22700069.285                   119289288.199 0                        46.000  
                                                                
  23529405.700                   123648225.977 0                        43.000  
                                                                
  21325018.931                   112064369.070 0                        45.000  
                                                                
  23025947.532    23025941.117   121002556.044 0  94287709.651 0        43.000  
        39.000                                                  
 22  1 15  4  0 56.0000000  0  0
 22  1 15  4  0 57.0000000  0  5E02E07E08E13E26
  28155259.045                   147956539.527 0                        37.000  
                  28155255.792   113369296.460          42.000  
  23471819.968                   123346001.268 0                        49.000  
                  23471818.378    94511877.584          53.000  
  24274183.521                   127561122.686 0                        42.000  
                  24274180.573    97742048.217          46.000  
  26351487.854                   138478027.715 0                        42.000  
                  26351486.228   106106543.289          45.000  
  23817733.071                   125163046.827 0                        49.000  
                  23817730.337    95904145.152          53.000  
 22  1 15  4  0 58.0000000  0 10G01G03G04G06G09G17G19G21G22G31
  21552137.143    21552134.820   113256994.364 0  88252207.567 0        47.000  
        47.000                                                  
  20312767.263    20312763.939   106744280.390 0  83177367.244 0        50.000  
        48.000                                                  
  20634099.702    20634094.806   108432878.309 0  84493158.906 0        48.000  
        49.000                                                  
  23649702.250    23649699.462   124279777.644 0  96841324.928 0        43.000  
        41.000                                                  
  22885159.073    22885155.303   120261992.316 0  93710651.537 0        45.000  
        45.000                                                  
  22936947.808    22936941.572   120534857.789 0  93923270.008 0        46.000  
        43.000                                                  
  22700145.711                   119289690.090 0                        46.000  
                                                                
  23529990.106                   123651297.062 0                        43.000  
                                                                
  21325319.827                   112065950.354 0                        45.000  
                                                                
  23026286.472    23026280.003   121004336.935 0  94289097.356 0        43.000  
        39.000                                                  
 22  1 15  4  0 57.0000000  0  0
 22  1 15  4  0 58.0000000  0  5E02E07E08E13E26
  28154965.188                   147954994.965 0                        36.000  
                  28154961.811   113368112.996          42.000  
  23471897.394                   123346407.463 0                        49.000  
                  23471895.697    94512188.818          53.000  
  24274636.108                   127563500.367 0                        42.000  
                  24274633.035    97743870.079          46.000  
  26352069.723                   138481086.240 0                        42.000  
                  26352068.240   106108886.843          45.000  
  23817910.475                   125163979.782 0                        49.000  
                  23817907.955    95904860.016          53.000  
 22  1 15  4  0 59.0000000  0 10G01G03G04G06G09G17G19G21G22G31
  21552692.584    21552690.189   113259912.773 0  88254481.656 0        47.000  
        47.000                                                  
  20312828.768    20312825.284   106744603.279 0  83177618.851 0        49.000  
        48.000                                                  
  20633841.745    20633836.688   108431522.489 0  84492102.422 0        48.000  
        49.000                                                  
  23649082.713    23649079.925   124276521.932 0  96838788.009 0        43.000  
        41.000                                                  
  22884576.168    22884572.397   120258929.080 0  93708264.608 0        45.000  
        45.000                                                  
  22937231.586    22937225.350   120536349.076 0  93924432.042 0        46.000  
        43.000                                                  
  22700222.315                   119290092.787 0                        45.000  
                                                                
  23530574.548                   123654368.444 0                        43.000  
                                                                
  21325620.831                   112067532.036 0                        45.000  
                                                                
  23026625.537    23026618.961   121006118.544 0  94290485.611 0        43.000  
        39.000                                                  
 22  1 15  4  0 58.0000000  0  0
 22  1 15  4  0 59.0000000  0  5E02E07E08E13E26
  28154671.297                   147953450.909 0                        36.000  
                  28154667.812   113366929.852          42.000  
  23471974.571                   123346814.031 0                        49.000  
                  23471972.980    94512500.350          53.000  
  24275088.641                   127565878.226 0                        42.000  
                  24275085.514    97745692.075          46.000  
  26352651.932                   138484145.033 0                        42.000  
                  26352650.163   106111230.589          45.000  
  23818088.307                   125164913.288 0                        49.000  
                  23818085.555    95905575.298          53.000  
 22  1 15  4  1  0.0000000  0 10G01G03G04G06G09G17G19G21G22G31
  21553248.042    21553245.666   113262831.725 0  88256756.159 0        47.000  
        47.000                                                  
  20312890.255    20312886.717   106744926.661 0  83177870.830 0        50.000  
        48.000                                                  
  20633583.877    20633578.802   108430167.299 0  84491046.425 0        48.000  
        49.000                                                  
  23648463.283    23648460.388   124273266.560 0  96836251.354 0        43.000  
        41.000                                                  
  22883993.298    22883989.456   120255866.244 0  93705877.977 0        45.000  
        45.000                                                  
  22937515.507    22937509.253   120537840.990 0  93925594.576 0        46.000  
        43.000                                                  
  22700299.045                   119290496.320 0                        45.000  
                                                                
  23531159.098                   123657440.186 0                        43.000  
                                                                
  21325921.942                   112069114.170 0                        45.000  
                                                                
  23026964.691    23026958.043   121007900.910 0  94291874.466 0        43.000  
        39.000                                                  
 22  1 15  4  0 59.0000000  0  0
 22  1 15  4  1  0.0000000  0  5E02E07E08E13E26
  28154377.387                   147951907.292 0                        36.000  
                  28154374.206   113365747.103          42.000  
  23472052.015                   123347221.033 0                        49.000  
                  23472050.478    94512812.205          53.000  
  24275541.174                   127568256.309 0                        42.000  
                  24275538.047    97747514.229          46.000  
  26353233.962                   138487204.116 0                        42.000  
                  26353232.407   106113574.564          45.000  
  23818265.907                   125165847.382 0                        49.000  
                  23818263.299    95906291.035          53.000  
 22  1 15  4  1  1.0000000  0 10G01G03G04G06G09G17G19G21G22G31
  21553803.555    21553801.089   113265750.720 0  88259030.704 0        47.000  
        47.000                                                  
  20312951.832    20312948.276   106745250.055 0  83178122.834 0        49.000  
        48.000                                                  
  20633326.027    20633320.881   108428812.232 0  84489990.536 0        48.000  
        49.000                                                  
  23647843.728    23647840.959   124270011.071 0  96833714.591 0        43.000  
        41.000                                                  
  22883410.500    22883406.765   120252803.314 0  93703491.285 0        45.000  
        45.000                                                  
  22937799.517    22937793.102   120539333.034 0  93926757.219 0        46.000  
        43.000                                                  
  22700375.864                   119290900.165 0                        45.000  
                                                                
  23531743.629                   123660511.726 0                        43.000  
                                                                
  21326222.963                   112070696.211 0                        45.000  
                                                                
  23027304.024    23027297.180   121009683.508 0  94293263.510 0        43.000  
        39.000                                                  
 22  1 15  4  1  0.0000000  0  0
 22  1 15  4  1  1.0000000  0  5E02E07E08E13E26
  28154083.727                   147950363.687 0                        36.000  
                  28154080.439   113364564.323          42.000  
  23472129.531                   123347627.933 0                        49.000  
                  23472127.869    94513123.992          53.000  
  24275993.564                   127570634.061 0                        42.000  
                  24275990.491    97749336.158          46.000  
  26353816.063                   138490262.971 0                        42.000  
                  26353814.598   106115918.364          45.000  
  23818443.579                   125166781.543 0                        49.000  
                  23818441.060    95907006.825          53.000  
 22  1 15  4  1  2.0000000  0 10G01G03G04G06G09G17G19G21G22G31
  21554359.102    21554356.744   113268670.200 0  88261305.621 0        47.000  
        47.000                                                  
  20313013.480    20313009.924   106745573.895 0  83178375.177 0        49.000  
        48.000                                                  
  20633068.356    20633063.120   108427457.740 0  84488935.090 0        48.000  
        49.000                                                  
  23647224.245    23647221.493   124266755.864 0  96831178.082 0        43.000  
        41.000                                                  
  22882827.666    22882823.878   120249740.715 0  93701104.851 0        45.000  
        45.000                                                  
  22938083.563    22938077.184   120540825.650 0  93927920.296 0        46.000  
        43.000                                                  
  22700452.790                   119291304.796 0                        45.000  
                                                                
  23532328.179                   123663583.571 0                        43.000  
                                                                
  21326524.038                   112072278.627 0                        45.000  
                                                                
  23027643.321    23027636.638   121011466.787 0  94294653.083 0        43.000  
        39.000                                                  
 22  1 15  4  1  1.0000000  0  0
 22  1 15  4  1  2.0000000  0  5E02E07E08E13E26
  28153789.979                   147948820.463 0                        36.000  
                  28153786.691   113363381.882          42.000  
  23472206.957                   123348035.208 0                        49.000  
                  23472205.510    94513436.062          53.000  
  24276446.258                   127573012.006 0                        42.000  
                  24276442.934    97751158.207          46.000  
  26354398.128                   138493322.072 0                        42.000  
                  26354396.699   106118262.348          45.000  
  23818621.412                   125167716.238 0                        49.000  
                  23818618.964    95907723.020          53.000  
 22  1 15  4  1  3.0000000  0 10G01G03G04G06G09G17G19G21G22G31
  21554914.793    21554912.345   113271590.188 0  88263580.936 0        47.000  
        47.000                                                  
  20313075.128    20313071.572   106745898.189 0  83178627.872 0        49.000  
        49.000                                                  
  20632810.702    20632805.538   108426103.842 0  84487880.104 0        48.000  
        49.000                                                  
  23646604.833    23646602.117   124263500.995 0  96828641.811 0        43.000  
        41.000                                                  
  22882244.850    22882241.151   120246678.492 0  93698718.710 0        45.000  
        45.000                                                  
  22938367.806    22938361.426   120542318.859 0  93929083.838 0        46.000  
        43.000                                                  
  22700530.002                   119291710.225 0                        45.000  
                                                                
  23532912.764                   123666655.710 0                        42.000  
                                                                
  21326825.274                   112073861.430 0                        45.000  
                                                                
  23027982.743    23027976.024   121013250.785 0  94296043.197 0        43.000  
        39.000                                                  
 22  1 15  4  1  2.0000000  0  0
 22  1 15  4  1  3.0000000  0  5E02E07E08E13E26
  28153496.087                   147947277.704 0                        36.000  
                  28153493.281   113362199.767          42.000  
  23472284.598                   123348442.856 0                        49.000  
                  23472282.936    94513748.413          53.000  
  24276898.755                   127575390.080 0                        42.000  
                  24276895.557    97752980.381          46.000  
  26354980.480                   138496381.407 0                        42.000  
                  26354978.818   106120606.512          45.000  
  23818799.405                   125168651.473 0                        49.000  
                  23818796.814    95908439.629          53.000  
 22  1 15  4  1  4.0000000  0 10G01G03G04G06G09G17G19G21G22G31
  21555470.591    21555468.179   113274510.791 0  88265856.733 0        47.000  
        47.000                                                  
  20313136.848    20313133.435   106746223.071 0  83178881.024 0        49.000  
        49.000                                                  
  20632553.085    20632548.081   108424750.647 0  84486825.665 0        48.000  
        49.000                                                  
  23645985.511    23645982.759   124260246.548 0  96826105.871 0        43.000  
        41.000                                                  
  22881662.194    22881658.585   120243616.765 0  93696332.935 0        45.000  
        45.000                                                  
  22938652.084    22938645.579   120543812.772 0  93930247.916 0        46.000  
        43.000                                                  
  22700607.428                   119292116.541 0                        45.000  
                                                                
  23533497.367                   123669728.259 0                        42.000  
                                                                
  21327126.475                   112075444.750 0                        45.000  
                                                                
  23028322.397    23028315.696   121015035.605 0  94297433.968 0        43.000  
        39.000                                                  
 22  1 15  4  1  3.0000000  0  0
 22  1 15  4  1  4.0000000  0  5E02E07E08E13E26
  28153202.409                   147945735.507 0                        36.000  
                  28153199.818   113361018.089          42.000  
  23472362.114                   123348850.996 0                        49.000  
                  23472360.774    94514061.140          53.000  
  24277351.217                   127577768.456 0                        42.000  
                  24277348.197    97754802.766          46.000  
  26355562.653                   138499441.118 0                        42.000  
                  26355561.134   106122950.964          45.000  
  23818977.523                   125169587.375 0                        49.000  
                  23818974.932    95909156.745          53.000  
 22  1 15  4  1  5.0000000  0 10G01G03G04G06G09G17G19G21G22G31
  21556026.532    21556024.013   113277431.897 0  88268132.917 0        47.000  
        47.000                                                  
  20313198.800    20313195.387   106746548.419 0  83179134.540 0        49.000  
        49.000                                                  
  20632295.628    20632290.785   108423398.054 0  84485771.694 0        48.000  
        49.000                                                  
  23645366.349    23645363.490   124256992.441 0  96823570.215 0        43.000  
        41.000                                                  
  22881079.629    22881076.019   120240555.398 0  93693947.455 0        45.000  
        45.000                                                  
  22938936.416    22938930.019   120545307.286 0  93931412.469 0        46.000  
        43.000                                                  
  22700684.909                   119292523.666 0                        45.000  
                                                                
  23534082.130                   123672801.114 0                        42.000  
                                                                
  21327427.925                   112077028.457 0                        45.000  
                                                                
  23028662.212    23028655.476   121016821.140 0  94298825.288 0        43.000  
        39.000                                                  
 22  1 15  4  1  4.0000000  0  0
 22  1 15  4  1  5.0000000  0  5E02E07E08E13E26
  28152909.214                   147944193.783 0                        36.000  
                  28152906.427   113359836.757          42.000  
  23472440.041                   123349259.524 0                        49.000  
                  23472438.361    94514374.168          53.000  
  24277803.803                   127580146.997 0                        42.000  
                  24277800.801    97756625.289          46.000  
  26356144.879                   138502501.082 0                        42.000  
                  26356143.432   106125295.609          45.000  
  23819155.749                   125170523.825 0                        49.000  
                  23819153.122    95909874.281          53.000  
 22  1 15  4  1  6.0000000  0 10G01G03G04G06G09G17G19G21G22G31
  21556582.295    21556579.793   113280352.806 0  88270408.945 0        47.000  
        47.000                                                  
  20313260.627    20313257.321   106746873.521 0  83179387.868 0        49.000  
        49.000                                                  
  20632038.189    20632033.364   108422045.344 0  84484717.639 0        48.000  
        49.000                                                  
  23644747.027    23644744.185   124253737.953 0  96821034.248 0        43.000  
        42.000                                                  
  22880496.991    22880493.292   120237493.674 0  93691561.703 0        45.000  
        45.000                                                  
  22939220.783    22939214.315   120546801.681 0  93932576.941 0        46.000  
        43.000                                                  
  22700762.353                   119292930.859 0                        45.000  
                                                                
  23534666.787                   123675873.555 0                        42.000  
                                                                
  21327729.250                   112078611.844 0                        45.000  
                                                                
  23029001.938    23028995.255   121018606.670 0  94300216.635 0        43.000  
        39.000                                                  
 22  1 15  4  1  5.0000000  0  0
 22  1 15  4  1  6.0000000  0  5E02E07E08E13E26
  28152615.930                   147942651.754 0                        36.000  
                  28152612.928   113358655.227          42.000  
  23472517.700                   123349667.724 0                        49.000  
                  23472516.020    94514686.944          53.000  
  24278256.533                   127582525.003 0                        42.000  
                  24278253.281    97758447.398          46.000  
  26356727.123                   138505560.573 0                        42.000  
                  26356725.676   106127639.901          45.000  
  23819333.814                   125171460.107 0                        49.000  
                  23819331.366    95910591.694          53.000  
 22  1 15  4  1  7.0000000  0 10G01G03G04G06G09G17G19G21G22G31
  21557138.325    21557135.663   113283274.257 0  88272685.397 0        47.000  
        47.000                                                  
  20313322.525    20313319.326   106747199.124 0  83179641.588 0        49.000  
        49.000                                                  
  20631780.929    20631776.050   108420693.268 0  84483664.068 0        48.000  
        49.000                                                  
  23644127.901    23644124.899   124250483.814 0  96818498.560 0        43.000  
        42.000                                                  
  22879914.461    22879910.709   120234432.384 0  93689176.273 0        45.000  
        45.000                                                  
  22939505.348    22939498.736   120548296.697 0  93933741.891 0        46.000  
        43.000                                                  
  22700840.047                   119293338.883 0                        45.000  
                                                                
  23535251.461                   123678946.342 0                        42.000  
                                                                
  21328030.629                   112080195.672 0                        45.000  
                                                                
  23029341.878    23029335.052   121020392.948 0  94301608.535 0        43.000  
        39.000                                                  
 22  1 15  4  1  6.0000000  0  0
 22  1 15  4  1  7.0000000  0  5E02E07E08E13E26
  28152322.753                   147941110.247 0                        36.000  
                  28152319.572   113357474.061          42.000  
  23472595.483                   123350076.340 0                        49.000  
                  23472593.840    94515000.041          53.000  
  24278709.173                   127584903.221 0                        42.000  
                  24278705.885    97760269.669          46.000  
  26357309.260                   138508620.364 0                        42.000  
                  26357307.902   106129984.414          45.000  
  23819512.075                   125172396.974 0                        49.000  
                  23819509.591    95911309.551          53.000  
 22  1 15  4  1  8.0000000  0 10G01G03G04G06G09G17G19G21G22G31
  21557694.499    21557691.908   113286196.895 0  88274962.788 0        47.000  
        47.000                                                  
  20313384.638    20313381.528   106747525.884 0  83179896.210 0        49.000  
        49.000                                                  
  20631524.008    20631519.165   108419342.473 0  84482611.508 0        48.000  
        49.000                                                  
  23643508.936    23643505.862   124247230.702 0  96815963.654 0        43.000  
        42.000                                                  
  22879332.092    22879328.411   120231372.130 0  93686791.662 0        45.000  
        45.000                                                  
  22939790.019    22939783.443   120549792.996 0  93934907.840 0        46.000  
        43.000                                                  
  22700917.974                   119293748.385 0                        45.000  
                                                                
  23535836.368                   123682020.118 0                        42.000  
                                                                
  21328332.205                   112081780.576 0                        45.000  
                                                                
  23029681.979    23029675.243   121022180.632 0  94303001.542 0        43.000  
        39.000                                                  
 22  1 15  4  1  7.0000000  0  0
 22  1 15  4  1  8.0000000  0  5E02E07E08E13E26
  28152029.719                   147939569.823 0                        37.000  
                  28152026.574   113356293.749          42.000  
  23472673.392                   123350486.027 0                        49.000  
                  23472671.838    94515313.955          53.000  
  24279161.903                   127587282.307 0                        42.000  
                  24279158.651    97762092.594          46.000  
  26357891.862                   138511681.087 0                        42.000  
                  26357890.307   106132329.646          45.000  
  23819690.694                   125173335.073 0                        49.000  
                  23819688.121    95912028.356          53.000  
 22  1 15  4  1  9.0000000  0 10G01G03G04G06G09G17G19G21G22G31
  21558250.672    21558248.063   113289119.520 0  88277240.151 0        47.000  
        47.000                                                  
  20313446.929    20313443.802   106747852.594 0  83180150.784 0        49.000  
        49.000                                                  
  20631266.908    20631262.137   108417991.753 0  84481559.001 0        48.000  
        49.000                                                  
  23642889.845    23642886.772   124243977.385 0  96813428.608 0        43.000  
        41.000                                                  
  22878749.776    22878746.059   120228311.732 0  93684406.945 0        45.000  
        45.000                                                  
  22940074.744    22940068.204   120551289.388 0  93936073.854 0        46.000  
        43.000                                                  
  22700995.990                   119294158.175 0                        45.000  
                                                                
  23536421.328                   123685093.665 0                        43.000  
                                                                
  21328633.816                   112083365.357 0                        45.000  
                                                                
  23030022.224    23030015.451   121023968.503 0  94304394.684 0        43.000  
        39.000                                                  
 22  1 15  4  1  8.0000000  0  0
 22  1 15  4  1  9.0000000  0  5E02E07E08E13E26
  28151736.613                   147938029.381 0                        37.000  
                  28151733.272   113355113.404          42.000  
  23472751.355                   123350895.573 0                        49.000  
                  23472749.711    94515627.768          53.000  
  24279614.597                   127589661.027 0                        42.000  
                  24279611.380    97763915.254          46.000  
  26358474.070                   138514741.538 0                        42.000  
                  26358472.677   106134674.671          45.000  
  23819869.259                   125174273.205 0                        49.000  
                  23819866.686    95912747.178          53.000  
 22  1 15  4  1 10.0000000  0 10G01G03G04G06G09G17G19G21G22G31
  21558806.881    21558804.236   113292042.175 0  88279517.536 0        47.000  
        47.000                                                  
  20313509.077    20313506.004   106748179.289 0  83180405.354 0        49.000  
        48.000                                                  
  20631009.934    20631005.109   108416641.155 0  84480506.585 0        48.000  
        49.000                                                  
  23642270.702    23642267.646   124240723.909 0  96810893.446 0        43.000  
        42.000                                                  
  22878167.389    22878163.726   120225251.220 0  93682022.133 0        45.000  
        45.000                                                  
  22940359.523    22940353.054   120552785.881 0  93937239.952 0        46.000  
        43.000                                                  
  22701074.132                   119294568.273 0                        45.000  
                                                                
  23537006.182                   123688167.054 0                        42.000  
                                                                
  21328935.356                   112084950.068 0                        45.000  
                                                                
  23030362.485    23030355.660   121025756.603 0  94305788.009 0        43.000  
        39.000                                                  
 22  1 15  4  1  9.0000000  0  0
 22  1 15  4  1 10.0000000  0  5E02E07E08E13E26
  28151443.722                   147936488.887 0                        37.000  
                  28151440.077   113353933.028          42.000  
  23472829.318                   123351305.029 0                        49.000  
                  23472827.727    94515941.506          53.000  
  24280067.237                   127592039.444 0                        42.000  
                  24280063.859    97765737.677          46.000  
  26359056.636                   138517801.777 0                        42.000  
                  26359054.974   106137019.521          45.000  
  23820047.842                   125175211.398 0                        49.000  
                  23820045.180    95913466.057          53.000  
 22  1 15  4  1 11.0000000  0 10G01G03G04G06G09G17G19G21G22G31
  21559363.215    21559360.553   113294965.358 0  88281795.343 0        47.000  
        47.000                                                  
  20313571.262    20313568.242   106748506.471 0  83180660.295 0        49.000  
        48.000                                                  
  20630752.977    20630748.242   108415291.168 0  84479454.644 0        48.000  
        49.000                                                  
  23641651.701    23641648.574   124237470.794 0  96808358.533 0        43.000  
        42.000                                                  
  22877585.091    22877581.392   120222191.095 0  93679637.617 0        45.000  
        45.000                                                  
  22940644.337    22940637.940   120554282.987 0  93938406.537 0        46.000  
        42.000                                                  
  22701152.344                   119294979.183 0                        45.000  
                                                                
  23537591.070                   123691240.748 0                        42.000  
                                                                
  21329236.931                   112086535.181 0                        45.000  
                                                                
  23030702.890    23030696.011   121027545.446 0  94307181.898 0        43.000  
        39.000                                                  
 22  1 15  4  1 10.0000000  0  0
 22  1 15  4  1 11.0000000  0  5E02E07E08E13E26
  28151150.581                   147934948.850 0                        37.000  
                  28151147.025   113352753.015          42.000  
  23472907.048                   123351714.886 0                        49.000  
                  23472905.690    94516255.551          53.000  
  24280519.841                   127594418.058 0                        42.000  
                  24280516.553    97767560.243          46.000  
  26359638.970                   138520862.278 0                        42.000  
                  26359637.415   106139364.586          45.000  
  23820226.407                   125176150.172 0                        49.000  
                  23820223.852    95914185.373          53.000  
 22  1 15  4  1 12.0000000  0 10G01G03G04G06G09G17G19G21G22G31
  21559919.567    21559916.958   113297889.072 0  88284073.564 0        47.000  
        47.000                                                  
  20313633.625    20313630.533   106748834.155 0  83180915.640 0        49.000  
        48.000                                                  
  20630496.271    20630491.428   108413941.821 0  84478403.205 0        48.000  
        49.000                                                  
  23641032.718    23641029.537   124234218.052 0  96805823.922 0        43.000  
        42.000                                                  
  22877002.882    22876999.076   120219131.395 0  93677253.429 0        45.000  
        45.000                                                  
  22940929.330    22940922.808   120555780.741 0  93939573.618 0        45.000  
        42.000                                                  
  22701230.700                   119295390.922 0                        45.000  
                                                                
  23538176.031                   123694314.794 0                        43.000  
                                                                
  21329538.721                   112088120.722 0                        45.000  
                                                                
  23031043.420    23031036.577   121029335.016 0  94308576.380 0        43.000  
        39.000                                                  
 22  1 15  4  1 11.0000000  0  0
 22  1 15  4  1 12.0000000  0  5E02E07E08E13E26
  28150857.654                   147933409.318 0                        37.000  
                  28150854.116   113351573.360          42.000  
  23472985.046                   123352125.157 0                        49.000  
                  23472983.795    94516569.912          53.000  
  24280972.410                   127596796.872 0                        42.000  
                  24280969.176    97769382.983          46.000  
  26360221.357                   138523923.063 0                        42.000  
                  26360219.910   106141709.868          45.000  
  23820405.062                   125177089.518 0                        49.000  
                  23820402.667    95914905.132          53.000  
 22  1 15  4  1 13.0000000  0 10G01G03G04G06G09G17G19G21G22G31
  21560476.044    21560473.400   113300813.168 0  88286352.087 0        47.000  
        47.000                                                  
  20313696.130    20313692.896   106749162.176 0  83181171.238 0        49.000  
        48.000                                                  
  20630239.600    20630234.722   108412592.928 0  84477352.120 0        48.000  
        49.000                                                  
  23640413.735    23640410.536   124230965.489 0  96803289.471 0        43.000  
        42.000                                                  
  22876420.728    22876416.832   120216071.931 0  93674869.433 0        45.000  
        45.000                                                  
  22941214.430    22941207.890   120557278.947 0  93940741.042 0        45.000  
        42.000                                                  
  22701309.252                   119295803.338 0                        45.000  
                                                                
  23538761.080                   123697389.004 0                        43.000  
                                                                
  21329840.475                   112089706.518 0                        45.000  
                                                                
  23031384.093    23031377.232   121031125.171 0  94309971.297 0        43.000  
        39.000                                                  
 22  1 15  4  1 12.0000000  0  0
 22  1 15  4  1 13.0000000  0  5E02E07E08E13E26
  28150564.656                   147931870.121 0                        37.000  
                  28150561.278   113350393.969          42.000  
  23473063.259                   123352535.680 0                        49.000  
                  23473061.776    94516884.476          53.000  
  24281425.086                   127599175.724 0                        42.000  
                  24281421.869    97771205.738          46.000  
  26360803.905                   138526983.980 0                        42.000  
                  26360802.368   106144055.244          45.000  
  23820584.038                   125178029.278 0                        49.000  
                  23820581.375    95915625.212          53.000  
 22  1 15  4  1 14.0000000  0 10G01G03G04G06G09G17G19G21G22G31
  21561032.646    21561030.002   113303738.050 0  88288631.221 0        47.000  
        47.000                                                  
  20313758.672    20313755.384   106749490.940 0  83181427.416 0        49.000  
        48.000                                                  
  20629983.073    20629978.194   108411244.919 0  84476301.721 0        48.000  
        49.000                                                  
  23639794.913    23639791.714   124227713.539 0  96800755.477 0        43.000  
        42.000                                                  
  22875838.769    22875834.767   120213013.088 0  93672485.926 0        45.000  
        45.000                                                  
  22941499.638    22941493.187   120558778.007 0  93941909.150 0        46.000  
        42.000                                                  
  22701387.804                   119296216.811 0                        45.000  
                                                                
  23539346.202                   123700463.793 0                        42.000  
                                                                
  21330142.373                   112091292.987 0                        45.000  
                                                                
  23031724.927    23031717.976   121032916.320 0  94311366.997 0        43.000  
        39.000                                                  
 22  1 15  4  1 13.0000000  0  0
 22  1 15  4  1 14.0000000  0  5E02E07E08E13E26
  28150271.907                   147930331.613 0                        37.000  
                  28150268.477   113349215.114          42.000  
  23473141.543                   123352946.861 0                        49.000  
                  23473140.149    94517199.539          53.000  
  24281877.833                   127601555.030 0                        42.000  
                  24281874.671    97773028.849          46.000  
  26361386.453                   138530045.417 0                        42.000  
                  26361385.006   106146401.020          45.000  
  23820762.943                   125178969.866 0                        49.000  
                  23820760.352    95916345.925          53.000  
 22  1 15  4  1 15.0000000  0 10G01G03G04G06G09G17G19G21G22G31
  21561589.195    21561586.461   113306662.821 0  88290910.247 0        47.000  
        47.000                                                  
  20313821.160    20313817.926   106749819.549 0  83181683.474 0        49.000  
        48.000                                                  
  20629726.545    20629721.559   108409896.883 0  84475251.299 0        48.000  
        49.000                                                  
  23639175.983    23639172.856   124224461.290 0  96798221.257 0        43.000  
        42.000                                                  
  22875256.614    22875252.719   120209954.008 0  93670102.222 0        45.000  
        45.000                                                  
  22941784.899    22941778.448   120560277.038 0  93943077.221 0        45.000  
        43.000                                                  
  22701466.482                   119296630.468 0                        45.000  
                                                                
  23539931.269                   123703538.270 0                        42.000  
                                                                
  21330444.252                   112092879.244 0                        45.000  
                                                                
  23032065.922    23032058.828   121034707.551 0  94312762.771 0        43.000  
        39.000                                                  
 22  1 15  4  1 14.0000000  0  0
 22  1 15  4  1 15.0000000  0  5E02E07E08E13E26
  28149979.302                   147928792.961 0                        37.000  
                  28149975.693   113348036.136          42.000  
  23473219.791                   123353357.819 0                        49.000  
                  23473218.326    94517514.424          53.000  
  24282330.456                   127603933.888 0                        42.000  
                  24282327.329    97774851.599          46.000  
  26361968.965                   138533106.502 0                        42.000  
                  26361967.375   106148746.522          45.000  
  23820941.937                   125179910.389 0                        49.000  
                  23820939.363    95917066.572          53.000  
 22  1 15  4  1 16.0000000  0 10G01G03G04G06G09G17G19G21G22G31
  21562145.833    21562143.045   113309587.835 0  88293189.478 0        47.000  
        47.000                                                  
  20313883.791    20313880.539   106750148.374 0  83181939.700 0        49.000  
        48.000                                                  
  20629470.160    20629465.103   108408549.188 0  84474201.156 0        48.000  
        49.000                                                  
  23638557.143    23638554.016   124221209.117 0  96795687.096 0        43.000  
        42.000                                                  
  22874674.495    22874670.582   120206895.045 0  93667718.604 0        45.000  
        45.000                                                  
  22942070.267    22942063.727   120561776.409 0  93944245.558 0        45.000  
        42.000                                                  
  22701545.302                   119297044.668 0                        45.000  
                                                                
  23540516.372                   123706612.785 0                        43.000  
                                                                
  21330746.060                   112094465.624 0                        45.000  
                                                                
  23032406.898    23032399.822   121036499.261 0  94314158.902 0        43.000  
        39.000                                                  
 22  1 15  4  1 15.0000000  0  0
 22  1 15  4  1 16.0000000  0  5E02E07E08E13E26
  28149686.572                   147927254.468 0                        37.000  
                  28149682.873   113346857.297          42.000  
  23473297.897                   123353768.891 0                        49.000  
                  23473296.628    94517829.394          53.000  
  24282783.203                   127606312.649 0                        42.000  
                  24282780.058    97776674.297          46.000  
  26362551.335                   138536167.569 0                        42.000  
                  26362550.030   106151092.001          45.000  
  23821120.984                   125180851.199 0                        49.000  
                  23821118.393    95917787.457          53.000  
 22  1 15  4  1 17.0000000  0 10G01G03G04G06G09G17G19G21G22G31
  21562702.542    21562699.791   113312513.533 0  88295469.245 0        47.000  
        47.000                                                  
  20313946.493    20313943.223   106750477.842 0  83182196.435 0        49.000  
        48.000                                                  
  20629213.847    20629208.915   108407202.261 0  84473151.602 0        48.000  
        49.000                                                  
  23637938.375    23637935.212   124217957.448 0  96793153.329 0        43.000  
        42.000                                                  
  22874092.501    22874088.641   120203836.631 0  93665335.437 0        45.000  
        45.000                                                  
  22942355.725    22942349.167   120563276.560 0  93945414.507 0        45.000  
        42.000                                                  
  22701624.265                   119297459.837 0                        45.000  
                                                                
  23541101.565                   123709687.770 0                        42.000  
                                                                
  21331047.939                   112096052.589 0                        45.000  
                                                                
  23032748.036    23032740.852   121038291.833 0  94315555.705 0        43.000  
        39.000                                                  
 22  1 15  4  1 16.0000000  0  0
 22  1 15  4  1 17.0000000  0  5E02E07E08E13E26
  28149393.877                   147925716.624 0                        37.000  
                  28149390.250   113345678.958          42.000  
  23473376.288                   123354180.533 0                        49.000  
                  23473374.930    94518144.813          53.000  
  24283235.933                   127608691.779 0                        42.000  
                  24283232.788    97778497.265          46.000  
  26363134.044                   138539229.073 0                        42.000  
                  26363132.489   106153437.836          45.000  
  23821300.264                   125181792.735 0                        49.000  
                  23821297.602    95918508.895          53.000  
 22  1 15  4  1 18.0000000  0 10G01G03G04G06G09G17G19G21G22G31
  21563259.341    21563256.643   113315439.589 0  88297749.287 0        47.000  
        47.000                                                  
  20314009.357    20314006.051   106750807.621 0  83182453.399 0        49.000  
        48.000                                                  
  20628957.605    20628952.637   108405855.784 0  84472102.397 0        48.000  
        49.000                                                  
  23637319.589    23637316.622   124214705.953 0  96790619.687 0        43.000  
        42.000                                                  
  22873510.578    22873506.594   120200778.436 0  93662952.422 0        45.000  
        45.000                                                  
  22942641.290    22942634.678   120564777.143 0  93946583.790 0        45.000  
        42.000                                                  
  22701703.407                   119297875.642 0                        45.000  
                                                                
  23541686.776                   123712762.914 0                        43.000  
                                                                
  21331350.122                   112097639.779 0                        45.000  
                                                                
  23033089.245    23033082.079   121040084.975 0  94316952.960 0        43.000  
        39.000                                                  
 22  1 15  4  1 17.0000000  0  0
 22  1 15  4  1 18.0000000  0  5E02E07E08E13E26
  28149101.361                   147924179.055 0                        37.000  
                  28149097.609   113344500.830          42.000  
  23473454.680                   123354592.391 0                        49.000  
                  23473453.214    94518460.388          53.000  
  24283688.644                   127611070.921 0                        42.000  
                  24283685.482    97780320.242          46.000  
  26363716.574                   138542290.659 0                        42.000  
                  26363715.234   106155783.731          45.000  
  23821479.526                   125182734.660 0                        49.000  
                  23821476.792    95919230.628          53.000  
 22  1 15  4  1 19.0000000  0 10G01G03G04G06G09G17G19G21G22G31
  21563816.336    21563813.531   113318366.367 0  88300029.886 0        47.000  
        47.000                                                  
  20314072.255    20314068.860   106751138.090 0  83182710.907 0        49.000  
        48.000                                                  
  20628701.488    20628696.556   108404510.122 0  84471053.832 0        48.000  
        49.000                                                  
  23636700.856    23636698.032   124211455.004 0  96788086.482 0        43.000  
        42.000                                                  
  22872928.763    22872924.814   120197720.820 0  93660569.878 0        45.000  
        45.000                                                  
  22942927.033    22942920.368   120566278.536 0  93947753.698 0        45.000  
        42.000                                                  
  22701782.656                   119298292.449 0                        45.000  
                                                                
  23542272.075                   123715838.568 0                        43.000  
                                                                
  21331652.180                   112099227.586 0                        45.000  
                                                                
  23033430.561    23033423.413   121041879.050 0  94318350.929 0        43.000  
        39.000                                                  
 22  1 15  4  1 18.0000000  0  0
 22  1 15  4  1 19.0000000  0  5E02E07E08E13E26
  28148808.756                   147922642.190 0                        37.000  
                  28148805.075   113343323.219          42.000  
  23473533.143                   123355004.860 0                        49.000  
                  23473531.713    94518776.443          53.000  
  24284141.445                   127613450.451 0                        42.000  
                  24284138.283    97782143.522          46.000  
  26364299.265                   138545352.727 0                        42.000  
                  26364297.835   106158129.993          45.000  
  23821658.806                   125183677.355 0                        49.000  
                  23821656.197    95919952.955          53.000  
 22  1 15  4  1 20.0000000  0 10G01G03G04G06G09G17G19G21G22G31
  21564373.332    21564370.473   113321293.491 0  88302310.766 0        47.000  
        47.000                                                  
  20314135.154    20314131.938   106751468.870 0  83182968.664 0        49.000  
        48.000                                                  
  20628445.461    20628440.618   108403164.903 0  84470005.602 0        48.000  
        49.000                                                  
  23636082.212    23636079.478   124208204.240 0  96785553.417 0        43.000  
        42.000                                                  
  22872346.948    22872343.088   120194663.416 0  93658187.475 0        45.000  
        45.000                                                  
  22943212.795    22943206.201   120567780.378 0  93948923.967 0        45.000  
        42.000                                                  
  22701862.120                   119298709.912 0                        45.000  
                                                                
  23542857.393                   123718914.383 0                        43.000  
                                                                
  21331954.309                   112100815.633 0                        45.000  
                                                                
  23033772.127    23033764.926   121043673.671 0  94319749.351 0        43.000  
        39.000                                                  
 22  1 15  4  1 19.0000000  0  0
 22  1 15  4  1 20.0000000  0  5E02E07E08E13E26
  28148516.276                   147921105.607 0                        36.000  
                  28148512.702   113342145.837          42.000  
  23473611.605                   123355417.549 0                        49.000  
                  23473610.426    94519092.657          53.000  
  24284594.175                   127615830.010 0                        42.000  
                  24284590.994    97783966.807          46.000  
  26364882.099                   138548414.897 0                        42.000  
                  26364880.455   106160476.329          45.000  
  23821838.461                   125184620.439 0                        49.000  
                  23821835.620    95920675.574          53.000  
 22  1 15  4  1 21.0000000  0 10G01G03G04G06G09G17G19G21G22G31
  21564930.416    21564927.468   113324220.791 0  88304591.782 0        47.000  
        47.000                                                  
  20314198.125    20314194.908   106751799.794 0  83183226.522 0        49.000  
        48.000                                                  
  20628189.487    20628184.716   108401819.949 0  84468957.586 0        48.000  
        49.000                                                  
  23635463.605    23635460.871   124204953.452 0  96783020.349 0        43.000  
        42.000                                                  
  22871765.168    22871761.326   120191606.081 0  93655805.132 0        45.000  
        45.000                                                  
  22943498.681    22943491.909   120569282.490 0  93950094.446 0        46.000  
        42.000                                                  
  22701941.637                   119299127.848 0                        45.000  
                                                                
  23543442.800                   123721990.161 0                        43.000  
                                                                
  21332256.492                   112102403.750 0                        45.000  
                                                                
  23034113.729    23034106.582   121045468.678 0  94321148.056 0        43.000  
        39.000                                                  
 22  1 15  4  1 20.0000000  0  0
 22  1 15  4  1 21.0000000  0  5E02E07E08E13E26
  28148223.778                   147919569.113 0                        36.000  
                  28148220.276   113340968.532          42.000  
  23473690.068                   123355830.303 0                        49.000  
                  23473688.943    94519408.925          53.000  
  24285046.779                   127618209.392 0                        42.000  
                  24285043.849    97785789.971          46.000  
  26365464.897                   138551476.997 0                        42.000  
                  26365463.235   106162822.602          45.000  
  23822017.920                   125185563.750 0                        49.000  
                  23822015.168    95921398.370          53.000  
 22  1 15  4  1 22.0000000  0 10G01G03G04G06G09G17G19G21G22G31
  21565487.608    21565484.714   113327148.531 0  88306873.138 0        47.000  
        47.000                                                  
  20314261.131    20314257.968   106752131.122 0  83183484.703 0        49.000  
        48.000                                                  
  20627933.781    20627928.939   108400475.525 0  84467909.983 0        48.000  
        49.000                                                  
  23634845.051    23634842.442   124201702.931 0  96780487.487 0        43.000  
        42.000                                                  
  22871183.442    22871179.493   120188549.017 0  93653423.007 0        45.000  
        45.000                                                  
  22943784.496    22943777.849   120570785.124 0  93951265.322 0        45.000  
        42.000                                                  
  22702021.333                   119299546.494 0                        45.000  
                                                                
  23544028.136                   123725066.179 0                        43.000  
                                                                
  21332558.693                   112103992.188 0                        45.000  
                                                                
  23034455.457    23034448.345   121047264.335 0  94322547.262 0        43.000  
        39.000                                                  
 22  1 15  4  1 21.0000000  0  0
 22  1 15  4  1 22.0000000  0  5E02E07E08E13E26
  28147931.369                   147918033.029 0                        36.000  
                  28147927.938   113339791.532          42.000  
  23473768.728                   123356243.362 0                        49.000  
                  23473767.388    94519725.422          53.000  
  24285499.491                   127620588.881 0                        42.000  
                  24285496.632    97787613.217          46.000  
  26366047.606                   138554539.267 0                        42.000  
                  26366045.980   106165169.017          45.000  
  23822197.503                   125186507.533 0                        49.000  
                  23822194.716    95922121.531          53.000  
 22  1 15  4  1 23.0000000  0 10G01G03G04G06G09G17G19G21G22G31
  21566044.836    21566041.870   113330076.559 0  88309154.720 0        47.000  
        46.000                                                  
  20314324.209    20314320.957   106752462.686 0  83183743.057 0        49.000  
        48.000                                                  
  20627678.058    20627673.215   108399131.472 0  84466862.669 0        48.000  
        49.000                                                  
  23634226.496    23634223.977   124198452.534 0  96777954.696 0        43.000  
        42.000                                                  
  22870601.716    22870597.821   120185492.111 0  93651041.002 0        45.000  
        45.000                                                  
  22944070.436    22944063.789   120572288.125 0  93952436.504 0        45.000  
        42.000                                                  
  22702101.064                   119299965.715 0                        45.000  
                                                                
  23544613.489                   123728142.264 0                        43.000  
                                                                
  21332860.984                   112105580.801 0                        45.000  
                                                                
  23034797.255    23034790.197   121049060.464 0  94323946.857 0        43.000  
        39.000                                                  
 22  1 15  4  1 22.0000000  0  0
 22  1 15  4  1 23.0000000  0  5E02E07E08E13E26
  28147639.157                   147916497.177 0                        36.000  
                  28147635.816   113338614.704          42.000  
  23473847.477                   123356656.585 0                        49.000  
                  23473846.065    94520042.039          53.000  
  24285952.560                   127622968.322 0                        42.000  
                  24285949.380    97789436.430          46.000  
  26366630.511                   138557601.560 0                        42.000  
                  26366628.742   106167515.452          45.000  
  23822377.284                   125187451.651 0                        49.000  
                  23822374.443    95922844.937          53.000  
 22  1 15  4  1 24.0000000  0 10G01G03G04G06G09G17G19G21G22G31
  21566602.153    21566599.062   113333005.267 0  88311436.821 0        47.000  
        46.000                                                  
  20314387.483    20314384.231   106752794.894 0  83184001.914 0        49.000  
        48.000                                                  
  20627422.549    20627417.653   108397788.190 0  84465815.951 0        48.000  
        49.000                                                  
  23633607.996    23633605.548   124195202.623 0  96775422.301 0        43.000  
        42.000                                                  
  22870020.186    22870016.237   120182435.772 0  93648659.437 0        45.000  
        45.000                                                  
  22944356.501    22944349.926   120573791.904 0  93953608.279 0        45.000  
        42.000                                                  
  22702181.046                   119300385.908 0                        45.000  
                                                                
  23545198.968                   123731218.834 0                        43.000  
                                                                
  21333163.399                   112107169.990 0                        45.000  
                                                                
  23035139.179    23035132.192   121050857.488 0  94325347.110 0        43.000  
        39.000                                                  
 22  1 15  4  1 23.0000000  0  0
 22  1 15  4  1 24.0000000  0  5E02E07E08E13E26
  28147346.802                   147914961.902 0                        37.000  
                  28147343.639   113337438.354          42.000  
  23473926.065                   123357070.366 0                        49.000  
                  23473924.849    94520359.096          53.000  
  24286405.737                   127625348.110 0                        42.000  
                  24286402.377    97791259.899          46.000  
  26367213.399                   138560664.285 0                        42.000  
                  26367211.504   106169862.222          45.000  
  23822557.010                   125188396.482 0                        49.000  
                  23822554.205    95923568.898          53.000  
 22  1 15  4  1 25.0000000  0 10G01G03G04G06G09G17G19G21G22G31
  21567159.506    21567156.450   113335934.311 0  88313719.200 0        47.000  
        46.000                                                  
  20314450.721    20314447.541   106753127.403 0  83184261.025 0        49.000  
        48.000                                                  
  20627167.040    20627162.179   108396445.339 0  84464769.588 0        48.000  
        49.000                                                  
  23632989.513    23632987.155   124191952.883 0  96772890.033 0        43.000  
        42.000                                                  
  22869438.693    22869434.690   120179379.620 0  93646278.015 0        45.000  
        45.000                                                  
  22944642.745    22944636.169   120575296.114 0  93954780.382 0        46.000  
        42.000                                                  
  22702261.064                   119300806.725 0                        45.000  
                                                                
  23545784.411                   123734295.536 0                        43.000  
                                                                
  21333465.814                   112108759.384 0                        45.000  
                                                                
  23035481.317    23035474.241   121052655.049 0  94326747.807 0        43.000  
        39.000                                                  
 22  1 15  4  1 24.0000000  0  0
 22  1 15  4  1 25.0000000  0  5E02E07E08E13E26
  28147054.643                   147913426.960 0                        37.000  
                  28147051.445   113336262.223          42.000  
  23474004.903                   123357484.358 0                        49.000  
                  23474003.670    94520676.308          53.000  
  24286858.287                   127627727.907 0                        42.000  
                  24286855.285    97793083.384          46.000  
  26367796.072                   138563727.107 0                        42.000  
                  26367794.410   106172209.050          45.000  
  23822736.934                   125189341.685 0                        49.000  
                  23822734.074    95924293.156          53.000  
 22  1 15  4  1 26.0000000  0 10G01G03G04G06G09G17G19G21G22G31
  21567717.037    21567713.821   113338863.841 0  88316001.948 0        47.000  
        46.000                                                  
  20314514.085    20314510.886   106753460.348 0  83184520.456 0        49.000  
        48.000                                                  
  20626911.673    20626906.634   108395103.055 0  84463723.652 0        48.000  
        49.000                                                  
  23632371.066    23632368.851   124188703.424 0  96770357.985 0        43.000  
        42.000                                                  
  22868857.306    22868853.161   120176323.806 0  93643896.863 0        45.000  
        45.000                                                  
  22944929.096    22944922.538   120576800.881 0  93955952.932 0        46.000  
        42.000                                                  
  22702341.367                   119301228.320 0                        45.000  
                                                                
  23546369.943                   123737372.522 0                        43.000  
                                                                
  21333768.480                   112110349.163 0                        45.000  
                                                                
  23035823.527    23035816.415   121054453.296 0  94328149.059 0        43.000  
        40.000                                                  
 22  1 15  4  1 25.0000000  0  0
 22  1 15  4  1 26.0000000  0  5E02E07E08E13E26
  28146762.592                   147911892.431 0                        37.000  
                  28146759.376   113335086.413          42.000  
  23474083.848                   123357898.702 0                        49.000  
                  23474082.418    94520993.802          53.000  
  24287310.981                   127630107.833 0                        42.000  
                  24287308.104    97794906.964          46.000  
  26368378.870                   138566790.131 0                        42.000  
                  26368377.119   106174556.054          45.000  
  23822917.196                   125190287.417 0                        49.000  
                  23822914.033    95925017.801          53.000  
 22  1 15  4  1 27.0000000  0 10G01G03G04G06G09G17G19G21G22G31
  21568274.497    21568271.334   113341793.685 0  88318284.948 0        47.000  
        46.000                                                  
  20314577.520    20314574.304   106753793.584 0  83184780.128 0        49.000  
        48.000                                                  
  20626656.271    20626651.304   108393761.190 0  84462678.041 0        48.000  
        49.000                                                  
  23631752.727    23631750.672   124185454.142 0  96767826.093 0        43.000  
        42.000                                                  
  22868275.830    22868271.828   120173268.182 0  93641515.869 0        45.000  
        45.000                                                  
  22945215.483    22945208.979   120578306.066 0  93957125.805 0        46.000  
        42.000                                                  
  22702421.599                   119301650.520 0                        45.000  
                                                                
  23546955.457                   123740449.623 0                        43.000  
                                                                
  21334071.056                   112111939.161 0                        45.000  
                                                                
  23036165.933    23036158.696   121056252.078 0  94329550.709 0        43.000  
        40.000                                                  
 22  1 15  4  1 26.0000000  0  0
 22  1 15  4  1 27.0000000  0  5E02E07E08E13E26
  28146470.845                   147910358.170 0                        37.000  
                  28146467.414   113333910.810          42.000  
  23474162.686                   123358313.257 0                        49.000  
                  23474161.292    94521311.446          53.000  
  24287763.907                   127632487.779 0                        42.000  
                  24287761.048    97796730.555          46.000  
  26368961.793                   138569853.232 0                        42.000  
                  26368960.060   106176903.114          45.000  
  23823097.066                   125191233.518 0                        49.000  
                  23823094.082    95925742.743          53.000  
 22  1 15  4  1 28.0000000  0 10G01G03G04G06G09G17G19G21G22G31
  21568832.100    21568828.901   113344723.802 0  88320568.154 0        47.000  
        46.000                                                  
  20314640.973    20314637.703   106754127.069 0  83185039.979 0        49.000  
        48.000                                                  
  20626401.120    20626396.063   108392419.699 0  84461632.720 0        48.000  
        50.000                                                  
  23631134.351    23631132.386   124182204.951 0  96765294.251 0        43.000  
        42.000                                                  
  22867694.408    22867690.459   120170212.702 0  93639134.974 0        45.000  
        45.000                                                  
  22945501.995    22945495.401   120579811.620 0  93958298.969 0        46.000  
        42.000                                                  
  22702502.081                   119302073.286 0                        45.000  
                                                                
  23547541.043                   123743526.785 0                        43.000  
                                                                
  21334373.686                   112113529.315 0                        45.000  
                                                                
  23036508.357    23036501.067   121058051.323 0  94330952.716 0        43.000  
        40.000                                                  
 22  1 15  4  1 27.0000000  0  0
