     2.11           OBSERVATION DATA    M (Mixed)           RINEX VERSION / TYPE
RTCM3TORINEX on                         2022-01-07 03:59    PGM / RUN BY / DATE
RTCM3TORINEX                                                MARKER NAME
                                                            OBSERVER / AGENCY
                                                            REC # / TYPE / VERS
                                                            ANT # / TYPE
         .0000         .0000         .0000                  APPROX POSITION XYZ
         .0000         .0000         .0000                  ANTENNA: DELTA H/E/N
     1     1                                                WAVELENGTH FACT L1/2
     9    C1    C2    L1    L2    S1    S2    C7    L7    S7# / TYPES OF OBSERV
  2022     1     7     3    59   20.0000000     GPS         TIME OF FIRST OBS
                                                            END OF HEADER
 22  1  7  3 59 20.0000000  0  5E04E09E11E12E19
  23562995.907                   123824535.831 0                        48.000  
                  23562993.995    94878539.219          53.000  
  23441598.286                   123187078.526 0                        47.000  
                  23441597.303    94390101.718          51.000  
  22004827.933                   115636153.469 0                        45.000  
                  22004823.734    88604315.263          50.000  
  24756048.261                   130093618.071 0                        38.000  
                  24756046.117    99682739.271          44.000  
  26442131.636                   138953808.717 0                        36.000  
                  26442129.653   106471937.599          40.000  
 22  1  7  3 59 21.0000000  0 10G01G03G04G06G09G17G19G21G31G32
  20590706.495    20590703.136   108205390.005 0  84315890.152 0        49.000  
        48.000                                                  
  20329888.467    20329884.590   106833607.518 0  83246970.205 0        50.000  
        49.000                                                  
  21366517.824    21366513.447   112282575.99010  87492918.441 0        47.000  
        48.000                                                  
  25004124.157    25004121.173   131397513.958 0 102388014.969 0        41.000  
        40.000                                                  
  24197767.574    24197762.445   127160152.82210  99085833.759 0        41.000  
        40.000                                                  
  22567309.431    22567302.998   118592527.895 0  92409727.844 0        46.000  
        44.000                                                  
  22829121.209                   119967345.00410                        44.000  
                                                                
  22405149.441                   117739461.678 0                        45.000  
                                                                
  22591517.865    22591511.200   118718733.938 0  92508107.024 0        44.000  
        41.000                                                  
  25523490.008    25523486.791   134126520.251 0 104513931.146 0        37.000  
        36.000                                                  
 22  1  7  3 59 20.0000000  0  0
 22  1  7  3 59 21.0000000  0  5E04E09E11E12E19
  23563062.844                   123824887.589 0                        48.000  
                  23563060.968    94878808.752          53.000  
  23441194.089                   123184954.138 0                        47.000  
                  23441192.963    94388473.943          51.000  
  22004958.502                   115636839.866 0                        45.000  
                  22004954.446    88604841.214          50.000  
  24756597.305                   130096502.751 0                        38.000  
                  24756595.035    99684949.615          44.000  
  26442618.352                   138956365.634 0                        36.000  
                  26442616.244   106473896.801          40.000  
 22  1  7  3 59 22.0000000  0 10G01G03G04G06G09G17G19G21G31G32
  20591074.919    20591071.613   108207326.459 0  84317399.073 0        49.000  
        48.000                                                  
  20329808.003    20329804.143   106833185.095 0  83246641.052 0        50.000  
        49.000                                                  
  21366071.438    21366067.186   112280230.87310  87491091.073 0        47.000  
        48.000                                                  
  25003449.137    25003446.135   131393966.743 0 102385250.906 0        41.000  
        40.000                                                  
  24197097.146    24197091.893   127156629.16610  99083088.032 0        41.000  
        40.000                                                  
  22567375.350    22567368.863   118592874.192 0  92409997.697 0        46.000  
        43.000                                                  
  22828919.986                   119966287.38210                        45.000  
                                                                
  22405627.331                   117741972.993 0                        45.000  
                                                                
  22591594.827    22591588.251   118719138.783 0  92508422.502 0        44.000  
        41.000                                                  
  25524146.587    25524143.371   134129970.332 0 104516619.530 0        37.000  
        36.000                                                  
 22  1  7  3 59 21.0000000  0  0
 22  1  7  3 59 22.0000000  0  5E04E09E11E12E19
  23563129.764                   123825239.515 0                        48.000  
                  23563127.995    94879078.405          53.000  
  23440789.856                   123182829.844 0                        47.000  
                  23440788.658    94386846.232          51.000  
  22005089.268                   115637526.577 0                        45.000  
                  22005085.122    88605367.389          50.000  
  24757146.080                   130099387.452 0                        38.000  
                  24757144.043    99687159.981          44.000  
  26443104.997                   138958922.478 0                        36.000  
                  26443102.800   106475855.932          40.000  
 22  1  7  3 59 23.0000000  0 10G01G03G04G06G09G17G19G21G31G32
  20591443.646    20591440.358   108209263.806 0  84318908.693 0        49.000  
        48.000                                                  
  20329727.735    20329723.929   106832763.376 0  83246312.438 0        50.000  
        49.000                                                  
  21365625.338    21365621.014   112277886.53910  87489264.333 0        47.000  
        48.000                                                  
  25002774.242    25002771.204   131390419.952 0 102382487.161 0        42.000  
        41.000                                                  
  24196426.754    24196421.518   127153106.00010  99080342.721 0        41.000  
        40.000                                                  
  22567441.465    22567434.854   118593221.458 0  92410268.291 0        46.000  
        43.000                                                  
  22828718.924                   119965230.82810                        45.000  
                                                                
  22406105.416                   117744484.978 0                        45.000  
                                                                
  22591672.111    22591665.428   118719544.682 0  92508738.777 0        44.000  
        41.000                                                  
  25524803.113    25524800.057   134133420.800 0 104519308.200 0        37.000  
        36.000                                                  
 22  1  7  3 59 22.0000000  0  0
 22  1  7  3 59 23.0000000  0  5E04E09E11E12E19
  23563196.916                   123825592.130 0                        48.000  
                  23563194.879    94879348.588          53.000  
  23440385.640                   123180706.133 0                        47.000  
                  23440384.622    94385218.978          51.000  
  22005220.051                   115638214.050 0                        45.000  
                  22005215.941    88605894.152          50.000  
  24757695.303                   130102272.698 0                        38.000  
                  24757693.033    99689370.741          44.000  
  26443591.607                   138961479.727 0                        36.000  
                  26443589.570   106477815.378          41.000  
 22  1  7  3 59 24.0000000  0 10G01G03G04G06G09G17G19G21G31G32
  20591812.499    20591809.068   108211201.894 0  84320418.888 0        49.000  
        48.000                                                  
  20329647.611    20329643.769   106832342.236 0  83245984.279 0        50.000  
        49.000                                                  
  21365179.274    21365174.950   112275542.87110  87487438.096 0        47.000  
        48.000                                                  
  25002099.436    25002096.273   131386873.404 0 102379723.617 0        42.000  
        41.000                                                  
  24195756.344    24195751.198   127149583.23210  99077597.703 0        41.000  
        40.000                                                  
  22567507.670    22567501.166   118593569.530 0  92410539.508 0        46.000  
        43.000                                                  
  22828517.951                   119964175.15710                        45.000  
                                                                
  22406583.556                   117746997.497 0                        45.000  
                                                                
  22591749.537    22591742.908   118719951.493 0  92509055.771 0        44.000  
        41.000                                                  
  25525459.675    25525456.851   134136871.482 0 104521997.055 0        37.000  
        36.000                                                  
 22  1  7  3 59 23.0000000  0  0
 22  1  7  3 59 24.0000000  0  5E04E09E11E12E19
  23563264.103                   123825945.276 0                        48.000  
                  23563262.227    94879619.183          53.000  
  23439981.586                   123178582.887 0                        47.000  
                  23439980.603    94383592.077          51.000  
  22005350.959                   115638902.182 0                        45.000  
                  22005346.814    88606421.426          50.000  
  24758244.400                   130105158.359 0                        38.000  
                  24758242.202    99691581.831          44.000  
  26444078.234                   138964037.239 0                        36.000  
                  26444076.268   106479775.051          40.000  
 22  1  7  3 59 25.0000000  0 10G01G03G04G06G09G17G19G21G31G32
  20592181.422    20592177.974   108213140.303 0  84321929.345 0        49.000  
        48.000                                                  
  20329567.486    20329563.626   106831921.237 0  83245656.225 0        50.000  
        49.000                                                  
  21364733.388    21364728.957   112273199.45010  87485612.051 0        47.000  
        48.000                                                  
  25001424.595    25001421.360   131383326.727 0 102376959.970 0        42.000  
        41.000                                                  
  24195085.934    24195080.823   127146060.39810  99074852.637 0        41.000  
        40.000                                                  
  22567573.982    22567567.478   118593918.005 0  92410811.062 0        46.000  
        43.000                                                  
  22828317.211                   119963119.98810                        45.000  
                                                                
  22407061.624                   117749510.142 0                        45.000  
                                                                
  22591827.107    22591820.424   118720358.804 0  92509373.147 0        44.000  
        41.000                                                  
  25526116.379    25526113.377   134140321.983 0 104524685.715 0        37.000  
        36.000                                                  
 22  1  7  3 59 24.0000000  0  0
 22  1  7  3 59 25.0000000  0  5E04E09E11E12E19
  23563331.255                   123826298.560 0                        48.000  
                  23563329.450    94879889.881          53.000  
  23439577.407                   123176459.690 0                        47.000  
                  23439576.495    94381965.208          51.000  
  22005481.921                   115639590.547 0                        45.000  
                  22005477.865    88606948.868          50.000  
  24758793.729                   130108044.007 0                        38.000  
                  24758791.388    99693792.901          44.000  
  26444564.825                   138966594.676 0                        36.000  
                  26444562.717   106481734.627          41.000  
 22  1  7  3 59 26.0000000  0 10G01G03G04G06G09G17G19G21G31G32
  20592550.311    20592546.898   108215078.902 0  84323439.940 0        49.000  
        48.000                                                  
  20329487.379    20329483.502   106831500.246 0  83245328.183 0        50.000  
        49.000                                                  
  21364287.395    21364283.071   112270856.11710  87483786.077 0        47.000  
        48.000                                                  
  25000749.664    25000746.304   131379779.748 0 102374196.099 0        42.000  
        41.000                                                  
  24194415.560    24194410.449   127142537.41010  99072107.439 0        41.000  
        40.000                                                  
  22567640.383    22567633.897   118594266.732 0  92411082.784 0        46.000  
        43.000                                                  
  22828116.488                   119962065.16310                        45.000  
                                                                
  22407539.673                   117752022.746 0                        45.000  
                                                                
  22591904.765    22591897.957   118720766.443 0  92509690.780 0        44.000  
        41.000                                                  
  25526772.958    25526769.885   134143772.128 0 104527374.168 0        37.000  
        36.000                                                  
 22  1  7  3 59 25.0000000  0  0
 22  1  7  3 59 26.0000000  0  5E04E09E11E12E19
  23563398.425                   123826651.803 0                        48.000  
                  23563396.584    94880160.548          53.000  
  23439173.442                   123174336.379 0                        47.000  
                  23439172.423    94380338.262          51.000  
  22005612.973                   115640279.001 0                        45.000  
                  22005608.827    88607476.387          50.000  
  24759343.023                   130110929.485 0                        38.000  
                  24759340.432    99696003.864          44.000  
  26445051.470                   138969151.786 0                        36.000  
                  26445049.165   106483693.978          41.000  
 22  1  7  3 59 27.0000000  0 10G01G03G04G06G09G17G19G21G31G32
  20592919.181    20592915.929   108217018.144 0  84324951.035 0        49.000  
        48.000                                                  
  20329407.290    20329403.395   106831079.734 0  83245000.511 0        50.000  
        49.000                                                  
  21363841.456    21363837.149   112268513.33910  87481960.545 0        47.000  
        48.000                                                  
  25000074.786    25000071.427   131376232.959 0 102371432.354 0        42.000  
        41.000                                                  
  24193745.150    24193740.075   127139014.70210  99069362.471 0        41.000  
        40.000                                                  
  22567706.838    22567700.423   118594616.195 0  92411355.093 0        46.000  
        43.000                                                  
  22827915.837                   119961011.15910                        45.000  
                                                                
  22408017.956                   117754535.793 0                        45.000  
                                                                
  22591982.406    22591975.723   118721174.903 0  92510009.075 0        44.000  
        41.000                                                  
  25527429.395    25527426.411   134147222.385 0 104530062.689 0        37.000  
        36.000                                                  
 22  1  7  3 59 26.0000000  0  0
 22  1  7  3 59 27.0000000  0  5E04E09E11E12E19
  23563465.791                   123827005.498 0                        48.000  
                  23563463.968    94880431.566          53.000  
  23438769.512                   123172213.429 0                        47.000  
                  23438768.547    94378711.583          51.000  
  22005743.971                   115640968.019 0                        45.000  
                  22005739.914    88608004.333          50.000  
  24759892.138                   130113815.266 0                        38.000  
                  24759889.476    99698215.051          44.000  
  26445537.972                   138971709.102 0                        36.000  
                  26445535.935   106485653.458          40.000  
 22  1  7  3 59 28.0000000  0 10G01G03G04G06G09G17G19G21G31G32
  20593288.444    20593285.067   108218958.193 0  84326462.757 0        49.000  
        48.000                                                  
  20329327.380    20329323.431   106830659.849 0  83244673.324 0        50.000  
        49.000                                                  
  21363395.785    21363391.460   112266171.29410  87480135.561 0        47.000  
        48.000                                                  
  24999399.856    24999396.586   131372686.467 0 102368668.849 0        42.000  
        41.000                                                  
  24193074.972    24193069.718   127135492.42510  99066617.842 0        41.000  
        40.000                                                  
  22567773.454    22567766.985   118594966.533 0  92411628.079 0        46.000  
        43.000                                                  
  22827715.435                   119959958.12910                        45.000  
                                                                
  22408496.309                   117757049.444 0                        45.000  
                                                                
  22592060.369    22592053.686   118721584.335 0  92510328.113 0        44.000  
        41.000                                                  
  25528086.081    25528082.990   134150672.962 0 104532751.418 0        37.000  
        36.000                                                  
 22  1  7  3 59 27.0000000  0  0
 22  1  7  3 59 28.0000000  0  5E04E09E11E12E19
  23563533.175                   123827359.795 0                        48.000  
                  23563531.334    94880703.037          53.000  
  23438365.547                   123170091.004 0                        47.000  
                  23438364.547    94377085.305          51.000  
  22005875.326                   115641657.743 0                        45.000  
                  22005871.270    88608532.817          50.000  
  24760441.307                   130116701.513 0                        38.000  
                  24760438.752    99700426.584          44.000  
  26446024.832                   138974266.753 0                        36.000  
                  26446022.723   106487613.236          41.000  
 22  1  7  3 59 29.0000000  0 10G01G03G04G06G09G17G19G21G31G32
  20593657.850    20593654.438   108220899.032 0  84327975.105 0        49.000  
        48.000                                                  
  20329247.595    20329243.646   106830240.584 0  83244346.630 0        50.000  
        49.000                                                  
  21362950.292    21362945.985   112263829.93010  87478311.135 0        47.000  
        47.000                                                  
  24998724.996    24998721.780   131369140.315 0 102365905.635 0        42.000  
        41.000                                                  
  24192404.687    24192399.523   127131970.57310  99063873.526 0        41.000  
        40.000                                                  
  22567840.284    22567833.690   118595317.740 0  92411901.760 0        46.000  
        43.000                                                  
  22827515.159                   119958906.03210                        45.000  
                                                                
  22408974.735                   117759563.662 0                        45.000  
                                                                
  22592138.546    22592131.827   118721994.735 0  92510647.914 0        44.000  
        41.000                                                  
  25528742.679    25528739.623   134154123.759 0 104535440.378 0        37.000  
        36.000                                                  
 22  1  7  3 59 28.0000000  0  0
 22  1  7  3 59 29.0000000  0  5E04E09E11E12E19
  23563600.631                   123827714.681 0                        48.000  
                  23563598.915    94880974.963          53.000  
  23437961.618                   123167969.075 0                        47.000  
                  23437960.707    94375459.416          51.000  
  22006006.913                   115642348.169 0                        45.000  
                  22006002.553    88609061.851          50.000  
  24760990.851                   130119588.224 0                        38.000  
                  24760988.081    99702638.472          45.000  
  26446511.494                   138976824.747 0                        36.000  
                  26446509.511   106489573.257          41.000  
 22  1  7  3 59 30.0000000  0 10G01G03G04G06G09G17G19G21G31G32
  20594027.328    20594024.023   108222840.339 0  84329487.810 0        49.000  
        48.000                                                  
  20329167.774    20329163.896   106829821.607 0  83244020.156 0        50.000  
        49.000                                                  
  21362504.799    21362500.457   112261488.96410  87476486.997 0        47.000  
        47.000                                                  
  24998050.137    24998046.920   131365594.140 0 102363142.383 0        42.000  
        41.000                                                  
  24191734.563    24191729.327   127128448.81510  99061129.304 0        41.000  
        40.000                                                  
  22567907.186    22567900.610   118595669.486 0  92412175.848 0        46.000  
        43.000                                                  
  22827315.008                   119957854.58410                        45.000  
                                                                
  22409453.160                   117762078.144 0                        46.000  
                                                                
  22592216.723    22592210.058   118722405.760 0  92510968.187 0        44.000  
        41.000                                                  
  25529399.365    25529396.292   134157574.529 0 104538129.267 0        37.000  
        36.000                                                  
 22  1  7  3 59 29.0000000  0  0
 22  1  7  3 59 30.0000000  0  5E04E09E11E12E19
  23563668.068                   123828069.834 0                        48.000  
                  23563666.478    94881247.094          53.000  
  23437557.832                   123165847.331 0                        47.000  
                  23437557.153    94373833.664          51.000  
  22006138.358                   115643038.970 0                        45.000  
                  22006133.998    88609591.166          50.000  
  24761540.270                   130122475.040 0                        38.000  
                  24761537.482    99704850.449          45.000  
  26446998.264                   138979382.744 0                        36.000  
                  26446996.263   106491533.276          41.000  
 22  1  7  3 59 31.0000000  0 10G01G03G04G06G09G17G19G21G31G32
  20594396.735    20594393.447   108224781.603 0  84331000.486 0        49.000  
        48.000                                                  
  20329088.024    20329084.200   106829402.418 0  83243693.513 0        50.000  
        49.000                                                  
  21362059.325    21362054.947   112259147.87010  87474662.770 0        47.000  
        47.000                                                  
  24997375.152    24997372.115   131362047.463 0 102360378.725 0        42.000  
        41.000                                                  
  24191064.242    24191059.042   127124926.65610  99058384.768 0        41.000  
        40.000                                                  
  22567974.177    22567967.601   118596021.274 0  92412449.971 0        46.000  
        43.000                                                  
  22827115.054                   119956803.24810                        45.000  
                                                                
  22409931.532                   117764592.373 0                        46.000  
                                                                
  22592295.025    22592288.252   118722816.927 0  92511288.585 0        44.000  
        41.000                                                  
  25530055.802    25530052.871   134161024.742 0 104540817.733 0        37.000  
        36.000                                                  
 22  1  7  3 59 30.0000000  0  0
 22  1  7  3 59 31.0000000  0  5E04E09E11E12E19
  23563735.649                   123828424.738 0                        48.000  
                  23563733.898    94881519.035          53.000  
  23437154.063                   123163725.267 0                        47.000  
                  23437153.241    94372207.667          51.000  
  22006269.802                   115643729.637 0                        45.000  
                  22006265.425    88610120.378          50.000  
  24762089.367                   130125361.461 0                        38.000  
                  24762086.686    99707062.137          44.000  
  26447485.070                   138981940.268 0                        36.000  
                  26447482.872   106493492.933          41.000  
 22  1  7  3 59 32.0000000  0 10G01G03G04G06G09G17G19G21G31G32
  20594766.177    20594762.924   108226723.422 0  84332513.586 0        49.000  
        48.000                                                  
  20329008.275    20329004.451   106828983.596 0  83243367.156 0        50.000  
        49.000                                                  
  21361613.939    21361609.472   112256807.23710  87472838.907 0        47.000  
        47.000                                                  
  24996700.311    24996697.166   131358500.841 0 102357615.138 0        42.000  
        41.000                                                  
  24190394.047    24190388.829   127121404.67510  99055640.377 0        41.000  
        40.000                                                  
  22568041.221    22568034.735   118596373.672 0  92412724.566 0        46.000  
        43.000                                                  
  22826915.100                   119955752.64810                        45.000  
                                                                
  22410410.082                   117767106.946 0                        46.000  
                                                                
  22592373.291    22592366.537   118723228.803 0  92511609.509 0        44.000  
        41.000                                                  
  25530712.310    25530709.540   134164474.944 0 104543506.248 0        37.000  
        36.000                                                  
 22  1  7  3 59 31.0000000  0  0
 22  1  7  3 59 32.0000000  0  5E04E09E11E12E19
  23563803.265                   123828779.992 0                        48.000  
                  23563801.550    94881791.240          53.000  
  23436750.348                   123161603.461 0                        47.000  
                  23436749.384    94370581.863          51.000  
  22006401.479                   115644420.746 0                        45.000  
                  22006396.905    88610649.921          50.000  
  24762638.625                   130128248.116 0                        38.000  
                  24762635.962    99709273.987          44.000  
  26447971.822                   138984497.860 0                        36.000  
                  26447969.642   106495452.640          41.000  
 22  1  7  3 59 33.0000000  0 10G01G03G04G06G09G17G19G21G31G32
  20595135.976    20595132.581   108228665.947 0  84334027.252 0        49.000  
        48.000                                                  
  20328928.651    20328924.862   106828565.322 0  83243041.231 0        50.000  
        49.000                                                  
  21361168.536    21361164.158   112254467.22310  87471015.522 0        47.000  
        47.000                                                  
  24996025.541    24996022.289   131354954.481 0 102354851.747 0        42.000  
        41.000                                                  
  24189723.833    24189718.758   127117883.02910  99052896.253 0        41.000  
        40.000                                                  
  22568108.409    22568102.012   118596726.868 0  92412999.784 0        46.000  
        43.000                                                  
  22826715.217                   119954702.90410                        45.000  
                                                                
  22410888.704                   117769622.024 0                        46.000  
                                                                
  22592451.825    22592445.107   118723641.554 0  92511931.156 0        44.000  
        41.000                                                  
  25531368.925    25531366.137   134167925.382 0 104546194.872 0        37.000  
        36.000                                                  
 22  1  7  3 59 32.0000000  0  0
 22  1  7  3 59 33.0000000  0  5E04E09E11E12E19
  23563870.810                   123829135.738 0                        48.000  
                  23563869.309    94882063.827          53.000  
  23436346.687                   123159482.081 0                        47.000  
                  23436345.651    94368956.392          51.000  
  22006533.192                   115645112.481 0                        45.000  
                  22006528.492    88611179.949          50.000  
  24763188.079                   130131135.149 0                        38.000  
                  24763185.363    99711486.114          45.000  
  26448458.646                   138987055.681 0                        36.000  
                  26448456.359   106497412.549          41.000  
 22  1  7  3 59 34.0000000  0 10G01G03G04G06G09G17G19G21G31G32
  20595505.704    20595502.398   108230609.162 0  84335541.441 0        49.000  
        48.000                                                  
  20328849.133    20328845.434   106828147.557 0  83242715.704 0        50.000  
        49.000                                                  
  21360723.276    21360718.951   112252127.81910  87469192.607 0        47.000  
        47.000                                                  
  24995350.628    24995347.429   131351408.329 0 102352088.507 0        43.000  
        42.000                                                  
  24189053.709    24189048.581   127114361.73510  99050152.371 0        41.000  
        40.000                                                  
  22568175.811    22568169.360   118597080.827 0  92413275.596 0        46.000  
        43.000                                                  
  22826515.620                   119953654.00910                        45.000  
                                                                
  22411367.415                   117772137.583 0                        46.000  
                                                                
  22592530.556    22592523.802   118724055.167 0  92512253.439 0        44.000  
        41.000                                                  
  25532025.450    25532022.806   134171375.956 0 104548883.619 0        37.000  
        36.000                                                  
 22  1  7  3 59 33.0000000  0  0
 22  1  7  3 59 34.0000000  0  5E04E09E11E12E19
  23563938.766                   123829491.983 0                        48.000  
                  23563937.140    94882336.794          53.000  
  23435942.812                   123157361.103 0                        47.000  
                  23435942.115    94367331.234          51.000  
  22006664.904                   115645804.814 0                        45.000  
                  22006660.330    88611710.449          50.000  
  24763737.588                   130134022.515 0                        38.000  
                  24763734.961    99713698.518          44.000  
  26448945.345                   138989613.751 0                        36.000  
                  26448943.075   106499372.633          41.000  
 22  1  7  3 59 35.0000000  0 10G01G03G04G06G09G17G19G21G31G32
  20595875.646    20595872.287   108232553.176 0  84337056.252 0        49.000  
        48.000                                                  
  20328769.795    20328766.078   106827730.413 0  83242390.655 0        50.000  
        49.000                                                  
  21360278.265    21360273.852   112249789.11610  87467370.239 0        47.000  
        47.000                                                  
  24994675.786    24994672.659   131347862.497 0 102349325.512 0        43.000  
        42.000                                                  
  24188383.710    24188378.546   127110840.85410  99047408.828 0        41.000  
        40.000                                                  
  22568243.427    22568236.976   118597435.648 0  92413552.090 0        46.000  
        43.000                                                  
  22826316.094                   119952606.09110                        45.000  
                                                                
  22411846.269                   117774653.711 0                        46.000  
                                                                
  22592609.359    22592602.729   118724469.737 0  92512576.485 0        44.000  
        41.000                                                  
  25532682.048    25532679.475   134174826.832 0 104551572.613 0        37.000  
        36.000                                                  
 22  1  7  3 59 34.0000000  0  0
 22  1  7  3 59 35.0000000  0  5E04E09E11E12E19
  23564006.597                   123829848.814 0                        48.000  
                  23564004.971    94882610.211          53.000  
  23435539.490                   123155240.641 0                        47.000  
                  23435538.614    94365706.458          51.000  
  22006796.796                   115646497.855 0                        45.000  
                  22006792.293    88612241.478          50.000  
  24764287.114                   130136910.326 0                        38.000  
                  24764284.469    99715911.254          45.000  
  26449432.276                   138992172.153 0                        36.000  
                  26449429.881   106501332.951          41.000  
 22  1  7  3 59 36.0000000  0 10G01G03G04G06G09G17G19G21G31G32
  20596245.678    20596242.301   108234497.412 0  84338571.237 0        49.000  
        48.000                                                  
  20328690.492    20328686.632   106827313.322 0  83242065.649 0        50.000  
        49.000                                                  
  21359833.255    21359828.859   112247450.55710  87465547.983 0        47.000  
        47.000                                                  
  24994001.088    24993997.943   131344316.404 0 102346562.339 0        43.000  
        42.000                                                  
  24187713.568    24187708.547   127107319.82410  99044665.185 0        41.000  
        40.000                                                  
  22568310.954    22568304.539   118597790.781 0  92413828.801 0        46.000  
        43.000                                                  
  22826116.801                   119951558.55510                        45.000  
                                                                
  22412325.123                   117777169.865 0                        46.000  
                                                                
  22592688.393    22592681.746   118724884.697 0  92512899.831 0        44.000  
        41.000                                                  
  25533338.752    25533336.054   134178277.365 0 104554261.372 0        37.000  
        36.000                                                  
 22  1  7  3 59 35.0000000  0  0
 22  1  7  3 59 36.0000000  0  5E04E09E11E12E19
  23564074.588                   123830205.661 0                        48.000  
                  23564072.873    94882883.643          53.000  
  23435136.007                   123153120.100 0                        47.000  
                  23435135.042    94364081.630          51.000  
  22006928.669                   115647191.027 0                        45.000  
                  22006924.095    88612772.606          50.000  
  24764836.765                   130139798.017 0                        38.000  
                  24764834.031    99718123.900          45.000  
  26449919.117                   138994730.320 0                        36.000  
                  26449916.758   106503293.101          41.000  
 22  1  7  3 59 37.0000000  0 10G01G03G04G06G09G17G19G21G31G32
  20596615.781    20596612.422   108236442.148 0  84340086.624 0        49.000  
        48.000                                                  
  20328611.243    20328607.330   106826896.569 0  83241740.913 0        50.000  
        49.000                                                  
  21359388.334    21359383.831   112245112.41210  87463726.057 0        47.000  
        47.000                                                  
  24993326.282    24993323.191   131340770.367 0 102343799.191 0        43.000  
        42.000                                                  
  24187043.533    24187038.655   127103798.96210  99041921.639 0        41.000  
        40.000                                                  
  22568378.642    22568372.263   118598146.475 0  92414105.974 0        46.000  
        43.000                                                  
  22825917.544                   119950511.67910                        45.000  
                                                                
  22412803.959                   117779686.319 0                        46.000  
                                                                
  22592767.482    22592760.870   118725300.339 0  92513223.707 0        44.000  
        41.000                                                  
  25533995.457    25533992.705   134181727.895 0 104556950.088 0        37.000  
        36.000                                                  
 22  1  7  3 59 36.0000000  0  0
 22  1  7  3 59 37.0000000  0  5E04E09E11E12E19
  23564142.473                   123830562.827 0                        48.000  
                  23564140.865    94883157.307          53.000  
  23434732.507                   123150999.794 0                        47.000  
                  23434731.649    94362456.982          51.000  
  22007060.793                   115647884.625 0                        45.000  
                  22007056.093    88613304.062          50.000  
  24765386.255                   130142685.887 0                        38.000  
                  24765383.450    99720336.682          44.000  
  26450405.851                   138997288.554 0                        36.000  
                  26450403.653   106505253.304          41.000  
 22  1  7  3 59 38.0000000  0 10G01G03G04G06G09G17G19G21G31G32
  20596985.831    20596982.507   108238387.091 0  84341602.162 0        49.000  
        48.000                                                  
  20328531.940    20328528.009   106826479.830 0  83241416.182 0        50.000  
        48.000                                                  
  21358943.306    21358938.803   112242774.38210  87461904.224 0        47.000  
        47.000                                                  
  24992651.458    24992648.510   131337224.048 0 102341035.827 0        43.000  
        42.000                                                  
  24186373.570    24186368.692   127100277.91410  99039177.977 0        41.000  
        40.000                                                  
  22568446.366    22568440.094   118598502.464 0  92414383.357 0        46.000  
        43.000                                                  
  22825718.304                   119949465.19310                        44.000  
                                                                
  22413282.831                   117782202.764 0                        46.000  
                                                                
  22592846.534    22592840.012   118725716.344 0  92513547.860 0        44.000  
        41.000                                                  
  25534651.965    25534649.231   134185178.114 0 104559638.574 0        37.000  
        36.000                                                  
 22  1  7  3 59 37.0000000  0  0
 22  1  7  3 59 38.0000000  0  5E04E09E11E12E19
  23564210.482                   123830919.973 0                        48.000  
                  23564208.856    94883430.969          53.000  
  23434329.096                   123148879.396 0                        47.000  
                  23434328.077    94360832.262          51.000  
  22007192.737                   115648578.308 0                        45.000  
                  22007188.163    88613835.589          50.000  
  24765935.781                   130145573.607 0                        38.000  
                  24765933.101    99722549.366          45.000  
  26450892.604                   138999846.498 0                        36.000  
                  26450890.531   106507213.292          41.000  
 22  1  7  3 59 39.0000000  0 10G01G03G04G06G09G17G19G21G31G32
  20597355.934    20597352.753   108240332.487 0  84343118.053 0        49.000  
        48.000                                                  
  20328452.620    20328448.724   106826063.370 0  83241091.663 0        50.000  
        48.000                                                  
  21358498.511    21358494.097   112240436.73010  87460082.665 0        47.000  
        47.000                                                  
  24991976.635    24991973.561   131333677.705 0 102338272.446 0        44.000  
        42.000                                                  
  24185703.482    24185698.639   127096756.94310  99036434.361 0        41.000  
        40.000                                                  
  22568514.268    22568507.924   118598858.962 0  92414661.151 0        46.000  
        43.000                                                  
  22825519.225                   119948419.31710                        44.000  
                                                                
  22413761.846                   117784719.444 0                        45.000  
                                                                
  22592925.873    22592919.261   118726132.950 0  92513872.500 0        44.000  
        41.000                                                  
  25535308.437    25535305.846   134188628.256 0 104562326.981 0        36.000  
        36.000                                                  
 22  1  7  3 59 38.0000000  0  0
 22  1  7  3 59 39.0000000  0  5E04E09E11E12E19
  23564278.385                   123831277.374 0                        48.000  
                  23564276.884    94883704.821          53.000  
  23433925.310                   123146759.166 0                        47.000  
                  23433924.577    94359207.666          51.000  
  22007324.879                   115649272.343 0                        45.000  
                  22007320.144    88614367.380          50.000  
  24766485.218                   130148461.442 0                        38.000  
                  24766482.645    99724762.107          45.000  
  26451379.391                   139002404.457 0                        36.000  
                  26451377.247   106509173.277          41.000  
 22  1  7  3 59 40.0000000  0 10G01G03G04G06G09G17G19G21G31G32
  20597726.502    20597723.143   108242279.109 0  84344634.903 0        49.000  
        48.000                                                  
  20328373.531    20328369.725   106825647.970 0  83240767.979 0        50.000  
        48.000                                                  
  21358053.822    21358049.426   112238100.21010  87458261.996 0        47.000  
        47.000                                                  
  24991301.972    24991298.898   131330132.120 0 102335509.643 0        44.000  
        42.000                                                  
  24185033.590    24185028.837   127093236.86610  99033691.431 0        41.000  
        40.000                                                  
  22568582.420    22568576.023   118599216.768 0  92414939.964 0        46.000  
        43.000                                                  
  22825320.379                   119947374.82410                        44.000  
                                                                
  22414240.932                   117787237.151 0                        45.000  
                                                                
  22593005.336    22592998.850   118726550.983 0  92514198.226 0        44.000  
        41.000                                                  
  25535965.052    25535962.443   134192079.109 0 104565015.955 0        36.000  
        36.000                                                  
 22  1  7  3 59 39.0000000  0  0
 22  1  7  3 59 40.0000000  0  5E04E09E11E12E19
  23564346.644                   123831635.797 0                        48.000  
                  23564344.983    94883979.457          53.000  
  23433522.184                   123144639.884 0                        47.000  
                  23433521.148    94357583.794          51.000  
  22007457.181                   115649967.514 0                        46.000  
                  22007452.410    88614900.042          50.000  
  24767034.851                   130151350.133 0                        38.000  
                  24767032.350    99726975.531          45.000  
  26451866.144                   139004963.146 0                        36.000  
                  26451864.017   106511133.836          41.000  
 22  1  7  3 59 41.0000000  0 10G01G03G04G06G09G17G19G21G31G32
  20598096.963    20598093.603   108244226.303 0  84346152.195 0        49.000  
        48.000                                                  
  20328294.586    20328290.762   106825232.980 0  83240444.606 0        50.000  
        48.000                                                  
  21357609.366    21357604.863   112235764.18710  87456441.716 0        47.000  
        47.000                                                  
  24990627.327    24990624.253   131326586.640 0 102332746.936 0        44.000  
        42.000                                                  
  24184363.698    24184359.052   127089716.99310  99030948.683 0        41.000  
        40.000                                                  
  22568650.662    22568644.176   118599575.234 0  92415219.288 0        46.000  
        43.000                                                  
  22825121.693                   119946331.09310                        44.000  
                                                                
  22414720.108                   117789755.225 0                        45.000  
                                                                
  22593085.014    22593078.546   118726969.740 0  92514524.537 0        44.000  
        41.000                                                  
  25536621.774    25536619.147   134195530.003 0 104567704.979 0        36.000  
        36.000                                                  
 22  1  7  3 59 40.0000000  0  0
 22  1  7  3 59 41.0000000  0  5E04E09E11E12E19
  23564414.833                   123831994.612 0                        48.000  
                  23564413.332    94884254.393          53.000  
  23433119.041                   123142520.896 0                        47.000  
                  23433118.148    94355960.157          51.000  
  22007589.716                   115650663.193 0                        46.000  
                  22007584.712    88615433.098          50.000  
  24767584.556                   130154239.112 0                        38.000  
                  24767582.001    99729189.158          45.000  
  26452353.253                   139007521.991 0                        36.000  
                  26452350.948   106513094.529          41.000  
 22  1  7  3 59 42.0000000  0 10G01G03G04G06G09G17G19G21G31G32
  20598467.602    20598464.082   108246173.735 0  84347669.670 0        49.000  
        48.000                                                  
  20328215.569    20328211.710   106824818.043 0  83240121.274 0        50.000  
        48.000                                                  
  21357164.910    21357160.246   112233428.31010  87454621.550 0        47.000  
        47.000                                                  
  24989952.557    24989949.555   131323040.914 0 102329984.016 0        44.000  
        42.000                                                  
  24183693.771    24183689.214   127086196.98110  99028205.817 0        41.000  
        40.000                                                  
  22568718.975    22568712.471   118599933.994 0  92415498.846 0        46.000  
        43.000                                                  
  22824923.150                   119945287.74410                        44.000  
                                                                
  22415199.248                   117792273.325 0                        45.000  
                                                                
  22593164.746    22593158.295   118727388.894 0  92514851.139 0        44.000  
        41.000                                                  
  25537278.532    25537275.727   134198980.635 0 104570393.759 0        36.000  
        36.000                                                  
 22  1  7  3 59 41.0000000  0  0
 22  1  7  3 59 42.0000000  0  5E04E09E11E12E19
  23564483.092                   123832353.434 0                        47.000  
                  23564481.645    94884529.332          53.000  
  23432715.684                   123140401.839 0                        47.000  
                  23432714.773    94354336.469          51.000  
  22007722.107                   115651359.009 0                        46.000  
                  22007717.211    88615966.254          50.000  
  24768134.368                   130157127.957 0                        38.000  
                  24768131.777    99731402.679          45.000  
  26452840.184                   139010080.619 0                        36.000  
                  26452838.022   106515055.003          41.000  
 22  1  7  3 59 43.0000000  0 10G01G03G04G06G09G17G19G21G31G32
  20598838.223    20598834.739   108248121.508 0  84349187.415 0        49.000  
        48.000                                                  
  20328136.660    20328132.711   106824403.274 0  83239798.081 0        50.000  
        48.000                                                  
  21356720.561    21356715.736   112231092.69210  87452801.590 0        47.000  
        47.000                                                  
  24989277.787    24989274.874   131319495.070 0 102327221.035 0        44.000  
        42.000                                                  
  24183023.986    24183019.501   127082676.96610  99025462.948 0        41.000  
        40.000                                                  
  22568787.289    22568780.856   118600293.194 0  92415778.724 0        46.000  
        43.000                                                  
  22824724.894                   119944244.91510                        44.000  
                                                                
  22415678.495                   117794791.560 0                        45.000  
                                                                
  22593244.603    22593238.170   118727808.579 0  92515178.175 0        44.000  
        41.000                                                  
  25537935.165    25537932.288   134202431.048 0 104573082.380 0        36.000  
        35.000                                                  
 22  1  7  3 59 42.0000000  0  0
 22  1  7  3 59 43.0000000  0  5E04E09E11E12E19
  23564551.423                   123832712.411 0                        48.000  
                  23564549.922    94884804.395          53.000  
  23432312.487                   123138282.860 0                        47.000  
                  23432311.612    94352712.838          51.000  
  22007854.481                   115652055.081 0                        46.000  
                  22007849.585    88616499.603          50.000  
  24768683.823                   130160016.815 0                        38.000  
                  24768681.482    99733616.224          44.000  
  26453327.151                   139012639.120 0                        36.000  
                  26453324.828   106517015.420          41.000  
 22  1  7  3 59 44.0000000  0 10G01G03G04G06G09G17G19G21G31G32
  20599208.916    20599205.557   108250069.887 0  84350705.635 0        49.000  
        48.000                                                  
  20328057.804    20328053.926   106823988.938 0  83239475.213 0        50.000  
        48.000                                                  
  21356276.158    21356271.351   112228757.59310  87450982.032 0        47.000  
        47.000                                                  
  24988603.106    24988600.158   131315949.364 0 102324458.143 0        44.000  
        42.000                                                  
  24182354.166    24182349.645   127079157.18010  99022720.256 0        41.000  
        40.000                                                  
  22568855.834    22568849.384   118600653.066 0  92416059.152 0        46.000  
        43.000                                                  
  22824526.619                   119943202.85410                        44.000  
                                                                
  22416157.725                   117797310.176 0                        45.000  
                                                                
  22593324.602    22593318.223   118728229.021 0  92515505.804 0        44.000  
        41.000                                                  
  25538591.923    25538588.868   134205881.578 0 104575771.100 0        36.000  
        35.000                                                  
 22  1  7  3 59 43.0000000  0  0
 22  1  7  3 59 44.0000000  0  5E04E09E11E12E19
  23564619.987                   123833071.778 0                        47.000  
                  23564618.325    94885079.754          53.000  
  23431909.291                   123136164.197 0                        47.000  
                  23431908.415    94351089.444          51.000  
  22007987.230                   115652751.657 0                        46.000  
                  22007982.137    88617033.348          49.000  
  24769233.795                   130162905.924 0                        38.000  
                  24769231.276    99735829.948          44.000  
  26453814.046                   139015197.760 0                        36.000  
                  26453811.705   106518975.944          41.000  
 22  1  7  3 59 45.0000000  0 10G01G03G04G06G09G17G19G21G31G32
  20599579.788    20599576.375   108252018.725 0  84352224.210 0        49.000  
        48.000                                                  
  20327979.037    20327975.088   106823574.888 0  83239152.581 0        50.000  
        48.000                                                  
  21355831.899    21355827.074   112226422.86310  87449162.767 0        47.000  
        47.000                                                  
  24987928.354    24987925.352   131312403.623 0 102321695.232 0        44.000  
        42.000                                                  
  24181684.310    24181679.860   127075637.47410  99019977.634 0        41.000  
        40.000                                                  
  22568924.344    22568918.018   118601013.466 0  92416339.995 0        46.000  
        43.000                                                  
  22824328.416                   119942161.40110                        44.000  
                                                                
  22416637.025                   117799829.045 0                        45.000  
                                                                
  22593404.834    22593398.312   118728650.105 0  92515833.915 0        44.000  
        41.000                                                  
  25539248.574    25539245.519   134209332.020 0 104578459.786 0        36.000  
        35.000                                                  
 22  1  7  3 59 44.0000000  0  0
 22  1  7  3 59 45.0000000  0  5E04E09E11E12E19
  23564688.318                   123833431.406 0                        47.000  
                  23564686.745    94885355.313          53.000  
  23431506.237                   123134045.710 0                        47.000  
                  23431505.308    94349466.186          51.000  
  22008119.657                   115653448.600 0                        46.000  
                  22008114.708    88617567.365          49.000  
  24769783.464                   130165795.149 0                        38.000  
                  24769781.070    99738043.774          44.000  
  26454300.852                   139017756.385 0                        36.000  
                  26454298.582   106520936.456          41.000  
 22  1  7  3 59 46.0000000  0 10G01G03G04G06G09G17G19G21G31G32
  20599950.874    20599947.336   108253968.035 0  84353743.151 0        49.000  
        48.000                                                  
  20327900.306    20327896.411   106823161.125 0  83238830.173 0        50.000  
        48.000                                                  
  21355387.657    21355382.904   112224088.52410  87447343.804 0        47.000  
        47.000                                                  
  24987253.655    24987250.600   131308857.897 0 102318932.329 0        43.000  
        42.000                                                  
  24181014.471    24181010.111   127072117.88510  99017235.113 0        41.000  
        40.000                                                  
  22568993.068    22568986.778   118601374.427 0  92416621.259 0        46.000  
        44.000                                                  
  22824130.213                   119941120.61910                        44.000  
                                                                
  22417116.469                   117802348.190 0                        45.000  
                                                                
  22593485.102    22593478.615   118729071.821 0  92516162.531 0        44.000  
        41.000                                                  
  25539905.279    25539902.152   134212782.397 0 104581148.421 0        36.000  
        35.000                                                  
 22  1  7  3 59 45.0000000  0  0
 22  1  7  3 59 46.0000000  0  5E04E09E11E12E19
  23564756.881                   123833791.305 0                        47.000  
                  23564755.220    94885631.080          53.000  
  23431103.237                   123131927.396 0                        47.000  
                  23431102.200    94347843.067          51.000  
  22008252.335                   115654145.916 0                        46.000  
                  22008247.474    88618101.679          49.000  
  24770333.562                   130168684.501 0                        38.000  
                  24770330.918    99740257.707          44.000  
  26454787.532                   139020315.027 0                        36.000  
                  26454785.477   106522896.970          41.000  
 22  1  7  3 59 47.0000000  0 10G01G03G04G06G09G17G19G21G31G32
  20600322.085    20600318.511   108255918.381 0  84355262.901 0        49.000  
        48.000                                                  
  20327821.754    20327817.930   106822748.236 0  83238508.437 0        50.000  
        48.000                                                  
  21354943.558    21354938.912   112221755.13910  87445525.573 0        47.000  
        47.000                                                  
  24986579.100    24986576.026   131305312.720 0 102316169.848 0        43.000  
        43.000                                                  
  24180344.812    24180340.363   127068598.98210  99014493.077 0        41.000  
        40.000                                                  
  22569061.971    22569055.556   118601736.482 0  92416903.377 0        46.000  
        44.000                                                  
  22823932.277                   119940081.02010                        44.000  
                                                                
  22417595.931                   117804868.153 0                        45.000  
                                                                
  22593565.494    22593559.097   118729494.742 0  92516492.053 0        44.000  
        41.000                                                  
  25540562.072    25540558.820   134216233.323 0 104583837.434 0        36.000  
        35.000                                                  
 22  1  7  3 59 46.0000000  0  0
 22  1  7  3 59 47.0000000  0  5E04E09E11E12E19
  23564825.338                   123834152.036 0                        47.000  
                  23564823.819    94885907.485          53.000  
  23430700.040                   123129809.839 0                        47.000  
                  23430699.200    94346220.524          51.000  
  22008385.209                   115654844.183 0                        46.000  
                  22008380.331    88618636.708          49.000  
  24770883.321                   130171574.548 0                        38.000  
                  24770880.890    99742472.154          44.000  
  26455274.606                   139022874.259 0                        36.000  
                  26455272.569   106524857.938          41.000  
 22  1  7  3 59 48.0000000  0 10G01G03G04G06G09G17G19G21G31G32
  20600693.278    20600689.651   108257869.009 0  84356782.870 0        49.000  
        48.000                                                  
  20327743.291    20327739.342   106822335.462 0  83238186.792 0        50.000  
        48.000                                                  
  21354499.638    21354494.867   112219421.95010  87443707.506 0        47.000  
        47.000                                                  
  24985904.383    24985901.256   131301767.357 0 102313407.233 0        43.000  
        43.000                                                  
  24179675.260    24179670.828   127065079.98010  99011751.013 0        41.000  
        40.000                                                  
  22569130.946    22569124.549   118602098.913 0  92417185.791 0        46.000  
        43.000                                                  
  22823734.449                   119939041.86510                        44.000  
                                                                
  22418075.482                   117807388.187 0                        45.000  
                                                                
  22593646.012    22593639.758   118729918.110 0  92516821.970 0        44.000  
        41.000                                                  
  25541218.830    25541215.453   134219683.999 0 104586526.239 0        36.000  
        35.000                                                  
 22  1  7  3 59 47.0000000  0  0
 22  1  7  3 59 48.0000000  0  5E04E09E11E12E19
  23564893.973                   123834512.853 0                        47.000  
                  23564892.489    94886183.957          53.000  
  23430297.004                   123127692.291 0                        47.000  
                  23430296.290    94344597.982          51.000  
  22008518.083                   115655542.652 0                        46.000  
                  22008513.312    88619171.903          49.000  
  24771433.508                   130174464.563 0                        38.000  
                  24771430.917    99744686.570          44.000  
  26455761.537                   139025433.304 0                        36.000  
                  26455759.536   106526818.780          41.000  
 22  1  7  3 59 49.0000000  0 10G01G03G04G06G09G17G19G21G31G32
  20601064.435    20601060.879   108259820.000 0  84358303.117 0        49.000  
        48.000                                                  
  20327664.721    20327660.951   106821922.855 0  83237865.280 0        50.000  
        48.000                                                  
  21354055.753    21354050.875   112217089.02610  87441889.642 0        47.000  
        47.000                                                  
  24985229.595    24985226.415   131298221.874 0 102310644.519 0        43.000  
        42.000                                                  
  24179005.672    24179001.115   127061560.97810  99009008.927 0        41.000  
        40.000                                                  
  22569200.045    22569193.595   118602461.760 0  92417468.525 0        46.000  
        44.000                                                  
  22823536.854                   119938003.24010                        44.000  
                                                                
  22418555.033                   117809908.362 0                        45.000  
                                                                
  22593726.673    22593720.383   118730341.988 0  92517152.265 0        44.000  
        41.000                                                  
  25541875.463    25541872.104   134223134.474 0 104589214.947 0        36.000  
        35.000                                                  
 22  1  7  3 59 48.0000000  0  0
 22  1  7  3 59 49.0000000  0  5E04E09E11E12E19
  23564962.715                   123834873.805 0                        47.000  
                  23564961.249    94886460.526          53.000  
  23429894.004                   123125574.805 0                        47.000  
                  23429893.236    94342975.484          51.000  
  22008651.207                   115656241.374 0                        46.000  
                  22008646.257    88619707.282          49.000  
  24771983.481                   130177354.564 0                        38.000  
                  24771980.800    99746900.983          44.000  
  26456248.807                   139027992.245 0                        36.000  
                  26456246.467   106528779.518          41.000  
 22  1  7  3 59 50.0000000  0 10G01G03G04G06G09G17G19G21G31G32
  20601435.807    20601432.234   108261771.435 0  84359823.729 0        49.000  
        48.000                                                  
  20327586.133    20327582.541   106821510.536 0  83237544.002 0        50.000  
        48.000                                                  
  21353611.887    21353606.991   112214756.46810  87440072.074 0        47.000  
        47.000                                                  
  24984554.879    24984551.770   131294676.380 0 102307881.791 0        43.000  
        42.000                                                  
  24178336.048    24178331.491   127058042.04610  99006266.900 0        41.000  
        40.000                                                  
  22569269.216    22569262.748   118602825.144 0  92417751.695 0        46.000  
        44.000                                                  
  22823339.258                   119936965.23510                        44.000  
                                                                
  22419034.709                   117812428.804 0                        45.000  
                                                                
  22593807.387    22593801.187   118730766.515 0  92517483.069 0        44.000  
        41.000                                                  
  25542531.971    25542528.701   134226584.915 0 104591903.610 0        36.000  
        35.000                                                  
 22  1  7  3 59 49.0000000  0  0
 22  1  7  3 59 50.0000000  0  5E04E09E11E12E19
  23565031.367                   123835235.015 0                        47.000  
                  23565029.992    94886737.304          53.000  
  23429490.879                   123123457.480 0                        47.000  
                  23429490.432    94341353.132          51.000  
  22008784.206                   115656940.474 0                        46.000  
                  22008779.346    88620242.961          49.000  
  24772533.364                   130180244.678 0                        38.000  
                  24772530.791    99749115.505          44.000  
  26456735.703                   139030551.187 0                        36.000  
                  26456733.523   106530740.275          41.000  
 22  1  7  3 59 51.0000000  0 10G01G03G04G06G09G17G19G21G31G32
  20601807.179    20601803.891   108263723.714 0  84361344.977 0        49.000  
        48.000                                                  
  20327507.831    20327504.168   106821098.891 0  83237223.233 0        50.000  
        48.000                                                  
  21353168.092    21353163.357   112212424.67010  87438255.089 0        47.000  
        47.000                                                  
  24983880.198    24983877.232   131291131.243 0 102305119.352 0        43.000  
        42.000                                                  
  24177666.424    24177661.993   127054523.60710  99003525.257 0        41.000  
        40.000                                                  
  22569338.512    22569332.079   118603189.442 0  92418035.558 0        46.000  
        44.000                                                  
  22823141.895                   119935928.22710                        43.000  
                                                                
  22419514.563                   117814949.856 0                        45.000  
                                                                
  22593888.209    22593882.080   118731192.018 0  92517814.631 0        44.000  
        41.000                                                  
  25543188.658    25543185.334   134230035.671 0 104594592.472 0        36.000  
        35.000                                                  
 22  1  7  3 59 50.0000000  0  0
 22  1  7  3 59 51.0000000  0  5E04E09E11E12E19
  23565100.324                   123835596.850 0                        47.000  
                  23565098.769    94887014.554          53.000  
  23429088.362                   123121340.713 0                        47.000  
                  23429087.665    94339731.189          51.000  
  22008917.545                   115657640.307 0                        46.000  
                  22008912.434    88620779.190          49.000  
  24773083.283                   130183135.295 0                        38.000  
                  24773080.746    99751330.386          44.000  
  26457222.955                   139033110.528 0                        36.000  
                  26457220.453   106532701.301          41.000  
 22  1  7  3 59 52.0000000  0 10G01G03G04G06G09G17G19G21G31G32
  20602178.855    20602175.442   108265676.470 0  84362866.604 0        49.000  
        48.000                                                  
  20327429.565    20327425.776   106820687.534 0  83236902.700 0        50.000  
        48.000                                                  
  21352724.440    21352719.687   112210093.26510  87436438.407 0        47.000  
        47.000                                                  
  24983205.589    24983202.587   131287586.119 0 102302356.912 0        43.000  
        43.000                                                  
  24176996.872    24176992.476   127051005.27710  99000783.714 0        41.000  
        40.000                                                  
  22569407.916    22569401.554   118603554.296 0  92418319.852 0        46.000  
        44.000                                                  
  22822944.639                   119934891.86510                        43.000  
                                                                
  22419994.436                   117817471.193 0                        45.000  
                                                                
  22593969.299    22593963.152   118731618.174 0  92518146.707 0        44.000  
        41.000                                                  
  25543845.327    25543842.039   134233486.348 0 104597281.352 0        36.000  
        35.000                                                  
 22  1  7  3 59 51.0000000  0  0
 22  1  7  3 59 52.0000000  0  5E04E09E11E12E19
  23565169.298                   123835958.982 0                        48.000  
                  23565167.744    94887292.025          53.000  
  23428685.397                   123119224.145 0                        47.000  
                  23428684.772    94338109.405          51.000  
  22009050.669                   115658340.537 0                        46.000  
                  22009045.648    88621315.726          49.000  
  24773633.435                   130186026.049 0                        38.000  
                  24773630.826    99753545.371          44.000  
  26457709.940                   139035669.869 0                        36.000  
                  26457707.438   106534662.354          41.000  
 22  1  7  3 59 53.0000000  0 10G01G03G04G06G09G17G19G21G31G32
  20602550.674    20602547.171   108267629.732 0  84364388.625 0        49.000  
        48.000                                                  
  20327351.280    20327347.581   106820276.527 0  83236582.436 0        50.000  
        48.000                                                  
  21352280.984    21352276.195   112207762.28610  87434622.049 0        47.000  
        47.000                                                  
  24982531.015    24982527.960   131284041.023 0 102299594.510 0        43.000  
        43.000                                                  
  24176327.391    24176322.995   127047487.10210  98998042.270 0        41.000  
        40.000                                                  
  22569477.515    22569471.136   118603919.723 0  92418604.607 0        46.000  
        44.000                                                  
  22822747.508                   119933856.19610                        43.000  
                                                                
  22420474.255                   117819992.814 0                        45.000  
                                                                
  22594050.549    22594044.384   118732045.019 0  92518479.311 0        44.000  
        41.000                                                  
  25544501.942    25544498.743   134236937.054 0 104599970.191 0        36.000  
        35.000                                                  
 22  1  7  3 59 52.0000000  0  0
 22  1  7  3 59 53.0000000  0  5E04E09E11E12E19
  23565238.130                   123836321.404 0                        48.000  
                  23565236.683    94887569.725          53.000  
  23428282.755                   123117107.795 0                        47.000  
                  23428282.165    94336487.786          51.000  
  22009184.061                   115659041.166 0                        46.000  
                  22009179.076    88621852.576          49.000  
  24774183.568                   130188916.974 0                        38.000  
                  24774180.995    99755760.497          44.000  
  26458196.960                   139038229.254 0                        36.000  
                  26458194.458   106536623.446          41.000  
 22  1  7  3 59 54.0000000  0 10G01G03G04G06G09G17G19G21G31G32
  20602922.403    20602918.900   108269583.133 0  84365910.753 0        49.000  
        48.000                                                  
  20327272.978    20327269.369   106819865.484 0  83236262.139 0        50.000  
        49.000                                                  
  21351837.350    21351832.615   112205431.35710  87432805.747 0        47.000  
        47.000                                                  
  24981856.281    24981853.351   131280495.611 0 102296831.846 0        43.000  
        43.000                                                  
  24175657.803    24175653.479   127043968.71910  98995300.687 0        41.000  
        40.000                                                  
  22569547.187    22569540.736   118604285.379 0  92418889.531 0        46.000  
        44.000                                                  
  22822550.430                   119932820.83410                        44.000  
                                                                
  22420954.020                   117822514.380 0                        45.000  
                                                                
  22594131.925    22594125.778   118732472.154 0  92518812.144 0        44.000  
        41.000                                                  
  25545158.575    25545155.215   134240387.369 0 104602658.730 0        36.000  
        35.000                                                  
 22  1  7  3 59 53.0000000  0  0
 22  1  7  3 59 54.0000000  0  5E04E09E11E12E19
  23565307.283                   123836683.767 0                        48.000  
                  23565305.621    94887847.377          53.000  
  23427880.023                   123114991.303 0                        47.000  
                  23427879.236    94334866.059          51.000  
  22009317.329                   115659741.842 0                        46.000  
                  22009312.432    88622389.459          49.000  
  24774733.684                   130191807.705 0                        38.000  
                  24774731.147    99757975.457          44.000  
  26458683.855                   139040788.304 0                        36.000  
                  26458681.478   106538584.277          41.000  
 22  1  7  3 59 55.0000000  0 10G01G03G04G06G09G17G19G21G31G32
  20603294.275    20603290.755   108271537.241 0  84367433.432 0        49.000  
        48.000                                                  
  20327194.837    20327191.245   106819454.957 0  83235942.250 0        50.000  
        49.000                                                  
  21351393.787    21351389.231   112203101.04410  87430989.914 0        47.000  
        47.000                                                  
  24981181.600    24981178.849   131276950.422 0 102294069.356 0        43.000  
        43.000                                                  
  24174988.376    24174984.051   127040450.65210  98992559.330 0        41.000  
        40.000                                                  
  22569616.804    22569610.497   118604651.789 0  92419175.050 0        46.000  
        44.000                                                  
  22822353.513                   119931786.30910                        44.000  
                                                                
  22421433.947                   117825036.418 0                        45.000  
                                                                
  22594213.407    22594207.225   118732900.178 0  92519145.660 0        44.000  
        41.000                                                  
  25545815.208    25545811.848   134243837.811 0 104605347.409 0        36.000  
        35.000                                                  
 22  1  7  3 59 54.0000000  0  0
 22  1  7  3 59 55.0000000  0  5E04E09E11E12E19
  23565376.222                   123837046.620 0                        48.000  
                  23565374.685    94888125.410          53.000  
  23427477.326                   123112875.217 0                        46.000  
                  23427476.629    94333244.644          51.000  
  22009450.774                   115660443.119 0                        46.000  
                  22009445.914    88622926.802          49.000  
  24775283.585                   130194698.741 0                        38.000  
                  24775281.155    99760190.689          44.000  
  26459170.893                   139043347.601 0                        36.000  
                  26459168.481   106540545.287          41.000  
 22  1  7  3 59 56.0000000  0 10G01G03G04G06G09G17G19G21G31G32
  20603666.219    20603662.913   108273492.420 0  84368956.950 0        49.000  
        48.000                                                  
  20327116.839    20327113.301   106819045.347 0  83235623.071 0        50.000  
        49.000                                                  
  21350950.510    21350946.007   112200771.72310  87429174.863 0        47.000  
        47.000                                                  
  24980507.027    24980504.400   131273405.831 0 102291307.349 0        43.000  
        43.000                                                  
  24174318.984    24174314.749   127036933.29910  98989818.535 0        41.000  
        40.000                                                  
  22569686.744    22569680.382   118605019.361 0  92419461.469 0        46.000  
        44.000                                                  
  22822156.918                   119930753.04010                        43.000  
                                                                
  22421914.016                   117827559.327 0                        45.000  
                                                                
  22594295.069    22594288.904   118733329.421 0  92519480.135 0        44.000  
        41.000                                                  
  25546471.894    25546468.624   134247288.866 0 104608036.508 0        36.000  
        35.000                                                  
 22  1  7  3 59 55.0000000  0  0
 22  1  7  3 59 56.0000000  0  5E04E09E11E12E19
  23565445.464                   123837410.345 0                        48.000  
                  23565443.892    94888404.111          53.000  
  23427074.701                   123110759.937 0                        46.000  
                  23427074.219    94331623.843          51.000  
  22009584.506                   115661145.409 0                        46.000  
                  22009579.449    88623464.920          49.000  
  24775833.701                   130197590.564 0                        38.000  
                  24775831.539    99762406.501          44.000  
  26459658.092                   139045907.526 0                        36.000  
                  26459655.662   106542506.808          41.000  
 22  1  7  3 59 57.0000000  0 10G01G03G04G06G09G17G19G21G31G32
  20604038.216    20604034.910   108275447.646 0  84370480.510 0        49.000  
        48.000                                                  
  20327038.805    20327035.320   106818635.592 0  83235303.781 0        50.000  
        49.000                                                  
  21350507.359    21350502.677   112198442.35810  87427359.774 0        47.000  
        47.000                                                  
  24979832.364    24979829.898   131269860.809 0 102288544.994 0        43.000  
        43.000                                                  
  24173649.539    24173645.394   127033415.63210  98987077.505 0        41.000  
        40.000                                                  
  22569756.719    22569750.304   118605387.056 0  92419747.994 0        46.000  
        44.000                                                  
  22821960.395                   119929719.98210                        44.000  
                                                                
  22422394.031                   117830082.073 0                        45.000  
                                                                
  22594376.873    22594370.601   118733758.886 0  92519814.778 0        44.000  
        41.000                                                  
  25547128.563    25547125.186   134250739.405 0 104610725.260 0        36.000  
        35.000                                                  
 22  1  7  3 59 56.0000000  0  0
 22  1  7  3 59 57.0000000  0  5E04E09E11E12E19
  23565514.671                   123837773.912 0                        48.000  
                  23565512.956    94888682.694          53.000  
  23426672.220                   123108644.402 0                        46.000  
                  23426671.630    94330002.851          51.000  
  22009718.006                   115661847.640 0                        46.000  
                  22009713.074    88624002.991          49.000  
  24776384.031                   130200482.067 0                        38.000  
                  24776381.798    99764622.060          44.000  
  26460145.255                   139048467.045 0                        36.000  
                  26460142.700   106544467.981          41.000  
 22  1  7  3 59 58.0000000  0 10G01G03G04G06G09G17G19G21G31G32
  20604410.499    20604407.033   108277403.368 0  84372004.444 0        49.000  
        48.000                                                  
  20326960.842    20326957.447   106818226.169 0  83234984.755 0        50.000  
        49.000                                                  
  21350064.207    21350059.543   112196113.41210  87425545.006 0        47.000  
        47.000                                                  
  24979157.844    24979155.396   131266315.837 0 102285782.667 0        43.000  
        43.000                                                  
  24172980.148    24172976.145   127029898.08510  98984336.561 0        41.000  
        40.000                                                  
  22569826.837    22569820.368   118605755.326 0  92420034.944 0        46.000  
        44.000                                                  
  22821763.961                   119928687.58110                        43.000  
                                                                
  22422874.136                   117832605.114 0                        45.000  
                                                                
  22594458.660    22594452.441   118734189.015 0  92520149.943 0        44.000  
        41.000                                                  
  25547785.178    25547781.872   134254189.923 0 104613414.026 0        36.000  
        35.000                                                  
 22  1  7  3 59 57.0000000  0  0
 22  1  7  3 59 58.0000000  0  5E04E09E11E12E19
  23565583.878                   123838137.780 0                        48.000  
                  23565582.287    94888961.496          53.000  
  23426269.487                   123106529.096 0                        46.000  
                  23426269.148    94328382.025          51.000  
  22009851.791                   115662550.270 0                        46.000  
                  22009846.806    88624541.370          49.000  
  24776934.433                   130203373.737 0                        38.000  
                  24776931.985    99766837.762          44.000  
  26460632.347                   139051026.571 0                        36.000  
                  26460629.666   106546429.187          41.000  
 22  1  7  3 59 59.0000000  0 10G01G03G04G06G09G17G19G21G31G32
  20604782.729    20604779.352   108279360.023 0  84373529.111 0        49.000  
        48.000                                                  
  20326883.005    20326879.788   106817817.518 0  83234666.321 0        50.000  
        49.000                                                  
  21349621.144    21349616.516   112193785.32410  87423730.914 0        47.000  
        47.000                                                  
  24978483.521    24978480.751   131262771.322 0 102283020.710 0        43.000  
        43.000                                                  
  24172310.971    24172306.861   127026381.12810  98981596.066 0        41.000  
        41.000                                                  
  22569897.098    22569890.701   118606124.609 0  92420322.699 0        46.000  
        44.000                                                  
  22821567.652                   119927656.31110                        43.000  
                                                                
  22423354.545                   117835128.881 0                        45.000  
                                                                
  22594540.714    22594534.496   118734620.252 0  92520485.973 0        44.000  
        41.000                                                  
  25548441.704    25548438.541   134257640.881 0 104616103.053 0        36.000  
        35.000                                                  
 22  1  7  3 59 58.0000000  0  0
 22  1  7  3 59 59.0000000  0  5E04E09E11E12E19
  23565653.442                   123838502.388 0                        48.000  
                  23565651.655    94889240.869          53.000  
  23425866.845                   123104414.427 0                        46.000  
                  23425866.613    94326761.703          51.000  
  22009985.630                   115663253.755 0                        46.000  
                  22009980.627    88625080.405          49.000  
  24777484.709                   130206266.005 0                        38.000  
                  24777482.458    99769053.911          44.000  
  26461119.581                   139053586.599 0                        36.000  
                  26461116.848   106548390.773          41.000  
 22  1  7  4  0  0.0000000  0 10G01G03G04G06G09G17G19G21G31G32
  20605155.102    20605151.742   108281316.801 0  84375053.875 0        49.000  
        48.000                                                  
  20326805.275    20326801.969   106817408.796 0  83234347.832 0        50.000  
        49.000                                                  
  21349178.118    21349173.472   112191457.24710  87421916.837 0        47.000  
        47.000                                                  
  24977809.019    24977806.267   131259226.441 0 102280258.462 0        43.000  
        43.000                                                  
  24171641.651    24171637.702   127022863.91910  98978855.377 0        41.000  
        41.000                                                  
  22569967.323    22569960.980   118606494.068 0  92420610.589 0        46.000  
        43.000                                                  
  22821371.432                   119926625.30710                        43.000  
                                                                
  22423834.775                   117837652.542 0                        45.000  
                                                                
  22594622.733    22594616.568   118735051.754 0  92520822.222 0        44.000  
        41.000                                                  
  25549098.426    25549095.103   134261091.417 0 104618791.759 0        36.000  
        35.000                                                  
 22  1  7  3 59 59.0000000  0  0
 22  1  7  4  0  0.0000000  0  5E04E09E11E12E19
  23565722.774                   123838866.885 0                        48.000  
                  23565721.058    94889520.163          53.000  
  23425464.631                   123102299.594 0                        46.000  
                  23425464.202    94325141.242          51.000  
  22010119.558                   115663957.248 0                        46.000  
                  22010114.537    88625619.441          49.000  
  24778035.040                   130209158.045 0                        37.000  
                  24778032.735    99771269.885          44.000  
  26461606.494                   139056146.283 0                        36.000  
                  26461603.903   106550352.085          41.000  
 22  1  7  4  0  1.0000000  0 10G01G03G04G06G09G17G19G21G31G32
  20605527.617    20605524.276   108283274.351 0  84376579.232 0        49.000  
        48.000                                                  
  20326727.562    20326724.310   106817000.685 0  83234029.832 0        50.000  
        49.000                                                  
  21348735.145    21348730.606   112189129.88310  87420103.304 0        47.000  
        47.000                                                  
  24977134.570    24977131.783   131255681.874 0 102277496.457 0        43.000  
        43.000                                                  
  24170972.384    24170968.542   127019347.12910  98976115.021 0        41.000  
        40.000                                                  
  22570037.763    22570031.402   118606864.389 0  92420899.168 0        46.000  
        44.000                                                  
  22821175.391                   119925595.22710                        43.000  
                                                                
  22424315.184                   117840176.781 0                        45.000  
                                                                
  22594705.145    22594698.891   118735484.227 0  92521159.198 0        44.000  
        41.000                                                  
  25549755.113    25549751.700   134264542.182 0 104621480.708 0        36.000  
        35.000                                                  
 22  1  7  4  0  0.0000000  0  0
 22  1  7  4  0  1.0000000  0  5E04E09E11E12E19
  23565792.177                   123839231.977 0                        48.000  
                  23565790.533    94889799.907          53.000  
  23425062.203                   123100185.256 0                        46.000  
                  23425061.863    94323521.170          51.000  
  22010253.415                   115664661.436 0                        46.000  
                  22010248.501    88626159.023          49.000  
  24778585.531                   130212050.513 0                        38.000  
                  24778583.190    99773486.181          44.000  
  26462093.622                   139058706.281 0                        36.000  
                  26462091.013   106552313.633          41.000  
 22  1  7  4  0  2.0000000  0 10G01G03G04G06G09G17G19G21G31G32
  20605900.222    20605896.934   108285232.461 0  84378105.046 0        49.000  
        48.000                                                  
  20326650.100    20326646.669   106816592.981 0  83233712.137 0        50.000  
        49.000                                                  
  21348292.314    21348287.812   112186802.99110  87418290.147 0        47.000  
        47.000                                                  
  24976459.997    24976457.281   131252137.404 0 102274734.528 0        42.000  
        43.000                                                  
  24170303.297    24170299.330   127015830.54510  98973374.823 0        41.000  
        41.000                                                  
  22570108.292    22570101.966   118607235.353 0  92421188.224 0        46.000  
        44.000                                                  
  22820979.475                   119924565.89610                        43.000  
                                                                
  22424795.503                   117842701.363 0                        45.000  
                                                                
  22594787.539    22594781.374   118735917.414 0  92521496.752 0        44.000  
        41.000                                                  
  25550411.835    25550408.279   134267992.988 0 104624169.670 0        36.000  
        35.000                                                  
 22  1  7  4  0  1.0000000  0  0
 22  1  7  4  0  2.0000000  0  5E04E09E11E12E19
  23565861.759                   123839597.431 0                        48.000  
                  23565860.061    94890079.927          53.000  
  23424659.953                   123098071.206 0                        46.000  
                  23424659.614    94321901.313          51.000  
  22010387.433                   115665366.114 0                        46.000  
                  22010382.537    88626698.962          49.000  
  24779136.093                   130214943.211 0                        37.000  
                  24779133.663    99775702.676          44.000  
  26462580.589                   139061266.370 0                        36.000  
                  26462578.212   106554275.276          41.000  
 22  1  7  4  0  3.0000000  0 10G01G03G04G06G09G17G19G21G31G32
  20606272.934    20606269.682   108287191.000 0  84379631.171 0        49.000  
        48.000                                                  
  20326572.477    20326569.117   106816185.507 0  83233394.624 0        50.000  
        49.000                                                  
  21347849.556    21347844.981   112184476.43410  87416477.243 0        47.000  
        47.000                                                  
  24975785.459    24975782.725   131248592.878 0 102271972.566 0        42.000  
        43.000                                                  
  24169634.191    24169630.242   127012314.01410  98970634.685 0        41.000  
        41.000                                                  
  22570178.964    22570172.620   118607606.819 0  92421477.673 0        46.000  
        44.000                                                  
  22820783.702                   119923537.17510                        43.000  
                                                                
  22425275.840                   117845226.168 0                        45.000  
                                                                
  22594870.094    22594863.965   118736351.193 0  92521834.760 0        44.000  
        41.000                                                  
  25551068.540    25551064.912   134271443.729 0 104626858.527 0        36.000  
        35.000                                                  
 22  1  7  4  0  2.0000000  0  0
 22  1  7  4  0  3.0000000  0  5E04E09E11E12E19
  23565931.466                   123839963.083 0                        48.000  
                  23565929.608    94890360.107          53.000  
  23424257.704                   123095957.285 0                        46.000  
                  23424257.346    94320281.549          51.000  
  22010521.576                   115666071.110 0                        46.000  
                  22010516.733    88627239.151          49.000  
  24779686.441                   130217835.987 0                        38.000  
                  24779684.047    99777919.212          44.000  
  26463067.680                   139063826.438 0                        36.000  
                  26463065.268   106556236.876          41.000  
 22  1  7  4  0  4.0000000  0 10G01G03G04G06G09G17G19G21G31G32
  20606645.646    20606642.340   108289149.974 0  84381157.639 0        49.000  
        48.000                                                  
  20326494.907    20326491.620   106815778.308 0  83233077.322 0        50.000  
        49.000                                                  
  21347406.958    21347402.276   112182150.24710  87414664.634 0        47.000  
        47.000                                                  
  24975110.975    24975108.241   131245048.316 0 102269210.577 0        42.000  
        43.000                                                  
  24168965.139    24168961.029   127008797.56110  98967894.583 0        41.000  
        41.000                                                  
  22570249.725    22570243.453   118607978.790 0  92421767.516 0        46.000  
        44.000                                                  
  22820588.054                   119922509.02410                        43.000  
                                                                
  22425756.320                   117847751.205 0                        45.000  
                                                                
  22594952.631    22594946.716   118736785.594 0  92522173.263 0        44.000  
        41.000                                                  
  25551725.369    25551721.527   134274894.405 0 104629547.343 0        36.000  
        35.000                                                  
 22  1  7  4  0  3.0000000  0  0
 22  1  7  4  0  4.0000000  0  5E04E09E11E12E19
  23566001.048                   123840328.992 0                        48.000  
                  23565999.315    94890640.474          53.000  
  23423855.222                   123093843.523 0                        46.000  
                  23423855.114    94318661.915          51.000  
  22010655.718                   115666776.460 0                        46.000  
                  22010651.019    88627779.615          49.000  
  24780236.986                   130220728.866 0                        37.000  
                  24780234.645    99780135.829          44.000  
  26463555.094                   139066386.492 0                        36.000  
                  26463552.467   106558198.471          41.000  
 22  1  7  4  0  5.0000000  0 10G01G03G04G06G09G17G19G21G31G32
  20607018.465    20607015.303   108291109.454 0  84382684.519 0        49.000  
        48.000                                                  
  20326417.356    20326414.175   106815371.444 0  83232760.291 0        50.000  
        49.000                                                  
  21346964.450    21346959.696   112179824.48010  87412852.341 0        47.000  
        47.000                                                  
  24974436.473    24974433.721   131241503.808 0 102266448.625 0        42.000  
        43.000                                                  
  24168296.051    24168291.906   127005281.24410  98965154.598 0        41.000  
        41.000                                                  
  22570320.701    22570314.322   118608351.362 0  92422057.827 0        46.000  
        44.000                                                  
  22820392.603                   119921481.57410                        43.000  
                                                                
  22426236.836                   117850276.551 0                        45.000  
                                                                
  22595035.418    22595029.486   118737220.664 0  92522512.277 0        44.000  
        41.000                                                  
  25552381.949    25552378.089   134278345.011 0 104632236.161 0        36.000  
        35.000                                                  
 22  1  7  4  0  4.0000000  0  0
 22  1  7  4  0  5.0000000  0  5E04E09E11E12E19
  23566070.773                   123840695.190 0                        48.000  
                  23566068.932    94890921.074          53.000  
  23423453.097                   123091729.992 0                        46.000  
                  23423452.901    94317042.457          51.000  
  22010790.004                   115667482.239 0                        46.000  
                  22010785.287    88628320.406          49.000  
  24780787.477                   130223621.895 0                        38.000  
                  24780785.029    99782352.566          44.000  
  26464042.167                   139068946.590 0                        36.000  
                  26464039.791   106560160.115          41.000  
 22  1  7  4  0  6.0000000  0 10G01G03G04G06G09G17G19G21G31G32
  20607391.463    20607388.265   108293069.466 0  84384211.801 0        49.000  
        48.000                                                  
  20326340.037    20326336.892   106814964.923 0  83232443.522 0        50.000  
        49.000                                                  
  21346521.923    21346517.188   112177499.15510  87411040.397 0        47.000  
        47.000                                                  
  24973761.882    24973759.183   131237959.340 0 102263686.698 0        42.000  
        43.000                                                  
  24167626.946    24167622.907   127001765.10610  98962414.748 0        41.000  
        41.000                                                  
  22570391.623    22570385.440   118608724.530 0  92422348.608 0        46.000  
        44.000                                                  
  22820197.169                   119920454.81910                        43.000  
                                                                
  22426717.442                   117852802.210 0                        45.000  
                                                                
  22595118.330    22595112.398   118737656.423 0  92522851.832 0        44.000  
        41.000                                                  
  25553038.439    25553034.740   134281795.644 0 104634924.950 0        36.000  
        35.000                                                  
 22  1  7  4  0  5.0000000  0  0
 22  1  7  4  0  6.0000000  0  5E04E09E11E12E19
  23566140.587                   123841061.735 0                        48.000  
                  23566138.711    94891201.929          53.000  
  23423050.901                   123089616.690 0                        46.000  
                  23423050.705    94315423.178          51.000  
  22010924.629                   115668188.432 0                        46.000  
                  22010919.715    88628861.517          49.000  
  24781337.986                   130226515.126 0                        38.000  
                  24781335.520    99784569.462          44.000  
  26464529.384                   139071506.770 0                        36.000  
                  26464527.025   106562121.780          41.000  
 22  1  7  4  0  7.0000000  0 10G01G03G04G06G09G17G19G21G31G32
  20607764.676    20607761.406   108295030.382 0  84385739.771 0        49.000  
        48.000                                                  
  20326262.807    20326259.787   106814559.138 0  83232127.326 0        50.000  
        49.000                                                  
  21346079.683    21346075.019   112175174.63210  87409229.081 0        47.000  
        47.000                                                  
  24973087.433    24973084.717   131234415.307 0 102260925.118 0        42.000  
        43.000                                                  
  24166957.804    24166953.909   126998249.49910  98959675.316 0        41.000  
        41.000                                                  
  22570462.885    22570456.631   118609098.658 0  92422640.135 0        46.000  
        44.000                                                  
  22820001.986                   119919429.12110                        43.000  
                                                                
  22427198.261                   117855328.547 0                        45.000  
                                                                
  22595201.457    22595195.560   118738093.242 0  92523192.206 0        44.000  
        41.000                                                  
  25553695.107    25553691.319   134285246.652 0 104637614.038 0        36.000  
        35.000                                                  
 22  1  7  4  0  6.0000000  0  0
 22  1  7  4  0  7.0000000  0  5E04E09E11E12E19
  23566210.419                   123841428.958 0                        48.000  
                  23566208.561    94891483.298          53.000  
  23422648.812                   123087504.008 0                        46.000  
                  23422648.759    94313804.367          51.000  
  22011058.986                   115668895.434 0                        46.000  
                  22011054.233    88629403.242          49.000  
  24781888.637                   130229408.903 0                        38.000  
                  24781886.189    99786786.753          44.000  
  26465016.655                   139074067.332 0                        36.000  
                  26465014.135   106564083.785          41.000  
 22  1  7  4  0  8.0000000  0 10G01G03G04G06G09G17G19G21G31G32
  20608137.817    20608134.654   108296991.847 0  84387268.196 0        49.000  
        48.000                                                  
  20326185.505    20326182.593   106814153.744 0  83231811.437 0        50.000  
        49.000                                                  
  21345637.442    21345632.743   112172850.60810  87407418.155 0        47.000  
        47.000                                                  
  24972413.092    24972410.305   131230871.362 0 102258163.609 0        42.000  
        43.000                                                  
  24166288.842    24166285.000   126994734.09410  98956936.042 0        41.000  
        41.000                                                  
  22570534.200    22570528.017   118609473.422 0  92422932.160 0        46.000  
        44.000                                                  
  22819806.963                   119918404.15610                        43.000  
                                                                
  22427679.027                   117857855.254 0                        45.000  
                                                                
  22595284.709    22595278.794   118738530.810 0  92523533.160 0        44.000  
        41.000                                                  
  25554351.919    25554348.042   134288697.704 0 104640303.195 0        36.000  
        35.000                                                  
 22  1  7  4  0  7.0000000  0  0
 22  1  7  4  0  8.0000000  0  5E04E09E11E12E19
  23566280.376                   123841796.550 0                        48.000  
                  23566278.590    94891764.962          53.000  
  23422246.670                   123085391.604 0                        46.000  
                  23422246.724    94312185.783          51.000  
  22011193.808                   115669602.909 0                        46.000  
                  22011188.859    88629945.326          49.000  
  24782439.396                   130232302.891 0                        38.000  
                  24782436.823    99789004.254          44.000  
  26465503.996                   139076628.028 0                        36.000  
                  26465501.370   106566045.897          41.000  
 22  1  7  4  0  9.0000000  0 10G01G03G04G06G09G17G19G21G31G32
  20608511.118    20608507.991   108298953.426 0  84388796.700 0        49.000  
        48.000                                                  
  20326108.365    20326105.470   106813748.283 0  83231495.479 0        50.000  
        49.000                                                  
  21345195.220    21345190.574   112170526.58910  87405607.238 0        47.000  
        47.000                                                  
  24971738.626    24971735.785   131227327.053 0 102255401.801 0        42.000  
        43.000                                                  
  24165619.915    24165616.091   126991218.41910  98954196.557 0        41.000  
        41.000                                                  
  22570605.551    22570599.404   118609848.354 0  92423224.312 0        46.000  
        44.000                                                  
  22819611.959                   119917379.44710                        43.000  
                                                                
  22428159.936                   117860381.852 0                        45.000  
                                                                
  22595368.104    22595362.117   118738968.635 0  92523874.330 0        44.000  
        41.000                                                  
  25555008.445    25555004.639   134292148.316 0 104642991.958 0        37.000  
        35.000                                                  
 22  1  7  4  0  8.0000000  0  0
 22  1  7  4  0  9.0000000  0  5E04E09E11E12E19
  23566350.387                   123842164.025 0                        48.000  
                  23566348.422    94892046.541          53.000  
  23421844.689                   123083279.013 0                        46.000  
                  23421844.742    94310567.042          51.000  
  22011328.291                   115670310.384 0                        46.000  
                  22011323.484    88630487.422          49.000  
  24782990.030                   130235196.662 0                        37.000  
                  24782987.439    99791221.548          44.000  
  26465991.017                   139079188.370 0                        36.000  
                  26465988.479   106568007.720          41.000  
 22  1  7  4  0 10.0000000  0 10G01G03G04G06G09G17G19G21G31G32
  20608884.367    20608881.436   108300915.545 0  84390325.619 0        49.000  
        48.000                                                  
  20326031.224    20326028.347   106813343.191 0  83231179.830 0        50.000  
        49.000                                                  
  21344753.033    21344748.423   112168203.03410  87403796.671 0        47.000  
        47.000                                                  
  24971064.088    24971061.247   131223782.815 0 102252640.066 0        41.000  
        42.000                                                  
  24164951.006    24164947.164   126987702.94110  98951457.224 0        41.000  
        41.000                                                  
  22570676.991    22570670.862   118610223.898 0  92423516.940 0        46.000  
        44.000                                                  
  22819417.115                   119916355.47710                        43.000  
                                                                
  22428640.899                   117862908.764 0                        45.000  
                                                                
  22595451.659    22595445.530   118739407.168 0  92524216.039 0        43.000  
        41.000                                                  
  25555665.042    25555661.361   134295598.961 0 104645680.802 0        36.000  
        35.000                                                  
 22  1  7  4  0  9.0000000  0  0
 22  1  7  4  0 10.0000000  0  5E04E09E11E12E19
  23566420.487                   123842531.856 0                        48.000  
                  23566418.468    94892328.380          53.000  
  23421442.707                   123081166.688 0                        46.000  
                  23421442.761    94308948.503          51.000  
  22011462.844                   115671018.320 0                        46.000  
                  22011458.198    88631029.866          49.000  
  24783540.664                   130238090.615 0                        37.000  
                  24783538.323    99793438.990          44.000  
  26466478.448                   139081748.799 0                        36.000  
                  26466475.768   106569969.607          41.000  
 22  1  7  4  0 11.0000000  0 10G01G03G04G06G09G17G19G21G31G32
  20609257.704    20609254.809   108302877.848 0  84391854.682 0        49.000  
        48.000                                                  
  20325954.066    20325951.296   106812938.108 0  83230864.181 0        50.000  
        49.000                                                  
  21344310.864    21344306.343   112165879.58510  87401986.193 0        47.000  
        47.000                                                  
  24970389.461    24970386.763   131220238.300 0 102249878.111 0        41.000  
        42.000                                                  
  24164281.990    24164278.202   126984187.27910  98948717.739 0        41.000  
        41.000                                                  
  22570748.539    22570742.356   118610599.710 0  92423809.787 0        46.000  
        44.000                                                  
  22819222.450                   119915331.82410                        43.000  
                                                                
  22429121.808                   117865435.673 0                        45.000  
                                                                
  22595535.108    22595528.961   118739846.065 0  92524558.050 0        43.000  
        41.000                                                  
  25556321.550    25556317.940   134299049.276 0 104648369.346 0        37.000  
        34.000                                                  
 22  1  7  4  0 10.0000000  0  0
 22  1  7  4  0 11.0000000  0  5E04E09E11E12E19
  23566490.320                   123842899.662 0                        48.000  
                  23566488.497    94892610.209          53.000  
  23421040.851                   123079054.261 0                        46.000  
                  23421040.636    94307329.897          51.000  
  22011597.648                   115671726.361 0                        46.000  
                  22011593.020    88631572.398          49.000  
  24784091.370                   130240984.433 0                        37.000  
                  24784089.083    99795656.324          44.000  
  26466965.754                   139084308.979 0                        36.000  
                  26466963.056   106571931.281          41.000  
 22  1  7  4  0 12.0000000  0 10G01G03G04G06G09G17G19G21G31G32
  20609631.310    20609628.433   108304841.259 0  84393384.621 0        49.000  
        49.000                                                  
  20325877.229    20325874.406   106812533.958 0  83230549.264 0        50.000  
        49.000                                                  
  21343868.856    21343864.335   112163557.16010  87400176.514 0        47.000  
        47.000                                                  
  24969715.048    24969712.314   131216694.420 0 102247116.648 0        41.000  
        42.000                                                  
  24163613.081    24163609.400   126980672.35810  98945978.856 0        41.000  
        41.000                                                  
  22570820.230    22570814.226   118610976.702 0  92424103.549 0        46.000  
        44.000                                                  
  22819027.963                   119914309.47710                        43.000  
                                                                
  22429602.896                   117867963.484 0                        45.000  
                                                                
  22595618.860    22595612.784   118740286.229 0  92524901.043 0        43.000  
        41.000                                                  
  25556978.272    25556974.734   134302500.138 0 104651058.342 0        37.000  
        34.000                                                  
 22  1  7  4  0 11.0000000  0  0
 22  1  7  4  0 12.0000000  0  5E04E09E11E12E19
  23566560.473                   123843268.364 0                        48.000  
                  23566558.651    94892892.718          53.000  
  23420638.887                   123076942.670 0                        46.000  
                  23420638.905    94305711.918          51.000  
  22011732.577                   115672435.421 0                        45.000  
                  22011727.878    88632115.697          49.000  
  24784642.147                   130243879.020 0                        37.000  
                  24784639.895    99797874.248          44.000  
  26467453.078                   139086869.773 0                        36.000  
                  26467450.326   106573893.454          41.000  
 22  1  7  4  0 13.0000000  0 10G01G03G04G06G09G17G19G21G31G32
  20610005.147    20610002.253   108306805.379 0  84394915.095 0        49.000  
        49.000                                                  
  20325800.464    20325797.712   106812130.348 0  83230234.760 0        50.000  
        49.000                                                  
  21343427.116    21343422.452   112161235.34810  87398367.310 0        47.000  
        47.000                                                  
  24969040.689    24969037.991   131213150.765 0 102244355.352 0        41.000  
        42.000                                                  
  24162944.225    24162940.723   126977157.79610  98943240.232 0        41.000  
        41.000                                                  
  22570892.206    22570886.148   118611354.480 0  92424397.907 0        46.000  
        44.000                                                  
  22818833.584                   119913287.97510                        43.000  
                                                                
  22430084.055                   117870491.781 0                        45.000  
                                                                
  22595702.826    22595696.626   118740727.262 0  92525244.700 0        43.000  
        41.000                                                  
  25557635.102    25557631.474   134305951.228 0 104653747.481 0        37.000  
        34.000                                                  
 22  1  7  4  0 12.0000000  0  0
 22  1  7  4  0 13.0000000  0  5E04E09E11E12E19
  23566630.788                   123843637.576 0                        48.000  
                  23566628.912    94893175.621          53.000  
  23420237.334                   123074831.493 0                        46.000  
                  23420237.209    94304094.260          51.000  
  22011867.667                   115673145.085 0                        45.000  
                  22011862.896    88632659.461          49.000  
  24785193.066                   130246773.921 0                        37.000  
                  24785190.761    99800092.439          44.000  
  26467940.634                   139089430.801 0                        36.000  
                  26467937.668   106575855.821          41.000  
 22  1  7  4  0 14.0000000  0 10G01G03G04G06G09G17G19G21G31G32
  20610379.021    20610376.037   108308769.684 0  84396445.730 0        49.000  
        49.000                                                  
  20325723.680    20325720.857   106811726.756 0  83229920.273 0        50.000  
        49.000                                                  
  21342985.340    21342980.551   112158913.65610  87396558.195 0        47.000  
        47.000                                                  
  24968366.312    24968363.578   131209606.852 0 102241593.861 0        41.000  
        42.000                                                  
  24162275.388    24162271.903   126973643.06310  98940501.463 0        41.000  
        41.000                                                  
  22570964.272    22570958.107   118611732.528 0  92424692.497 0        46.000  
        44.000                                                  
  22818639.312                   119912266.86310                        43.000  
                                                                
  22430565.160                   117873020.072 0                        45.000  
                                                                
  22595786.828    22595780.539   118741168.665 0  92525588.646 0        43.000  
        41.000                                                  
  25558291.699    25558288.107   134309401.928 0 104656436.350 0        37.000  
        34.000                                                  
 22  1  7  4  0 13.0000000  0  0
 22  1  7  4  0 14.0000000  0  5E04E09E11E12E19
  23566701.031                   123844006.786 0                        48.000  
                  23566699.101    94893458.522          53.000  
  23419835.478                   123072720.222 0                        46.000  
                  23419835.478    94302476.535          51.000  
  22012002.685                   115673854.849 0                        45.000  
                  22011997.986    88633203.313          49.000  
  24785743.879                   130249668.722 0                        37.000  
                  24785741.467    99802310.518          44.000  
  26468427.887                   139091991.594 0                        36.000  
                  26468424.992   106577817.969          41.000  
 22  1  7  4  0 15.0000000  0 10G01G03G04G06G09G17G19G21G31G32
  20610752.895    20610749.946   108310734.494 0  84397976.746 0        49.000  
        48.000                                                  
  20325646.915    20325644.128   106811323.481 0  83229606.035 0        50.000  
        49.000                                                  
  21342543.546    21342538.936   112156592.37210  87394749.398 0        47.000  
        47.000                                                  
  24967691.918    24967689.166   131206062.960 0 102238832.389 0        40.000  
        42.000                                                  
  24161606.658    24161603.191   126970128.45110  98937762.813 0        41.000  
        41.000                                                  
  22571036.284    22571030.065   118612111.157 0  92424987.533 0        46.000  
        44.000                                                  
  22818445.147                   119911246.39110                        44.000  
                                                                
  22431046.302                   117875548.634 0                        45.000  
                                                                
  22595870.974    22595864.666   118741610.736 0  92525933.106 0        43.000  
        41.000                                                  
  25558948.350    25558944.740   134312852.661 0 104659125.246 0        37.000  
        34.000                                                  
 22  1  7  4  0 14.0000000  0  0
 22  1  7  4  0 15.0000000  0  5E04E09E11E12E19
  23566771.292                   123844376.274 0                        48.000  
                  23566769.416    94893741.638          53.000  
  23419433.800                   123070609.168 0                        46.000  
                  23419433.728    94300858.972          51.000  
  22012137.972                   115674565.023 0                        45.000  
                  22012133.076    88633747.468          49.000  
  24786294.781                   130252563.667 0                        37.000  
                  24786292.405    99804528.715          44.000  
  26468915.139                   139094552.426 0                        36.000  
                  26468912.280   106579780.151          41.000  
 22  1  7  4  0 16.0000000  0 10G01G03G04G06G09G17G19G21G31G32
  20611126.840    20611123.998   108312700.149 0  84399508.425 0        49.000  
        48.000                                                  
  20325570.221    20325567.559   106810920.892 0  83229292.324 0        49.000  
        48.000                                                  
  21342101.985    21342097.321   112154271.85510  87392941.209 0        47.000  
        47.000                                                  
  24967017.594    24967014.842   131202519.434 0 102236071.212 0        40.000  
        42.000                                                  
  24160937.945    24160934.532   126966614.34310  98935024.534 0        41.000  
        41.000                                                  
  22571108.475    22571102.346   118612490.707 0  92425283.279 0        46.000  
        43.000                                                  
  22818251.215                   119910226.95210                        43.000  
                                                                
  22431527.675                   117878077.841 0                        45.000  
                                                                
  22595955.226    22595948.847   118742053.812 0  92526278.382 0        43.000  
        40.000                                                  
  25559604.983    25559601.481   134316303.675 0 104661814.347 0        36.000  
        34.000                                                  
 22  1  7  4  0 15.0000000  0  0
 22  1  7  4  0 16.0000000  0  5E04E09E11E12E19
  23566841.964                   123844746.402 0                        48.000  
                  23566839.891    94894025.243          53.000  
  23419032.194                   123068498.671 0                        46.000  
                  23419032.122    94299241.845          51.000  
  22012273.079                   115675275.952 0                        45.000  
                  22012268.487    88634292.197          49.000  
  24786845.808                   130255459.108 0                        37.000  
                  24786843.432    99806747.316          44.000  
  26469402.571                   139097113.636 0                        36.000  
                  26469399.676   106581742.632          41.000  
 22  1  7  4  0 17.0000000  0 10G01G03G04G06G09G17G19G21G31G32
  20611500.945    20611498.104   108314665.903 0  84401040.180 0        49.000  
        48.000                                                  
  20325493.652    20325491.061   106810518.233 0  83228978.566 0        50.000  
        48.000                                                  
  21341660.513    21341655.688   112151951.35710  87391133.034 0        47.000  
        47.000                                                  
  24966343.128    24966340.591   131198975.560 0 102233309.747 0        40.000  
        42.000                                                  
  24160269.125    24160265.730   126963099.96510  98932286.074 0        41.000  
        41.000                                                  
  22571180.791    22571174.590   118612870.436 0  92425579.184 0        46.000  
        43.000                                                  
  22818057.246                   119909207.77410                        44.000  
                                                                
  22432008.995                   117880606.954 0                        45.000  
                                                                
  22596039.639    22596033.189   118742497.169 0  92526623.853 0        43.000  
        40.000                                                  
  25560261.491    25560258.185   134319754.307 0 104664503.127 0        36.000  
        34.000                                                  
 22  1  7  4  0 16.0000000  0  0
 22  1  7  4  0 17.0000000  0  5E04E09E11E12E19
  23566912.154                   123845116.453 0                        48.000  
                  23566910.313    94894308.786          53.000  
  23418630.570                   123066388.010 0                        46.000  
                  23418630.462    94297624.579          51.000  
  22012408.401                   115675986.896 0                        45.000  
                  22012403.666    88634836.952          49.000  
  24787396.603                   130258354.305 0                        37.000  
                  24787394.298    99808965.711          44.000  
  26469889.895                   139099674.479 0                        36.000  
                  26469886.946   106583704.843          41.000  
 22  1  7  4  0 18.0000000  0 10G01G03G04G06G09G17G19G21G31G32
  20611875.069    20611872.353   108316632.078 0  84402572.268 0        49.000  
        49.000                                                  
  20325417.030    20325414.457   106810115.811 0  83228664.991 0        50.000  
        49.000                                                  
  21341219.058    21341214.269   112149631.19810  87389325.112 0        47.000  
        47.000                                                  
  24965668.858    24965666.106   131195431.641 0 102230548.238 0        40.000  
        42.000                                                  
  24159600.449    24159597.000   126959585.64410  98929547.641 0        41.000  
        41.000                                                  
  22571253.285    22571246.888   118613250.670 0  92425875.459 0        46.000  
        44.000                                                  
  22817863.439                   119908189.18310                        44.000  
                                                                
  22432490.315                   117883136.263 0                        45.000  
                                                                
  22596124.035    22596117.745   118742941.119 0  92526969.776 0        43.000  
        41.000                                                  
  25560917.981    25560914.782   134323204.802 0 104667191.822 0        36.000  
        34.000                                                  
 22  1  7  4  0 17.0000000  0  0
 22  1  7  4  0 18.0000000  0  5E04E09E11E12E19
  23566982.683                   123845486.698 0                        48.000  
                  23566980.824    94894592.483          53.000  
  23418229.035                   123064277.464 0                        46.000  
                  23418228.945    94296007.412          51.000  
  22012543.688                   115676698.159 0                        45.000  
                  22012539.078    88635381.953          49.000  
  24787947.559                   130261249.584 0                        37.000  
                  24787945.325    99811184.174          44.000  
  26470377.093                   139102235.275 0                        36.000  
                  26470374.324   106585667.014          41.000  
 22  1  7  4  0 19.0000000  0 10G01G03G04G06G09G17G19G21G31G32
  20612249.318    20612246.548   108318599.147 0  84404105.045 0        49.000  
        49.000                                                  
  20325340.676    20325338.031   106809714.109 0  83228351.981 0        50.000  
        49.000                                                  
  21340777.693    21340772.940   112147311.83910  87387517.820 0        47.000  
        47.000                                                  
  24964994.589    24964991.855   131191888.116 0 102227787.056 0        40.000  
        42.000                                                  
  24158931.826    24158928.323   126956071.86510  98926809.618 0        41.000  
        41.000                                                  
  22571325.834    22571319.401   118613631.841 0  92426172.479 0        46.000  
        44.000                                                  
  22817669.864                   119907171.64810                        44.000  
                                                                
  22432971.760                   117885666.254 0                        45.000  
                                                                
  22596208.645    22596202.337   118743386.101 0  92527316.514 0        43.000  
        41.000                                                  
  25561574.614    25561571.469   134326655.669 0 104669880.834 0        36.000  
        34.000                                                  
 22  1  7  4  0 18.0000000  0  0
 22  1  7  4  0 19.0000000  0  5E04E09E11E12E19
  23567053.140                   123845857.645 0                        48.000  
                  23567051.353    94894876.717          53.000  
  23417827.446                   123062167.528 0                        46.000  
                  23417827.393    94294390.712          51.000  
  22012679.099                   115677410.232 0                        45.000  
                  22012674.561    88635927.559          49.000  
  24788498.621                   130264145.412 0                        37.000  
                  24788496.334    99813403.058          44.000  
  26470864.453                   139104796.529 0                        36.000  
                  26470861.683   106587629.531          41.000  
 22  1  7  4  0 20.0000000  0 10G01G03G04G06G09G17G19G21G31G32
  20612623.835    20612621.029   108320566.935 0  84405638.382 0        49.000  
        49.000                                                  
  20325264.375    20325261.605   106809312.964 0  83228039.400 0        49.000  
        49.000                                                  
  21340336.454    21340331.736   112144993.12310  87385711.033 0        47.000  
        47.000                                                  
  24964320.408    24964317.585   131188344.863 0 102225026.089 0        40.000  
        42.000                                                  
  24158263.292    24158259.807   126952558.44410  98924071.890 0        41.000  
        41.000                                                  
  22571398.543    22571392.163   118614013.815 0  92426470.121 0        46.000  
        44.000                                                  
  22817476.360                   119906154.99710                        44.000  
                                                                
  22433453.277                   117888196.740 0                        45.000  
                                                                
  22596293.487    22596287.197   118743831.991 0  92527663.958 0        43.000  
        41.000                                                  
  25562231.211    25562228.084   134330106.736 0 104672569.998 0        36.000  
        34.000                                                  
 22  1  7  4  0 19.0000000  0  0
 22  1  7  4  0 20.0000000  0  5E04E09E11E12E19
  23567124.062                   123846229.099 0                        48.000  
                  23567122.061    94895161.338          53.000  
  23417426.233                   123060058.041 0                        46.000  
                  23417426.037    94292774.350          51.000  
  22012814.761                   115678122.936 0                        45.000  
                  22012810.169    88636473.663          49.000  
  24789049.809                   130267041.631 0                        37.000  
                  24789047.415    99815622.240          44.000  
  26471352.117                   139107358.015 0                        36.000  
                  26471349.186   106589592.237          41.000  
 22  1  7  4  0 21.0000000  0 10G01G03G04G06G09G17G19G21G31G32
  20612998.477    20612995.564   108322535.170 0  84407172.073 0        49.000  
        49.000                                                  
  20325188.039    20325185.305   106808912.092 0  83227727.035 0        49.000  
        49.000                                                  
  21339895.285    21339890.622   112142674.77910  87383904.534 0        47.000  
        47.000                                                  
  24963646.103    24963643.333   131184801.590 0 102222265.090 0        40.000  
        42.000                                                  
  24157594.758    24157591.256   126949045.10210  98921334.241 0        41.000  
        41.000                                                  
  22571471.359    22571465.069   118614396.323 0  92426768.180 0        46.000  
        44.000                                                  
  22817283.196                   119905138.98510                        44.000  
                                                                
  22433934.954                   117890727.494 0                        45.000  
                                                                
  22596378.525    22596372.235   118744278.499 0  92528011.902 0        43.000  
        41.000                                                  
  25562887.987    25562884.842   134333557.759 0 104675259.063 0        36.000  
        35.000                                                  
 22  1  7  4  0 20.0000000  0  0
 22  1  7  4  0 21.0000000  0  5E04E09E11E12E19
  23567195.002                   123846600.820 0                        48.000  
                  23567192.751    94895446.161          53.000  
  23417024.823                   123057948.719 0                        47.000  
                  23417024.591    94291158.116          51.000  
  22012950.637                   115678836.004 0                        45.000  
                  22012945.937    88637020.036          49.000  
  24789600.997                   130269937.943 0                        37.000  
                  24789598.442    99817841.493          44.000  
  26471839.441                   139109919.519 0                        36.000  
                  26471836.653   106591554.937          41.000  
 22  1  7  4  0 22.0000000  0 10G01G03G04G06G09G17G19G21G31G32
  20613372.976    20613370.242   108324503.316 0  84408705.694 0        49.000  
        49.000                                                  
  20325111.649    20325108.897   106808510.956 0  83227414.461 0        49.000  
        49.000                                                  
  21339454.010    21339449.400   112140356.26010  87382097.891 0        47.000  
        47.000                                                  
  24962971.726    24962969.045   131181257.762 0 102219503.666 0        39.000  
        42.000                                                  
  24156926.081    24156922.651   126945531.30510  98918596.218 0        41.000  
        41.000                                                  
  22571544.086    22571537.814   118614778.811 0  92427066.224 0        46.000  
        44.000                                                  
  22817089.960                   119904123.04710                        44.000  
                                                                
  22434416.453                   117893257.930 0                        45.000  
                                                                
  22596463.475    22596457.131   118744725.075 0  92528359.884 0        43.000  
        41.000                                                  
  25563544.566    25563541.439   134337008.119 0 104677947.687 0        36.000  
        35.000                                                  
 22  1  7  4  0 21.0000000  0  0
 22  1  7  4  0 22.0000000  0  5E04E09E11E12E19
  23567265.603                   123846972.228 0                        48.000  
                  23567263.459    94895730.746          53.000  
  23416623.342                   123055839.018 0                        47.000  
                  23416623.110    94289541.596          51.000  
  22013086.388                   115679548.867 0                        45.000  
                  22013081.528    88637566.257          49.000  
  24790152.078                   130272833.830 0                        37.000  
                  24790149.737    99820060.415          44.000  
  26472326.961                   139112480.435 0                        36.000  
                  26472323.977   106593517.220          41.000  
 22  1  7  4  0 23.0000000  0 10G01G03G04G06G09G17G19G21G31G32
  20613747.618    20613744.920   108326472.219 0  84410239.904 0        49.000  
        49.000                                                  
  20325035.401    20325032.596   106808110.418 0  83227102.352 0        49.000  
        49.000                                                  
  21339012.984    21339008.428   112138038.41810  87380291.785 0        47.000  
        47.000                                                  
  24962297.349    24962294.722   131177714.196 0 102216742.464 0        39.000  
        42.000                                                  
  24156257.440    24156254.117   126942017.92810  98915858.519 0        41.000  
        41.000                                                  
  22571617.009    22571610.755   118615162.129 0  92427364.921 0        46.000  
        44.000                                                  
  22816896.778                   119903108.01510                        44.000  
                                                                
  22434898.095                   117895788.927 0                        45.000  
                                                                
  22596548.621    22596542.277   118745172.585 0  92528708.588 0        43.000  
        41.000                                                  
  25564201.146    25564198.126   134340458.742 0 104680636.490 0        36.000  
        34.000                                                  
 22  1  7  4  0 22.0000000  0  0
 22  1  7  4  0 23.0000000  0  5E04E09E11E12E19
  23567336.454                   123847344.187 0                        48.000  
                  23567334.184    94896015.753          53.000  
  23416221.950                   123053729.801 0                        47.000  
                  23416221.682    94287925.436          51.000  
  22013222.121                   115680262.405 0                        46.000  
                  22013217.243    88638112.998          49.000  
  24790703.391                   130275730.142 0                        37.000  
                  24790700.925    99822279.660          44.000  
  26472814.339                   139115041.692 0                        36.000  
                  26472811.319   106595479.724          41.000  
 22  1  7  4  0 24.0000000  0 10G01G03G04G06G09G17G19G21G31G32
  20614122.331    20614119.669   108328441.721 0  84411774.581 0        49.000  
        49.000                                                  
  20324959.333    20324956.510   106807710.300 0  83226790.567 0        49.000  
        49.000                                                  
  21338571.941    21338567.349   112135721.08710  87378486.073 0        47.000  
        47.000                                                  
  24961623.133    24961620.470   131174170.776 0 102213981.369 0        39.000  
        42.000                                                  
  24155588.978    24155585.672   126938504.76610  98913120.994 0        41.000  
        41.000                                                  
  22571690.147    22571683.804   118615546.140 0  92427664.134 0        46.000  
        44.000                                                  
  22816703.739                   119902093.75210                        44.000  
                                                                
  22435379.790                   117898320.306 0                        45.000  
                                                                
  22596633.909    22596627.548   118745620.866 0  92529057.907 0        43.000  
        41.000                                                  
  25564857.707    25564854.813   134343909.445 0 104683325.340 0        35.000  
        34.000                                                  
 22  1  7  4  0 23.0000000  0  0
 22  1  7  4  0 24.0000000  0  5E04E09E11E12E19
  23567407.179                   123847716.554 0                        48.000  
                  23567405.035    94896301.078          53.000  
  23415820.684                   123051620.889 0                        47.000  
                  23415820.362    94286309.521          51.000  
  22013358.086                   115680976.479 0                        46.000  
                  22013353.190    88638660.137          49.000  
  24791254.418                   130278626.710 0                        37.000  
                  24791251.988    99824499.106          44.000  
  26473301.824                   139117603.082 0                        36.000  
                  26473298.857   106597442.346          41.000  
 22  1  7  4  0 25.0000000  0 10G01G03G04G06G09G17G19G21G31G32
  20614497.313    20614494.597   108330412.066 0  84413309.914 0        49.000  
        48.000                                                  
  20324883.300    20324880.531   106807310.857 0  83226479.315 0        49.000  
        49.000                                                  
  21338131.166    21338126.502   112133404.53410  87376680.959 0        47.000  
        47.000                                                  
  24960948.863    24960946.290   131170627.770 0 102211220.557 0        39.000  
        42.000                                                  
  24154920.462    24154917.228   126934992.11310  98910383.851 0        41.000  
        41.000                                                  
  22571763.410    22571757.067   118615931.034 0  92427964.049 0        46.000  
        44.000                                                  
  22816510.933                   119901080.50810                        44.000  
                                                                
  22435861.575                   117900852.324 0                        45.000  
                                                                
  22596719.413    22596713.033   118746070.156 0  92529407.992 0        43.000  
        41.000                                                  
  25565514.483    25565511.571   134347360.436 0 104686014.421 0        35.000  
        34.000                                                  
 22  1  7  4  0 24.0000000  0  0
 22  1  7  4  0 25.0000000  0  5E04E09E11E12E19
  23567478.298                   123848089.563 0                        48.000  
                  23567476.028    94896586.888          53.000  
  23415419.524                   123049512.546 0                        47.000  
                  23415419.167    94284694.035          51.000  
  22013494.266                   115681691.293 0                        46.000  
                  22013489.191    88639207.850          49.000  
  24791805.677                   130281523.776 0                        37.000  
                  24791803.408    99826718.925          44.000  
  26473789.308                   139120164.843 0                        36.000  
                  26473786.306   106599405.259          41.000  
 22  1  7  4  0 26.0000000  0 10G01G03G04G06G09G17G19G21G31G32
  20614872.223    20614869.542   108332382.492 0  84414845.307 0        49.000  
        48.000                                                  
  20324807.232    20324804.534   106806911.317 0  83226167.987 0        49.000  
        49.000                                                  
  21337690.302    21337685.638   112131087.94810  87374875.834 0        47.000  
        47.000                                                  
  24960274.522    24960272.110   131167084.318 0 102208459.451 0        38.000  
        42.000                                                  
  24154252.000    24154248.623   126931479.13910  98907646.494 0        41.000  
        41.000                                                  
  22571836.620    22571830.276   118616316.083 0  92428264.097 0        46.000  
        44.000                                                  
  22816318.305                   119900067.50410                        44.000  
                                                                
  22436343.466                   117903384.207 0                        45.000  
                                                                
  22596805.059    22596798.537   118746519.702 0  92529758.296 0        43.000  
        40.000                                                  
                  25566168.114                   104688865.14310                
        34.000                                                  
 22  1  7  4  0 25.0000000  0  0
 22  1  7  4  0 26.0000000  0  5E04E09E11E12E19
  23567549.309                   123848462.432 0                        48.000  
                  23567546.933    94896872.595          53.000  
  23415018.329                   123047403.993 0                        47.000  
                  23415017.971    94283078.388          51.000  
  22013630.089                   115682406.090 0                        46.000  
                  22013625.264    88639755.555          49.000  
  24792356.954                   130284420.555 0                        37.000  
                  24792354.703    99828938.548          44.000  
  26474276.793                   139122726.206 0                        36.000  
                  26474273.738   106601367.855          41.000  
 22  1  7  4  0 27.0000000  0 10G01G03G04G06G09G17G19G21G31G32
  20615247.311    20615244.756   108334353.664 0  84416381.287 0        49.000  
        48.000                                                  
  20324731.342    20324728.697   106806512.356 0  83225857.101 0        49.000  
        49.000                                                  
  21337249.687    21337244.934   112128772.05210  87373071.235 0        47.000  
        47.000                                                  
  24959600.127    24959597.893   131163541.168 0 102205698.553 0        38.000  
        42.000                                                  
  24153583.609    24153580.232   126927966.59210  98904909.428 0        41.000  
        41.000                                                  
  22571910.061    22571903.753   118616701.975 0  92428564.798 0        46.000  
        44.000                                                  
  22816125.748                   119899055.44210                        44.000  
                                                                
  22436825.358                   117905916.621 0                        46.000  
                                                                
  22596890.705    22596884.147   118746970.163 0  92530109.305 0        43.000  
        40.000                                                  
  25566827.606    25566824.854   134355325.77910 104691554.124 0        35.000  
        34.000                                                  
 22  1  7  4  0 26.0000000  0  0
 22  1  7  4  0 27.0000000  0  5E04E09E11E12E19
  23567620.374                   123848835.864 0                        48.000  
                  23567618.087    94897158.733          53.000  
  23414617.098                   123045295.905 0                        47.000  
                  23414616.794    94281463.103          51.000  
  22013766.376                   115683121.561 0                        46.000  
                  22013761.390    88640303.769          49.000  
  24792908.142                   130287317.754 0                        37.000  
                  24792906.069    99831158.479          44.000  
  26474764.171                   139125287.888 0                        36.000  
                  26474761.133   106603330.698          41.000  
 22  1  7  4  0 28.0000000  0 10G01G03G04G06G09G17G19G21G31G32
  20615622.632    20615620.148   108336326.232 0  84417918.351 0        49.000  
        48.000                                                  
  20324655.595    20324653.094   106806114.626 0  83225547.182 0        49.000  
        49.000                                                  
  21336809.234    21336804.534   112126457.46210  87371267.666 0        47.000  
        47.000                                                  
  24958925.947    24958923.820   131159998.960 0 102202938.386 0        38.000  
        42.000                                                  
  24152915.379    24152912.145   126924455.06410  98902173.177 0        41.000  
        41.000                                                  
  22571983.807    22571977.481   118617089.346 0  92428866.632 0        46.000  
        44.000                                                  
  22815933.513                   119898044.92710                        44.000  
                                                                
  22437307.572                   117908450.233 0                        46.000  
                                                                
  22596976.637    22596970.133   118747422.189 0  92530461.526 0        43.000  
        40.000                                                  
  25567484.400    25567481.702   134358777.430 0 104694243.690 0        35.000  
        34.000                                                  
 22  1  7  4  0 27.0000000  0  0
 22  1  7  4  0 28.0000000  0  5E04E09E11E12E19
  23567691.583                   123849210.475 0                        48.000  
                  23567689.295    94897445.773          53.000  
  23414216.349                   123043188.939 0                        47.000  
                  23414215.867    94279848.669          51.000  
  22013902.895                   115683838.329 0                        46.000  
                  22013897.767    88640852.977          49.000  
  24793459.902                   130290216.006 0                        37.000  
                  24793457.472    99833379.229          44.000  
  26475251.852                   139127850.484 0                        36.000  
                  26475248.814   106605294.256          41.000  
 22  1  7  4  0 29.0000000  0 10G01G03G04G06G09G17G19G21G31G32
  20615997.864    20615995.559   108338298.660 0  84419455.308 0        49.000  
        48.000                                                  
  20324579.813    20324577.258   106805716.577 0  83225237.014 0        49.000  
        49.000                                                  
  21336368.673    21336364.081   112124142.66710  87369463.915 0        47.000  
        47.000                                                  
  24958251.802    24958249.711   131156456.139 0 102200177.751 0        38.000  
        42.000                                                  
  24152247.042    24152243.808   126920943.04010  98899436.533 0        41.000  
        41.000                                                  
  22572057.463    22572051.209   118617476.643 0  92429168.427 0        46.000  
        44.000                                                  
  22815741.117                   119897034.44910                        44.000  
                                                                
  22437789.696                   117910983.489 0                        46.000  
                                                                
  22597062.730    22597056.190   118747874.240 0  92530813.781 0        43.000  
        40.000                                                  
  25568141.051    25568138.406   134362228.456 0 104696932.803 0        35.000  
        34.000                                                  
 22  1  7  4  0 28.0000000  0  0
 22  1  7  4  0 29.0000000  0  5E04E09E11E12E19
  23567762.862                   123849584.767 0                        48.000  
                  23567760.593    94897732.564          53.000  
  23413815.172                   123041081.550 0                        47.000  
                  23413814.796    94278233.922          51.000  
  22014039.271                   115684554.866 0                        46.000  
                  22014034.089    88641402.009          49.000  
  24794011.161                   130293113.800 0                        37.000  
                  24794008.785    99835599.608          44.000  
  26475739.212                   139130412.518 0                        36.000  
                  26475736.353   106607257.362          41.000  
 22  1  7  4  0 30.0000000  0 10G01G03G04G06G09G17G19G21G31G32
  20616373.185    20616370.808   108340270.888 0  84420992.104 0        48.000  
        48.000                                                  
  20324504.066    20324501.493   106805318.161 0  83224926.558 0        49.000  
        49.000                                                  
  21335928.148    21335923.538   112121827.57810  87367659.949 0        47.000  
        47.000                                                  
  24957577.532    24957575.460   131152912.672 0 102197416.592 0        38.000  
        42.000                                                  
  24151578.687    24151575.381   126917430.48410  98896699.461 0        41.000  
        41.000                                                  
  22572131.244    22572124.954   118617863.817 0  92429470.111 0        46.000  
        44.000                                                  
  22815548.900                   119896023.94010                        44.000  
                                                                
  22438271.605                   117913516.353 0                        46.000  
                                                                
  22597148.627    22597142.247   118748326.257 0  92531166.006 0        43.000  
        40.000                                                  
                  25568795.039                   104699654.331 0                
        34.000                                                  
 22  1  7  4  0 29.0000000  0  0
 22  1  7  4  0 30.0000000  0  5E04E09E11E12E19
  23567834.070                   123849958.642 0                        48.000  
                  23567831.694    94898019.035          53.000  
  23413414.280                   123038973.677 0                        47.000  
                  23413413.565    94276618.789          51.000  
  22014175.594                   115685271.097 0                        46.000  
                  22014170.448    88641950.810          49.000  
  24794562.331                   130296011.048 0                        37.000  
                  24794560.151    99837819.551          44.000  
  26476226.607                   139132973.840 0                        37.000  
                  26476223.820   106609219.942          41.000  
 22  1  7  4  0 31.0000000  0 10G01G03G04G06G09G17G19G21G31G32
  20616748.488    20616746.022   108342243.498 0  84422529.203 0        48.000  
        48.000                                                  
  20324428.355    20324425.728   106804919.948 0  83224616.264 0        49.000  
        49.000                                                  
  21335487.659    21335483.030   112119512.78210  87365856.219 0        47.000  
        47.000                                                  
  24956903.281    24956901.154   131149369.050 0 102194655.369 0        37.000  
        42.000                                                  
  24150910.296    24150907.044   126913917.90910  98893962.395 0        41.000  
        41.000                                                  
  22572204.900    22572198.753   118618251.452 0  92429772.171 0        46.000  
        44.000                                                  
  22815356.737                   119895013.97010                        44.000  
                                                                
  22438753.676                   117916049.366 0                        45.000  
                                                                
  22597234.773    22597228.376   118748778.825 0  92531518.666 0        43.000  
        40.000                                                  
  25569453.870    25569451.458   134367633.815 0 104702342.717 0        34.000  
        34.000                                                  
 22  1  7  4  0 30.0000000  0  0
 22  1  7  4  0 31.0000000  0  5E04E09E11E12E19
  23567905.207                   123850332.682 0                        48.000  
                  23567902.991    94898305.644          53.000  
  23413013.121                   123036865.895 0                        47.000  
                  23413012.531    94275003.742          51.000  
  22014311.989                   115685987.628 0                        46.000  
                  22014306.806    88642499.849          49.000  
  24795113.698                   130298908.312 0                        38.000  
                  24795111.518    99840039.538          44.000  
  26476713.824                   139135535.123 0                        36.000  
                  26476711.251   106611182.478          41.000  
 22  1  7  4  0 32.0000000  0 10G01G03G04G06G09G17G19G21G31G32
  20617124.113    20617121.575   108344217.272 0  84424067.216 0        48.000  
        48.000                                                  
  20324352.751    20324350.089   106804522.729 0  83224306.741 0        49.000  
        49.000                                                  
  21335047.366    21335042.738   112117199.07210  87364053.326 0        47.000  
        47.000                                                  
  24956229.082    24956226.920   131145826.146 0 102191894.669 0        37.000  
        42.000                                                  
  24150241.977    24150238.689   126910406.14010  98891225.970 0        41.000  
        41.000                                                  
  22572278.949    22572272.785   118618640.334 0  92430075.194 0        46.000  
        44.000                                                  
  22815164.823                   119894005.35310                        44.000  
                                                                
  22439235.818                   117918583.344 0                        45.000  
                                                                
  22597321.188    22597314.701   118749232.734 0  92531872.345 0        43.000  
        40.000                                                  
  25570110.432    25570108.180   134371084.639 0 104705031.623 0        34.000  
        34.000                                                  
 22  1  7  4  0 31.0000000  0  0
 22  1  7  4  0 32.0000000  0  5E04E09E11E12E19
  23567976.665                   123850707.693 0                        48.000  
                  23567974.270    94898592.985          53.000  
  23412612.068                   123034758.994 0                        47.000  
                  23412611.675    94273389.370          51.000  
  22014448.561                   115686705.244 0                        46.000  
                  22014443.344    88643049.711          49.000  
  24795665.297                   130301806.405 0                        37.000  
                  24795663.045    99842260.164          44.000  
  26477201.702                   139138097.096 0                        37.000  
                  26477198.807   106613145.546          41.000  
 22  1  7  4  0 33.0000000  0 10G01G03G04G06G09G17G19G21G31G32
  20617499.970    20617497.164   108346191.906 0  84425605.892 0        48.000  
        48.000                                                  
  20324277.308    20324274.646   106804126.203 0  83223997.757 0        49.000  
        49.000                                                  
  21334607.323    21334602.624   112114886.14610  87362251.046 0        47.000  
        47.000                                                  
  24955554.956    24955552.740   131142283.674 0 102189134.304 0        37.000  
        42.000                                                  
  24149573.693    24149570.638   126906894.89310  98888489.934 0        41.000  
        41.000                                                  
  22572353.159    22572346.995   118619030.155 0  92430378.937 0        46.000  
        44.000                                                  
  22814973.214                   119892997.76010                        44.000  
                                                                
  22439718.210                   117921117.985 0                        45.000  
                                                                
  22597407.728    22597401.277   118749687.662 0  92532226.843 0        43.000  
        40.000                                                  
  25570767.083    25570764.956   134374535.711 0 104707720.804 0        34.000  
        34.000                                                  
 22  1  7  4  0 32.0000000  0  0
 22  1  7  4  0 33.0000000  0  5E04E09E11E12E19
  23568048.230                   123851083.375 0                        48.000  
                  23568045.747    94898880.841          53.000  
  23412211.355                   123032652.670 0                        47.000  
                  23412210.819    94271775.431          51.000  
  22014585.117                   115687423.627 0                        46.000  
                  22014580.006    88643600.159          49.000  
  24796217.056                   130304705.012 0                        37.000  
                  24796214.537    99844481.177          44.000  
  26477689.437                   139140659.474 0                        36.000  
                  26477686.256   106615108.917          41.000  
 22  1  7  4  0 34.0000000  0 10G01G03G04G06G09G17G19G21G31G32
  20617875.773    20617873.003   108348167.137 0  84427145.030 0        48.000  
        48.000                                                  
  20324201.811    20324199.220   106803730.093 0  83223689.100 0        50.000  
        49.000                                                  
  21334167.138    21334162.635   112112573.72110  87360449.152 0        47.000  
        47.000                                                  
  24954880.739    24954878.559   131138741.302 0 102186374.002 0        37.000  
        41.000                                                  
  24148905.517    24148902.425   126903383.85210  98885754.042 0        41.000  
        41.000                                                  
  22572427.459    22572421.294   118619420.633 0  92430683.222 0        46.000  
        44.000                                                  
  22814781.586                   119891990.92510                        44.000  
                                                                
  22440200.692                   117923652.988 0                        46.000  
                                                                
  22597494.464    22597487.959   118750143.364 0  92532581.909 0        43.000  
        40.000                                                  
  25571423.912    25571421.625   134377986.872 0 104710410.034 0        34.000  
        34.000                                                  
 22  1  7  4  0 33.0000000  0  0
 22  1  7  4  0 34.0000000  0  5E04E09E11E12E19
  23568119.671                   123851459.419 0                        48.000  
                  23568117.312    94899168.981          53.000  
  23411810.660                   123030546.660 0                        47.000  
                  23411810.089    94270161.729          51.000  
  22014722.172                   115688142.502 0                        46.000  
                  22014716.901    88644150.984          49.000  
  24796768.441                   130307603.851 0                        37.000  
                  24796766.154    99846702.377          43.000  
  26478176.958                   139143221.955 0                        36.000  
                  26478173.866   106617072.399          41.000  
 22  1  7  4  0 35.0000000  0 10G01G03G04G06G09G17G19G21G31G32
  20618251.576    20618249.003   108350142.572 0  84428684.328 0        48.000  
        48.000                                                  
  20324126.583    20324123.777   106803334.025 0  83223380.473 0        49.000  
        48.000                                                  
  21333727.220    21333722.574   112110261.42910  87358647.377 0        47.000  
        47.000                                                  
  24954206.631    24954204.343   131135198.689 0 102183613.520 0        37.000  
        41.000                                                  
  24148237.394    24148234.267   126899872.70510  98883018.074 0        41.000  
        41.000                                                  
  22572501.865    22572495.701   118619811.413 0  92430987.714 0        46.000  
        44.000                                                  
  22814590.120                   119890984.47610                        44.000  
                                                                
  22440683.102                   117926187.996 0                        46.000  
                                                                
  22597581.182    22597574.696   118750599.436 0  92532937.310 0        43.000  
        40.000                                                  
  25572080.384    25572078.276   134381437.687 0 104713098.985 0        34.000  
        34.000                                                  
 22  1  7  4  0 34.0000000  0  0
 22  1  7  4  0 35.0000000  0  5E04E09E11E12E19
  23568191.272                   123851835.480 0                        48.000  
                  23568188.949    94899457.136          53.000  
  23411409.876                   123028440.580 0                        47.000  
                  23411409.358    94268547.981          51.000  
  22014858.888                   115688861.500 0                        46.000  
                  22014853.652    88644701.905          49.000  
  24797319.986                   130310502.581 0                        37.000  
                  24797317.770    99848923.486          43.000  
  26478664.407                   139145784.236 0                        36.000  
                  26478661.494   106619035.683          41.000  
 22  1  7  4  0 36.0000000  0 10G01G03G04G06G09G17G19G21G31G32
  20618627.523    20618625.021   108352118.374 0  84430223.914 0        48.000  
        48.000                                                  
  20324051.193    20324048.460   106802938.153 0  83223072.002 0        49.000  
        48.000                                                  
  21333287.249    21333282.568   112107949.43510  87356845.813 0        47.000  
        47.000                                                  
  24953532.361    24953530.217   131131655.941 0 102180852.958 0        37.000  
        41.000                                                  
  24147569.307    24147566.091   126896361.53510  98880282.107 0        41.000  
        41.000                                                  
  22572576.308    22572570.179   118620202.622 0  92431292.559 0        46.000  
        44.000                                                  
  22814398.618                   119889978.55910                        44.000  
                                                                
  22441165.619                   117928723.169 0                        46.000  
                                                                
  22597668.097    22597661.557   118751056.051 0  92533293.109 0        43.000  
        40.000                                                  
  25572736.999    25572734.945   134384888.422 0 104715787.836 0        34.000  
        34.000                                                  
 22  1  7  4  0 35.0000000  0  0
 22  1  7  4  0 36.0000000  0  5E04E09E11E12E19
  23568262.927                   123852211.712 0                        48.000  
                  23568260.568    94899745.415          53.000  
  23411009.127                   123026334.585 0                        47.000  
                  23411008.538    94266934.295          51.000  
  22014995.818                   115689580.784 0                        46.000  
                  22014990.565    88645253.042          49.000  
  24797871.549                   130313401.353 0                        37.000  
                  24797869.387    99851144.616          43.000  
  26479152.106                   139148346.414 0                        36.000  
                  26479149.068   106620998.908          41.000  
 22  1  7  4  0 37.0000000  0 10G01G03G04G06G09G17G19G21G31G32
  20619003.630    20619001.021   108354094.605 0  84431763.827 0        48.000  
        48.000                                                  
  20323975.929    20323973.159   106802542.546 0  83222763.734 0        49.000  
        48.000                                                  
  21332847.403    21332842.775   112105637.77410  87355044.522 0        47.000  
        47.000                                                  
  24952858.252    24952856.000   131128113.205 0 102178092.359 0        37.000  
        41.000                                                  
  24146901.131    24146898.093   126892850.44110  98877546.182 0        41.000  
        41.000                                                  
  22572650.768    22572644.657   118620594.342 0  92431597.793 0        46.000  
        44.000                                                  
  22814207.312                   119888973.22910                        44.000  
                                                                
  22441648.207                   117931258.562 0                        46.000  
                                                                
  22597755.066    22597748.579   118751513.256 0  92533649.375 0        44.000  
        40.000                                                  
  25573393.579    25573391.595   134388339.019 0 104718476.636 0        34.000  
        34.000                                                  
 22  1  7  4  0 36.0000000  0  0
 22  1  7  4  0 37.0000000  0  5E04E09E11E12E19
  23568334.635                   123852588.169 0                        48.000  
                  23568332.169    94900033.868          53.000  
  23410608.415                   123024228.734 0                        47.000  
                  23410607.861    94265320.720          51.000  
  22015132.820                   115690300.390 0                        46.000  
                  22015127.406    88645804.428          49.000  
  24798423.220                   130316300.195 0                        37.000  
                  24798420.986    99853365.800          43.000  
  26479639.787                   139150908.531 0                        36.000  
                  26479636.482   106622962.109          41.000  
 22  1  7  4  0 38.0000000  0 10G01G03G04G06G09G17G19G21G31G32
  20619379.844    20619377.182   108356071.528 0  84433304.289 0        48.000  
        48.000                                                  
  20323900.683    20323898.020   106802147.443 0  83222455.871 0        49.000  
        48.000                                                  
  21332407.647    21332403.090   112103326.72510  87353243.712 0        47.000  
        47.000                                                  
  24952184.107    24952181.927   131124570.669 0 102175331.955 0        36.000  
        41.000                                                  
  24146233.026    24146229.917   126889339.64610  98874810.510 0        41.000  
        42.000                                                  
  22572725.478    22572719.331   118620986.830 0  92431903.624 0        46.000  
        44.000                                                  
  22814016.095                   119887968.77310                        44.000  
                                                                
  22442130.850                   117933794.436 0                        46.000  
                                                                
  22597842.195    22597835.673   118751971.323 0  92534006.327 0        44.000  
        40.000                                                  
  25574050.265    25574048.282   134391789.763 0 104721165.534 0        34.000  
        34.000                                                  
 22  1  7  4  0 37.0000000  0  0
 22  1  7  4  0 38.0000000  0  5E04E09E11E12E19
  23568406.326                   123852965.108 0                        48.000  
                  23568403.878    94900322.693          53.000  
  23410207.880                   123022123.291 0                        47.000  
                  23410207.130    94263707.465          51.000  
  22015269.947                   115691020.612 0                        46.000  
                  22015264.515    88646356.282          49.000  
  24798974.872                   130319199.397 0                        37.000  
                  24798972.638    99855587.255          43.000  
  26480127.469                   139153470.894 0                        37.000  
                  26480124.163   106624925.462          41.000  
 22  1  7  4  0 39.0000000  0 10G01G03G04G06G09G17G19G21G31G32
  20619756.255    20619753.486   108358049.074 0  84434845.233 0        48.000  
        48.000                                                  
  20323825.686    20323822.952   106801752.812 0  83222148.362 0        49.000  
        48.000                                                  
  21331967.979    21331963.387   112101016.22610  87351443.325 0        47.000  
        47.000                                                  
  24951509.998    24951507.890   131121028.282 0 102172571.660 0        36.000  
        41.000                                                  
  24145565.046    24145562.008   126885829.16310  98872075.077 0        41.000  
        42.000                                                  
  22572800.350    22572794.131   118621380.017 0  92432210.012 0        46.000  
        44.000                                                  
  22813825.076                   119886965.11010                        44.000  
                                                                
  22442613.546                   117936330.735 0                        46.000  
                                                                
  22597929.485    22597922.945   118752430.183 0  92534363.875 0        44.000  
        40.000                                                  
  25574706.988    25574704.951   134395240.680 0 104723854.519 0        34.000  
        34.000                                                  
 22  1  7  4  0 38.0000000  0  0
 22  1  7  4  0 39.0000000  0  5E04E09E11E12E19
  23568478.159                   123853342.463 0                        48.000  
                  23568475.693    94900611.838          53.000  
  23409807.346                   123020018.194 0                        47.000  
                  23409806.489    94262094.464          51.000  
  22015406.931                   115691741.365 0                        46.000  
                  22015401.624    88646908.557          49.000  
  24799526.453                   130322098.861 0                        37.000  
                  24799524.327    99857808.943          43.000  
  26480614.954                   139156033.419 0                        37.000  
                  26480611.880   106626888.971          41.000  
 22  1  7  4  0 40.0000000  0 10G01G03G04G06G09G17G19G21G31G32
  20620132.577    20620129.968   108360027.217 0  84436386.635 0        48.000  
        48.000                                                  
  20323750.583    20323747.974   106801358.587 0  83221841.173 0        49.000  
        48.000                                                  
  21331528.348    21331523.773   112098706.23110  87349643.323 0        47.000  
        47.000                                                  
  24950835.925    24950833.799   131117486.009 0 102169811.480 0        36.000  
        41.000                                                  
  24144897.120    24144894.118   126882318.91110  98869339.807 0        41.000  
        42.000                                                  
  22572875.328    22572869.110   118621773.864 0  92432516.908 0        46.000  
        44.000                                                  
  22813634.216                   119885962.20310                        44.000  
                                                                
  22443096.242                   117938867.399 0                        46.000  
                                                                
  22598017.025    22598010.342   118752889.805 0  92534722.013 0        44.000  
        40.000                                                  
  25575363.567    25575361.637   134398691.574 0 104726543.578 0        34.000  
        33.000                                                  
 22  1  7  4  0 39.0000000  0  0
 22  1  7  4  0 40.0000000  0  5E04E09E11E12E19
  23568550.028                   123853720.215 0                        48.000  
                  23568547.491    94900901.284          53.000  
  23409407.027                   123017913.402 0                        47.000  
                  23409405.901    94260481.700          51.000  
  22015544.183                   115692462.626 0                        46.000  
                  22015538.929    88647461.204          49.000  
  24800078.231                   130324998.589 0                        37.000  
                  24800076.211    99860030.806          43.000  
  26481102.599                   139158596.088 0                        36.000  
                  26481099.472   106628852.554          41.000  
 22  1  7  4  0 41.0000000  0 10G01G03G04G06G09G17G19G21G31G32
  20620509.113    20620506.504   108362005.793 0  84437928.387 0        49.000  
        48.000                                                  
  20323675.730    20323672.942   106800964.640 0  83221534.192 0        49.000  
        48.000                                                  
  21331088.716    21331084.267   112096396.60010  87347843.617 0        47.000  
        47.000                                                  
  24950161.816    24950159.690   131113943.737 0 102167051.250 0        36.000  
        41.000                                                  
  24144229.140    24144226.102   126878808.72110  98866604.596 0        41.000  
        42.000                                                  
  22572950.396    22572944.159   118622168.239 0  92432824.209 0        46.000  
        44.000                                                  
  22813443.483                   119884959.91010                        44.000  
                                                                
  22443579.080                   117941404.309 0                        46.000  
                                                                
  22598104.619    22598097.936   118753350.050 0  92535080.641 0        44.000  
        40.000                                                  
  25576020.307    25576018.306   134402142.442 0 104729232.567 0        34.000  
        34.000                                                  
 22  1  7  4  0 40.0000000  0  0
 22  1  7  4  0 41.0000000  0  5E04E09E11E12E19
  23568621.951                   123854098.201 0                        48.000  
                  23568619.539    94901190.907          53.000  
  23409006.385                   123015808.766 0                        47.000  
                  23409005.438    94258869.056          51.000  
  22015681.685                   115693184.236 0                        46.000  
                  22015676.163    88648014.131          49.000  
  24800630.330                   130327898.429 0                        37.000  
                  24800627.953    99862252.749          43.000  
  26481590.352                   139161158.715 0                        36.000  
                  26481587.011   106630816.146          41.000  
 22  1  7  4  0 42.0000000  0 10G01G03G04G06G09G17G19G21G31G32
  20620885.721    20620883.076   108363984.720 0  84439470.410 0        49.000  
        48.000                                                  
  20323600.858    20323597.964   106800570.872 0  83221227.367 0        49.000  
        48.000                                                  
  21330649.317    21330644.707   112094087.24210  87346044.117 0        47.000  
        47.000                                                  
  24949487.725    24949485.635   131110401.356 0 102164290.946 0        36.000  
        41.000                                                  
  24143561.178    24143558.230   126875298.52810  98863869.390 0        41.000  
        42.000                                                  
  22573025.535    22573019.370   118622563.043 0  92433131.850 0        46.000  
        44.000                                                  
  22813252.963                   119883958.14210                        44.000  
                                                                
  22444061.830                   117943941.354 0                        46.000  
                                                                
  22598192.267    22598185.620   118753810.844 0  92535439.710 0        44.000  
        40.000                                                  
  25576676.940    25576674.921   134405593.127 0 104731921.390 0        34.000  
        34.000                                                  
 22  1  7  4  0 41.0000000  0  0
 22  1  7  4  0 42.0000000  0  5E04E09E11E12E19
  23568694.053                   123854476.346 0                        48.000  
                  23568691.390    94901480.655          53.000  
  23408605.690                   123013704.203 0                        47.000  
                  23408604.868    94257256.474          51.000  
  22015818.901                   115693906.102 0                        46.000  
                  22015813.558    88648567.249          49.000  
  24801182.054                   130330798.251 0                        37.000  
                  24801179.767    99864474.700          43.000  
  26482077.926                   139163721.266 0                        37.000  
                  26482074.656   106632779.634          41.000  
 22  1  7  4  0 43.0000000  0 10G01G03G04G06G09G17G19G21G31G32
  20621262.382    20621259.755   108365964.290 0  84441012.928 0        49.000  
        48.000                                                  
  20323525.987    20323523.200   106800177.565 0  83220920.896 0        49.000  
        48.000                                                  
  21330209.882    21330205.343   112091778.43810  87344245.052 0        47.000  
        47.000                                                  
  24948813.581    24948811.526   131106859.113 0 102161530.779 0        35.000  
        41.000                                                  
  24142893.270    24142890.339   126871788.61910  98861134.387 0        41.000  
        42.000                                                  
  22573100.764    22573094.617   118622958.559 0  92433440.041 0        46.000  
        44.000                                                  
  22813062.533                   119882957.17210                        44.000  
                                                                
  22444544.705                   117946478.809 0                        46.000  
                                                                
  22598280.129    22598273.392   118754272.415 0  92535799.367 0        44.000  
        40.000                                                  
  25577333.555    25577331.518   134409043.915 0 104734610.325 0        34.000  
        34.000                                                  
 22  1  7  4  0 42.0000000  0  0
 22  1  7  4  0 43.0000000  0  5E04E09E11E12E19
  23568765.993                   123854854.919 0                        48.000  
                  23568763.492    94901770.732          53.000  
  23408205.371                   123011599.995 0                        47.000  
                  23408204.584    94255644.156          51.000  
  22015956.385                   115694628.522 0                        46.000  
                  22015951.060    88649120.782          49.000  
  24801733.778                   130333698.363 0                        37.000  
                  24801731.687    99866696.868          43.000  
  26482565.608                   139166283.973 0                        36.000  
                  26482562.266   106634743.284          41.000  
 22  1  7  4  0 44.0000000  0 10G01G03G04G06G09G17G19G21G31G32
  20621639.239    20621636.613   108367944.433 0  84442555.894 0        49.000  
        48.000                                                  
  20323451.205    20323448.346   106799784.678 0  83220614.739 0        49.000  
        48.000                                                  
  21329770.751    21329766.140   112089470.13110  87342446.371 0        47.000  
        47.000                                                  
  24948139.418    24948137.506   131103316.990 0 102158770.693 0        35.000  
        41.000                                                  
  24142225.343    24142222.413   126868278.93710  98858399.581 0        41.000  
        42.000                                                  
  22573176.135    22573170.078   118623354.739 0  92433748.752 0        46.000  
        44.000                                                  
  22812872.138                   119881956.95410                        44.000  
                                                                
  22445027.722                   117949016.658 0                        46.000  
                                                                
  22598368.152    22598361.379   118754734.752 0  92536159.639 0        44.000  
        40.000                                                  
  25577990.188    25577988.223   134412494.774 0 104737299.295 0        34.000  
        33.000                                                  
 22  1  7  4  0 43.0000000  0  0
 22  1  7  4  0 44.0000000  0  5E04E09E11E12E19
  23568838.291                   123855233.874 0                        48.000  
                  23568835.593    94902061.093          53.000  
  23407805.069                   123009496.092 0                        47.000  
                  23407804.175    94254032.070          51.000  
  22016093.923                   115695351.403 0                        46.000  
                  22016088.616    88649674.692          49.000  
  24802285.823                   130336598.740 0                        37.000  
                  24802283.536    99868919.226          43.000  
  26483053.450                   139168846.832 0                        36.000  
                  26483050.090   106636707.016          41.000  
 22  1  7  4  0 45.0000000  0 10G01G03G04G06G09G17G19G21G31G32
  20622016.186    20622013.488   108369925.250 0  84444099.385 0        49.000  
        48.000                                                  
  20323376.638    20323373.707   106799392.269 0  83220308.975 0        49.000  
        48.000                                                  
  21329331.548    21329326.955   112087162.41610  87340648.149 0        47.000  
        47.000                                                  
  24947465.274    24947463.594   131099775.125 0 102156010.768 0        35.000  
        41.000                                                  
  24141557.542    24141554.594   126864769.55110  98855664.988 0        41.000  
        42.000                                                  
  22573251.578    22573245.592   118623751.665 0  92434058.047 0        46.000  
        44.000                                                  
  22812682.012                   119880957.58310                        43.000  
                                                                
  22445510.883                   117951554.962 0                        46.000  
                                                                
  22598456.300    22598449.492   118755197.916 0  92536520.539 0        44.000  
        40.000                                                  
  25578646.786    25578644.892   134415945.767 0 104739988.378 0        34.000  
        33.000                                                  
 22  1  7  4  0 44.0000000  0  0
 22  1  7  4  0 45.0000000  0  5E04E09E11E12E19
  23568910.375                   123855613.277 0                        48.000  
                  23568907.802    94902351.812          53.000  
  23407404.963                   123007392.565 0                        47.000  
                  23407403.873    94252420.281          51.000  
  22016231.461                   115696074.906 0                        46.000  
                  22016226.297    88650229.046          49.000  
  24802837.744                   130339499.433 0                        37.000  
                  24802835.617    99871141.833          43.000  
  26483541.238                   139171409.850 0                        36.000  
                  26483537.629   106638670.889          41.000  
 22  1  7  4  0 46.0000000  0 10G01G03G04G06G09G17G19G21G31G32
  20622393.187    20622390.560   108371906.601 0  84445643.305 0        49.000  
        48.000                                                  
  20323301.963    20323299.033   106799000.241 0  83220003.501 0        49.000  
        48.000                                                  
  21328892.506    21328887.949   112084855.15610  87338850.284 0        47.000  
        47.000                                                  
  24946790.968    24946789.682   131096233.255 0 102153250.917 0        35.000  
        41.000                                                  
  24140889.723    24140886.846   126861260.35510  98852930.552 0        42.000  
        42.000                                                  
  22573327.307    22573321.303   118624149.197 0  92434367.813 0        46.000  
        44.000                                                  
  22812491.921                   119879958.92310                        44.000  
                                                                
  22445993.900                   117954093.574 0                        46.000  
                                                                
  22598544.465    22598537.747   118755661.782 0  92536882.004 0        44.000  
        40.000                                                  
  25579303.490    25579301.650   134419396.778 0 104742677.503 0        34.000  
        33.000                                                  
 22  1  7  4  0 45.0000000  0  0
 22  1  7  4  0 46.0000000  0  5E04E09E11E12E19
  23568982.494                   123855993.027 0                        48.000  
                  23568980.082    94902642.787          53.000  
  23407004.804                   123005289.299 0                        47.000  
                  23407003.822    94250808.688          51.000  
  22016369.196                   115696798.828 0                        46.000  
                  22016364.067    88650783.749          49.000  
  24803389.807                   130342400.323 0                        37.000  
                  24803387.699    99873364.591          43.000  
  26484028.955                   139173972.967 0                        36.000  
                  26484025.346   106640634.843          41.000  
 22  1  7  4  0 47.0000000  0 10G01G03G04G06G09G17G19G21G31G32
  20622770.384    20622767.668   108373888.504 0  84447187.636 0        49.000  
        48.000                                                  
  20323227.467    20323224.483   106798608.583 0  83219698.313 0        49.000  
        48.000                                                  
  21328453.428    21328449.015   112082548.36310  87337052.787 0        47.000  
        47.000                                                  
  24946116.931    24946115.680   131092691.499 0 102150491.114 0        36.000  
        41.000                                                  
  24140221.922    24140219.170   126857751.34810  98850196.247 0        42.000  
        42.000                                                  
  22573403.143    22573397.032   118624547.367 0  92434678.072 0        46.000  
        44.000                                                  
  22812302.045                   119878961.00210                        44.000  
                                                                
  22446476.989                   117956632.552 0                        46.000  
                                                                
  22598632.917    22598626.163   118756126.382 0  92537244.035 0        44.000  
        40.000                                                  
  25579960.141    25579958.354   134422847.795 0 104745366.593 0        34.000  
        34.000                                                  
 22  1  7  4  0 46.0000000  0  0
 22  1  7  4  0 47.0000000  0  5E04E09E11E12E19
  23569054.900                   123856373.129 0                        48.000  
                  23569052.452    94902934.036          53.000  
  23406604.681                   123003186.306 0                        47.000  
                  23406603.538    94249197.306          51.000  
  22016507.073                   115697523.229 0                        46.000  
                  22016501.927    88651338.809          49.000  
  24803941.567                   130345301.425 0                        37.000  
                  24803939.744    99875587.510          43.000  
  26484516.565                   139176536.173 0                        36.000  
                  26484513.099   106642598.859          41.000  
 22  1  7  4  0 48.0000000  0 10G01G03G04G06G09G17G19G21G31G32
  20623147.582    20623144.901   108375870.756 0  84448732.252 0        49.000  
        48.000                                                  
  20323153.007    20323149.934   106798217.113 0  83219393.269 0        49.000  
        48.000                                                  
  21328014.529    21328010.116   112080241.82510  87335255.492 0        47.000  
        47.000                                                  
  24945442.911    24945441.696   131089149.634 0 102147731.213 0        36.000  
        41.000                                                  
  24139554.228    24139551.351   126854242.33210  98847461.966 0        41.000  
        42.000                                                  
  22573478.926    22573472.904   118624945.941 0  92434988.659 0        46.000  
        44.000                                                  
  22812112.240                   119877963.56610                        43.000  
                                                                
  22446960.186                   117959171.640 0                        46.000  
                                                                
  22598721.262    22598714.686   118756591.480 0  92537606.449 0        44.000  
        40.000                                                  
  25580616.881    25580615.023   134426298.668 0 104748055.578 0        34.000  
        34.000                                                  
 22  1  7  4  0 47.0000000  0  0
 22  1  7  4  0 48.0000000  0  5E04E09E11E12E19
  23569127.305                   123856753.355 0                        48.000  
                  23569124.750    94903225.382          53.000  
  23406204.308                   123001083.360 0                        47.000  
                  23406203.450    94247585.953          51.000  
  22016645.004                   115698247.877 0                        46.000  
                  22016639.786    88651894.063          49.000  
  24804493.523                   130348202.520 0                        37.000  
                  24804491.647    99877810.430          43.000  
  26485004.050                   139179099.284 0                        36.000  
                  26485000.870   106644562.804          41.000  
 22  1  7  4  0 49.0000000  0 10G01G03G04G06G09G17G19G21G31G32
  20623524.761    20623522.081   108377853.226 0  84450277.031 0        49.000  
        48.000                                                  
  20323078.440    20323075.473   106797825.687 0  83219088.262 0        49.000  
        48.000                                                  
  21327575.666    21327571.127   112077935.44210  87333458.306 0        47.000  
        47.000                                                  
  24944768.802    24944767.677   131085607.500 0 102144971.127 0        36.000  
        40.000                                                  
  24138886.374    24138883.622   126850733.16610  98844727.544 0        41.000  
        42.000                                                  
  22573554.798    22573548.847   118625344.838 0  92435299.467 0        46.000  
        44.000                                                  
  22811922.525                   119876966.51410                        43.000  
                                                                
  22447443.400                   117961710.756 0                        46.000  
                                                                
  22598809.892    22598803.227   118757056.977 0  92537969.172 0        44.000  
        40.000                                                  
  25581273.586    25581271.692   134429749.204 0 104750744.310 0        34.000  
        34.000                                                  
 22  1  7  4  0 48.0000000  0  0
 22  1  7  4  0 49.0000000  0  5E04E09E11E12E19
  23569199.585                   123857133.612 0                        48.000  
                  23569197.119    94903516.748          53.000  
  23405804.024                   122998980.361 0                        47.000  
                  23405803.184    94245974.565          51.000  
  22016782.935                   115698972.659 0                        46.000  
                  22016777.592    88652449.416          49.000  
  24805045.551                   130351103.487 0                        37.000  
                  24805043.782    99880033.257          43.000  
  26485491.696                   139181662.140 0                        36.000  
                  26485488.640   106646526.536          41.000  
 22  1  7  4  0 50.0000000  0 10G01G03G04G06G09G17G19G21G31G32
  20623902.226    20623899.528   108379836.713 0  84451822.604 0        49.000  
        48.000                                                  
  20323004.247    20323001.210   106797435.118 0  83218783.915 0        49.000  
        48.000                                                  
  21327136.964    21327132.371   112075630.00410  87331661.854 0        47.000  
        47.000                                                  
  24944094.783    24944093.782   131082065.973 0 102142211.481 0        36.000  
        40.000                                                  
  24138218.751    24138215.946   126847224.68010  98841993.669 0        41.000  
        42.000                                                  
  22573630.795    22573624.951   118625744.812 0  92435611.147 0        46.000  
        44.000                                                  
  22811733.078                   119875970.68810                        43.000  
                                                                
  22447926.703                   117964250.686 0                        46.000  
                                                                
  22598898.683    22598892.054   118757523.672 0  92538332.819 0        44.000  
        40.000                                                  
  25581930.272    25581928.432   134433200.247 0 104753433.419 0        34.000  
        34.000                                                  
 22  1  7  4  0 49.0000000  0  0
 22  1  7  4  0 50.0000000  0  5E04E09E11E12E19
  23569272.169                   123857514.689 0                        48.000  
                  23569269.632    94903808.737          53.000  
  23405404.187                   122996878.105 0                        47.000  
                  23405403.025    94244363.745          51.000  
  22016920.919                   115699698.369 0                        46.000  
                  22016915.755    88653005.477          49.000  
  24805597.972                   130354005.160 0                        37.000  
                  24805595.792    99882256.597          43.000  
  26485979.574                   139184225.537 0                        36.000  
                  26485976.393   106648490.717          41.000  
 22  1  7  4  0 51.0000000  0 10G01G03G04G06G09G17G19G21G31G32
  20624279.799    20624277.029   108381820.805 0  84453368.649 0        49.000  
        48.000                                                  
  20322930.145    20322926.982   106797044.974 0  83218479.914 0        49.000  
        49.000                                                  
  21326698.297    21326693.776   112073325.08610  87329865.816 0        47.000  
        47.000                                                  
  24943420.942    24943419.780   131078524.545 0 102139451.930 0        37.000  
        40.000                                                  
  24137551.164    24137548.413   126843716.43910  98839259.954 0        41.000  
        42.000                                                  
  22573707.077    22573701.234   118626145.473 0  92435923.361 0        46.000  
        44.000                                                  
  22811543.719                   119874975.62210                        43.000  
                                                                
  22448410.024                   117966791.011 0                        46.000  
                                                                
  22598987.707    22598981.041   118757991.124 0  92538697.069 0        44.000  
        40.000                                                  
  25582587.138    25582585.136   134436651.394 0 104756122.644 0        34.000  
        34.000                                                  
 22  1  7  4  0 50.0000000  0  0
 22  1  7  4  0 51.0000000  0  5E04E09E11E12E19
  23569344.807                   123857896.152 0                        48.000  
                  23569342.287    94904101.032          53.000  
  23405004.207                   122994776.171 0                        47.000  
                  23405003.099    94242753.168          51.000  
  22017059.172                   115700424.601 0                        46.000  
                  22017053.883    88653561.933          49.000  
  24806150.285                   130356907.045 0                        37.000  
                  24806148.105    99884480.142          43.000  
  26486467.487                   139186789.094 0                        36.000  
                  26486464.342   106650454.996          41.000  
 22  1  7  4  0 52.0000000  0 10G01G03G04G06G09G17G19G21G31G32
  20624657.407    20624654.494   108383805.162 0  84454914.903 0        49.000  
        48.000                                                  
  20322855.935    20322852.772   106796654.918 0  83218175.975 0        49.000  
        48.000                                                  
  21326259.827    21326255.235   112071020.34110  87328069.918 0        47.000  
        47.000                                                  
  24942746.904    24942745.868   131074982.889 0 102136692.207 0        37.000  
        40.000                                                  
  24136883.578    24136880.737   126840208.07110  98836526.179 0        41.000  
        42.000                                                  
  22573783.342    22573777.589   118626546.477 0  92436235.821 0        46.000  
        44.000                                                  
  22811354.415                   119873980.96510                        44.000  
                                                                
  22448893.346                   117969331.378 0                        46.000  
                                                                
  22599076.784    22599070.136   118758459.007 0  92539061.646 0        44.000  
        40.000                                                  
  25583243.949    25583241.751   134440102.246 0 104758811.590 0        35.000  
        34.000                                                  
 22  1  7  4  0 51.0000000  0  0
 22  1  7  4  0 52.0000000  0  5E04E09E11E12E19
  23569417.212                   123858277.692 0                        48.000  
                  23569414.835    94904393.377          53.000  
  23404604.262                   122992674.214 0                        47.000  
                  23404603.118    94241142.577          51.000  
  22017197.371                   115701150.994 0                        46.000  
                  22017192.046    88654118.530          49.000  
  24806702.563                   130359808.892 0                        37.000  
                  24806700.205    99886703.626          43.000  
  26486955.169                   139189352.458 0                        36.000  
                  26486952.167   106652419.128          41.000  
 22  1  7  4  0 53.0000000  0 10G01G03G04G06G09G17G19G21G31G32
  20625035.104    20625032.138   108385790.034 0  84456461.557 0        49.000  
        48.000                                                  
  20322781.796    20322778.633   106796265.218 0  83217872.307 0        49.000  
        49.000                                                  
  21325821.303    21325816.657   112068716.04510  87326274.358 0        47.000  
        47.000                                                  
  24942073.010    24942071.920   131071441.353 0 102133932.539 0        37.000  
        40.000                                                  
  24136216.062    24136213.168   126836699.90310  98833792.543 0        41.000  
        42.000                                                  
  22573859.732    22573854.068   118626948.071 0  92436548.758 0        46.000  
        44.000                                                  
  22811165.271                   119872987.02610                        44.000  
                                                                
  22449376.774                   117971872.056 0                        46.000  
                                                                
  22599166.004    22599159.321   118758927.589 0  92539426.791 0        44.000  
        40.000                                                  
  25583900.779    25583898.456   134443553.099 0 104761500.566 0        35.000  
        34.000                                                  
 22  1  7  4  0 52.0000000  0  0
 22  1  7  4  0 53.0000000  0  5E04E09E11E12E19
  23569490.010                   123858659.555 0                        48.000  
                  23569487.527    94904685.970          53.000  
  23404204.353                   122990572.495 0                        47.000  
                  23404203.192    94239532.171          51.000  
  22017335.570                   115701877.839 0                        46.000  
                  22017330.388    88654675.461          49.000  
  24807254.841                   130362710.894 0                        37.000  
                  24807252.465    99888927.256          43.000  
  26487443.011                   139191915.896 0                        36.000  
                  26487439.938   106654383.327          41.000  
 22  1  7  4  0 54.0000000  0 10G01G03G04G06G09G17G19G21G31G32
  20625412.945    20625409.961   108387775.494 0  84458008.664 0        49.000  
        48.000                                                  
  20322707.640    20322704.530   106795875.925 0  83217568.964 0        50.000  
        49.000                                                  
  21325382.940    21325378.277   112066412.25010  87324479.191 0        47.000  
        47.000                                                  
  24941399.187    24941397.954   131067899.888 0 102131172.983 0        37.000  
        40.000                                                  
  24135548.458    24135545.688   126833191.92810  98831059.059 0        41.000  
        42.000                                                  
  22573936.337    22573930.744   118627350.337 0  92436862.196 0        46.000  
        44.000                                                  
  22810976.289                   119871993.82710                        44.000  
                                                                
  22449860.310                   117974413.112 0                        46.000  
                                                                
  22599255.367    22599248.701   118759396.918 0  92539792.502 0        44.000  
        40.000                                                  
  25584557.412    25584555.196   134447004.025 0 104764189.627 0        35.000  
        34.000                                                  
 22  1  7  4  0 53.0000000  0  0
 22  1  7  4  0 54.0000000  0  5E04E09E11E12E19
  23569562.809                   123859041.761 0                        48.000  
                  23569560.218    94904978.841          53.000  
  23403804.534                   122988471.081 0                        47.000  
                  23403803.301    94237921.999          51.000  
  22017473.894                   115702605.157 0                        46.000  
                  22017468.802    88655232.752          49.000  
  24807807.262                   130365613.169 0                        37.000  
                  24807804.778    99891151.050          43.000  
  26487930.817                   139194479.436 0                        36.000  
                  26487927.708   106656347.587          41.000  
 22  1  7  4  0 55.0000000  0 10G01G03G04G06G09G17G19G21G31G32
  20625791.018    20625787.891   108389761.640 0  84459556.308 0        49.000  
        48.000                                                  
  20322633.697    20322630.553   106795487.163 0  83217266.033 0        50.000  
        49.000                                                  
  21324944.667    21324939.985   112064109.06910  87322684.502 0        47.000  
        47.000                                                  
  24940725.185    24940724.095   131064358.680 0 102128413.598 0        37.000  
        39.000                                                  
  24134881.032    24134878.298   126829684.31110  98828325.849 0        41.000  
        42.000                                                  
  22574013.067    22574007.402   118627753.363 0  92437176.244 0        46.000  
        44.000                                                  
  22810787.538                   119871001.49610                        44.000  
                                                                
  22450343.953                   117976954.658 0                        46.000  
                                                                
  22599344.855    22599338.172   118759867.108 0  92540158.882 0        44.000  
        40.000                                                  
  25585214.063    25585211.900   134450455.080 0 104766878.782 0        35.000  
        34.000                                                  
 22  1  7  4  0 54.0000000  0  0
 22  1  7  4  0 55.0000000  0  5E04E09E11E12E19
  23569635.696                   123859424.489 0                        48.000  
                  23569633.016    94905272.091          53.000  
  23403404.447                   122986370.068 0                        47.000  
                  23403403.553    94236312.134          51.000  
  22017612.361                   115703333.085 0                        46.000  
                  22017607.322    88655790.521          49.000  
  24808359.469                   130368515.770 0                        37.000  
                  24808357.003    99893375.114          43.000  
  26488418.820                   139197043.213 0                        36.000  
                  26488415.586   106658312.042          41.000  
 22  1  7  4  0 56.0000000  0 10G01G03G04G06G09G17G19G21G31G32
  20626169.144    20626165.892   108391748.279 0  84461104.343 0        49.000  
        48.000                                                  
  20322559.755    20322556.539   106795098.707 0  83216963.340 0        50.000  
        49.000                                                  
  21324506.554    21324501.783   112061806.29610  87320890.143 0        47.000  
        47.000                                                  
  24940051.273    24940050.219   131060817.476 0 102125654.220 0        37.000  
        39.000                                                  
  24134213.517    24134210.676   126826176.81810  98825592.746 0        41.000  
        42.000                                                  
  22574089.885    22574084.257   118628156.958 0  92437490.734 0        46.000  
        44.000                                                  
  22810598.931                   119870009.82010                        44.000  
                                                                
  22450827.668                   117979496.457 0                        46.000  
                                                                
  22599434.361    22599427.821   118760337.946 0  92540525.773 0        44.000  
        40.000                                                  
  25585870.892    25585868.587   134453906.165 0 104769567.909 0        35.000  
        34.000                                                  
 22  1  7  4  0 55.0000000  0  0
 22  1  7  4  0 56.0000000  0  5E04E09E11E12E19
  23569708.566                   123859807.499 0                        48.000  
                  23569705.850    94905565.571          53.000  
  23403004.895                   122984269.276 0                        47.000  
                  23403003.734    94234702.432          51.000  
  22017750.846                   115704061.418 0                        46.000  
                  22017745.932    88656348.595          49.000  
  24808911.997                   130371418.512 0                        37.000  
                  24808909.388    99895599.308          43.000  
  26488906.609                   139199607.011 0                        36.000  
                  26488903.411   106660276.515          41.000  
 22  1  7  4  0 57.0000000  0 10G01G03G04G06G09G17G19G21G31G32
  20626547.181    20626543.911   108393735.097 0  84462652.511 0        49.000  
        48.000                                                  
  20322485.974    20322482.633   106794710.268 0  83216660.658 0        50.000  
        49.000                                                  
  21324068.299    21324063.599   112059503.60810  87319095.838 0        47.000  
        47.000                                                  
  24939377.379    24939376.289   131057275.996 0 102122894.607 0        37.000  
        39.000                                                  
  24133546.019    24133543.268   126822669.14010  98822859.497 0        41.000  
        42.000                                                  
  22574166.651    22574161.076   118628560.794 0  92437805.411 0        46.000  
        44.000                                                  
  22810410.269                   119869018.49210                        44.000  
                                                                
  22451311.400                   117982038.241 0                        46.000  
                                                                
  22599524.063    22599517.487   118760809.148 0  92540892.930 0        44.000  
        40.000                                                  
  25586527.507    25586525.220   134457356.844 0 104772256.718 0        35.000  
        34.000                                                  
 22  1  7  4  0 56.0000000  0  0
 22  1  7  4  0 57.0000000  0  5E04E09E11E12E19
  23569781.454                   123860190.468 0                        48.000  
                  23569778.756    94905859.008          53.000  
  23402605.112                   122982168.369 0                        47.000  
                  23402603.879    94233092.644          51.000  
  22017889.528                   115704789.821 0                        46.000  
                  22017884.596    88656906.713          49.000  
  24809464.274                   130374321.092 0                        37.000  
                  24809461.809    99897823.361          43.000  
  26489394.362                   139202170.551 0                        36.000  
                  26489391.324   106662240.782          40.000  
 22  1  7  4  0 58.0000000  0 10G01G03G04G06G09G17G19G21G31G32
  20626925.343    20626922.180   108395722.667 0  84464201.266 0        49.000  
        48.000                                                  
  20322412.175    20322408.834   106794322.410 0  83216358.429 0        50.000  
        49.000                                                  
  21323630.382    21323625.433   112057201.61510  87317302.077 0        47.000  
        47.000                                                  
  24938703.288    24938702.376   131053734.795 0 102120135.232 0        37.000  
        39.000                                                  
  24132878.540    24132875.877   126819161.86910  98820126.560 0        41.000  
        42.000                                                  
  22574243.666    22574238.109   118628965.484 0  92438120.752 0        46.000  
        44.000                                                  
  22810221.751                   119868028.09310                        44.000  
                                                                
  22451795.168                   117984580.565 0                        46.000  
                                                                
  22599613.909    22599607.279   118761281.272 0  92541260.839 0        44.000  
        40.000                                                  
  25587184.247    25587181.924   134460807.738 0 104774945.769 0        35.000  
        34.000                                                  
 22  1  7  4  0 57.0000000  0  0
 22  1  7  4  0 58.0000000  0  5E04E09E11E12E19
  23569854.503                   123860574.007 0                        48.000  
                  23569851.787    94906152.888          53.000  
  23402205.399                   122980067.941 0                        47.000  
                  23402204.184    94231483.230          51.000  
  22018028.263                   115705518.903 0                        46.000  
                  22018023.260    88657465.362          49.000  
  24810016.785                   130377224.089 0                        37.000  
                  24810014.194    99900047.738          43.000  
  26489882.293                   139204734.364 0                        36.000  
                  26489879.238   106664205.255          41.000  
 22  1  7  4  0 59.0000000  0 10G01G03G04G06G09G17G19G21G31G32
  20627303.630    20627300.378   108397710.644 0  84465750.340 0        49.000  
        48.000                                                  
  20322338.376    20322335.070   106793934.805 0  83216056.394 0        50.000  
        49.000                                                  
  21323192.270    21323187.374   112054899.94910  87315508.571 0        47.000  
        47.000                                                  
  24938029.447    24938028.375   131050193.529 0 102117375.822 0        37.000  
        39.000                                                  
  24132211.114    24132208.469   126815654.64910  98817393.660 0        41.000  
        42.000                                                  
  22574320.753    22574315.214   118629370.646 0  92438436.474 0        46.000  
        44.000                                                  
  22810033.412                   119867038.27410                        44.000  
                                                                
  22452278.990                   117987123.106 0                        46.000  
                                                                
  22599703.933    22599697.214   118761753.970 0  92541629.150 0        44.000  
        40.000                                                  
  25587841.041    25587838.718   134464258.558 0 104777634.718 0        35.000  
        34.000                                                  
 22  1  7  4  0 58.0000000  0  0
 22  1  7  4  0 59.0000000  0  5E04E09E11E12E19
  23569927.426                   123860957.730 0                        48.000  
                  23569924.764    94906446.912          53.000  
  23401805.902                   122977967.645 0                        47.000  
                  23401804.544    94229873.903          51.000  
  22018167.087                   115706248.304 0                        46.000  
                  22018162.102    88658024.254          49.000  
  24810569.188                   130380127.153 0                        37.000  
                  24810566.507    99902272.168          43.000  
  26490370.368                   139207298.130 0                        36.000  
                  26490367.152   106666169.710          41.000  
 22  1  7  4  1  0.0000000  0 10G01G03G04G06G09G17G19G21G31G32
  20627682.132    20627678.862   108399699.349 0  84467299.978 0        49.000  
        48.000                                                  
  20322264.649    20322261.396   106793547.736 0  83215754.787 0        50.000  
        49.000                                                  
  21322754.586    21322749.547   112052598.92710  87313715.567 0        47.000  
        47.000                                                  
  24937355.588    24937354.552   131046652.533 0 102114616.611 0        37.000  
        38.000                                                  
  24131543.813    24131541.294   126812147.80410  98814661.063 0        42.000  
        42.000                                                  
  22574397.965    22574392.426   118629776.624 0  92438752.809 0        46.000  
        44.000                                                  
  22809845.126                   119866049.35910                        44.000  
                                                                
  22452762.865                   117989666.146 0                        46.000  
                                                                
  22599794.082    22599787.363   118762227.567 0  92541998.198 0        44.000  
        40.000                                                  
  25588497.746    25588495.441   134467709.534 0 104780323.811 0        36.000  
        34.000                                                  
 22  1  7  4  0 59.0000000  0  0
 22  1  7  4  1  0.0000000  0  5E04E09E11E12E19
  23570000.600                   123861342.005 0                        48.000  
                  23569997.937    94906741.349          53.000  
  23401406.118                   122975867.795 0                        47.000  
                  23401405.028    94228264.926          51.000  
  22018305.912                   115706978.339 0                        46.000  
                  22018300.998    88658583.634          49.000  
  24811121.787                   130383030.629 0                        37.000  
                  24811119.000    99904496.889          43.000  
  26490858.157                   139209862.166 0                        36.000  
                  26490854.940   106668134.345          41.000  
 22  1  7  4  1  1.0000000  0 10G01G03G04G06G09G17G19G21G31G32
  20628060.652    20628057.346   108401688.547 0  84468850.011 0        49.000  
        48.000                                                  
  20322191.100    20322187.812   106793161.003 0  83215453.438 0        50.000  
        49.000                                                  
  21322316.795    21322311.702   112050298.32010  87311922.879 0        47.000  
        47.000                                                  
  24936681.765    24936680.693   131043111.592 0 102111857.430 0        38.000  
        39.000                                                  
  24130876.477    24130873.886   126808641.09710  98811928.548 0        42.000  
        42.000                                                  
  22574475.338    22574469.781   118630183.166 0  92439069.590 0        46.000  
        44.000                                                  
  22809657.019                   119865061.11310                        44.000  
                                                                
  22453246.919                   117992209.479 0                        46.000  
                                                                
  22599884.356    22599877.620   118762701.829 0  92542367.751 0        44.000  
        40.000                                                  
  25589154.486    25589152.127   134471160.580 0 104783012.899 0        36.000  
        34.000                                                  
 22  1  7  4  1  0.0000000  0  0
 22  1  7  4  1  1.0000000  0  5E04E09E11E12E19
  23570073.613                   123861726.555 0                        48.000  
                  23570071.111    94907036.010          53.000  
  23401006.674                   122973768.159 0                        47.000  
                  23401005.548    94226656.112          51.000  
  22018444.968                   115707708.791 0                        46.000  
                  22018440.037    88659143.335          49.000  
  24811674.405                   130385934.207 0                        37.000  
                  24811671.546    99906721.726          43.000  
  26491345.999                   139212426.217 0                        36.000  
                  26491342.961   106670099.046          41.000  
 22  1  7  4  1  2.0000000  0 10G01G03G04G06G09G17G19G21G31G32
  20628439.278    20628435.883   108403678.165 0  84470400.347 0        49.000  
        48.000                                                  
  20322117.586    20322114.299   106792774.509 0  83215152.275 0        50.000  
        49.000                                                  
  21321879.147    21321873.983   112047998.05510  87310130.468 0        47.000  
        47.000                                                  
  24936007.996    24936006.941   131039570.588 0 102109098.187 0        38.000  
        39.000                                                  
  24130209.283    24130206.603   126805134.44910  98809196.093 0        42.000  
        42.000                                                  
  22574552.908    22574547.297   118630590.197 0  92439386.762 0        46.000  
        44.000                                                  
  22809469.126                   119864073.44810                        44.000  
                                                                
  22453730.812                   117994753.024 0                        46.000  
                                                                
  22599974.702    22599967.858   118763176.658 0  92542737.745 0        44.000  
        40.000                                                  
  25589811.190    25589808.760   134474611.451 0 104785701.907 0        36.000  
        34.000                                                  
 22  1  7  4  1  1.0000000  0  0
 22  1  7  4  1  2.0000000  0  5E04E09E11E12E19
  23570146.733                   123862111.317 0                        48.000  
                  23570144.320    94907330.827          53.000  
  23400607.105                   122971668.655 0                        47.000  
                  23400605.997    94225047.399          51.000  
  22018583.864                   115708439.580 0                        45.000  
                  22018579.075    88659703.283          49.000  
  24812227.040                   130388837.887 0                        37.000  
                  24812224.217    99908946.620          43.000  
  26491833.823                   139214990.267 0                        36.000  
                  26491830.750   106672063.688          41.000  
 22  1  7  4  1  3.0000000  0 10G01G03G04G06G09G17G19G21G31G32
  20628818.030    20628814.635   108405668.405 0  84471951.197 0        49.000  
        48.000                                                  
  20322044.109    20322040.911   106792388.477 0  83214851.468 0        50.000  
        49.000                                                  
  21321441.552    21321436.334   112045698.33710  87308338.482 0        47.000  
        47.000                                                  
  24935334.441    24935333.208   131036029.747 0 102106339.098 0        38.000  
        39.000                                                  
  24129542.000    24129539.248   126801628.06210  98806463.834 0        42.000  
        42.000                                                  
  22574630.459    22574624.884   118630997.942 0  92439704.485 0        46.000  
        45.000                                                  
  22809281.305                   119863086.59010                        44.000  
                                                                
  22454214.937                   117997296.977 0                        46.000  
                                                                
  22600065.244    22600058.365   118763652.309 0  92543108.398 0        44.000  
        40.000                                                  
  25590467.895    25590465.429   134478062.406 0 104788390.965 0        36.000  
        35.000                                                  
 22  1  7  4  1  2.0000000  0  0
 22  1  7  4  1  3.0000000  0  5E04E09E11E12E19
  23570220.192                   123862496.507 0                        48.000  
                  23570217.655    94907625.978          53.000  
  23400207.571                   122969569.491 0                        47.000  
                  23400206.356    94223438.956          51.000  
  22018723.153                   115709170.891 0                        45.000  
                  22018718.275    88660263.641          49.000  
  24812779.514                   130391741.862 0                        37.000  
                  24812776.727    99911171.730          43.000  
  26492321.755                   139217554.474 0                        36.000  
                  26492318.824   106674028.453          40.000  
 22  1  7  4  1  4.0000000  0 10G01G03G04G06G09G17G19G21G31G32
  20629196.800    20629193.494   108407659.269 0  84473502.511 0        49.000  
        48.000                                                  
  20321970.721    20321967.451   106792002.899 0  83214551.013 0        50.000  
        49.000                                                  
  21321003.993    21320998.847   112043399.15910  87306546.912 0        47.000  
        47.000                                                  
  24934660.671    24934659.510   131032489.074 0 102103580.136 0        38.000  
        38.000                                                  
  24128874.753    24128872.001   126798121.93610  98803731.811 0        42.000  
        42.000                                                  
  22574708.279    22574702.579   118631406.382 0  92440022.752 0        46.000  
        45.000                                                  
  22809093.733                   119862100.52710                        44.000  
                                                                
  22454699.027                   117999841.358 0                        46.000  
                                                                
  22600155.930    22600149.050   118764128.740 0  92543479.648 0        44.000  
        40.000                                                  
  25591124.707    25591122.241   134481513.470 0 104791080.129 0        37.000  
        35.000                                                  
 22  1  7  4  1  3.0000000  0  0
 22  1  7  4  1  4.0000000  0  5E04E09E11E12E19
  23570293.705                   123862882.120 0                        48.000  
                  23570290.954    94907921.443          53.000  
  23399808.038                   122967470.671 0                        47.000  
                  23399806.983    94221830.765          51.000  
  22018862.335                   115709902.731 0                        45.000  
                  22018857.493    88660824.399          49.000  
  24813332.328                   130394646.091 0                        37.000  
                  24813329.433    99913397.066          43.000  
  26492809.650                   139220118.815 0                        36.000  
                  26492806.720   106675993.349          40.000  
 22  1  7  4  1  5.0000000  0 10G01G03G04G06G09G17G19G21G31G32
  20629575.855    20629572.407   108409650.507 0  84475054.138 0        49.000  
        48.000                                                  
  20321897.351    20321894.170   106791617.527 0  83214250.725 0        50.000  
        49.000                                                  
  21320566.596    21320561.288   112041100.27910  87304755.582 0        47.000  
        47.000                                                  
  24933986.920    24933985.687   131028948.313 0 102100821.088 0        38.000  
        38.000                                                  
  24128207.667    24128204.808   126794615.84810  98800999.792 0        42.000  
        42.000                                                  
  22574786.080    22574780.398   118631815.276 0  92440341.365 0        46.000  
        45.000                                                  
  22808906.109                   119861115.01110                        44.000  
                                                                
  22455183.188                   118002385.888 0                        46.000  
                                                                
  22600246.704    22600239.896   118764605.723 0  92543851.316 0        44.000  
        40.000                                                  
  25591781.393    25591778.927   134484964.411 0 104793769.169 0        37.000  
        35.000                                                  
 22  1  7  4  1  4.0000000  0  0
 22  1  7  4  1  5.0000000  0  5E04E09E11E12E19
  23570367.076                   123863267.901 0                        48.000  
                  23570364.413    94908217.047          53.000  
  23399408.879                   122965371.951 0                        47.000  
                  23399407.664    94220222.661          51.000  
  22019001.678                   115710634.867 0                        45.000  
                  22018996.871    88661385.384          49.000  
  24813885.142                   130397550.373 0                        37.000  
                  24813881.979    99915622.419          43.000  
  26493297.546                   139222683.080 0                        36.000  
                  26493294.669   106677958.198          41.000  
 22  1  7  4  1  6.0000000  0 10G01G03G04G06G09G17G19G21G31G32
  20629954.875    20629951.444   108411642.240 0  84476606.120 0        49.000  
        48.000                                                  
  20321823.963    20321820.853   106791232.468 0  83213950.684 0        50.000  
        49.000                                                  
  21320129.144    21320123.890   112038801.79910  87302964.552 0        47.000  
        47.000                                                  
  24933313.061    24933311.792   131025407.540 0 102098062.053 0        38.000  
        38.000                                                  
  24127540.580    24127537.560   126791109.89210  98798267.878 0        42.000  
        42.000                                                  
  22574863.989    22574858.253   118632224.723 0  92440660.423 0        46.000  
        45.000                                                  
  22808718.752                   119860130.14510                        44.000  
                                                                
  22455667.457                   118004930.698 0                        46.000  
                                                                
  22600337.658    22600330.814   118765083.348 0  92544223.480 0        44.000  
        40.000                                                  
  25592438.151    25592435.650   134488415.307 0 104796458.157 0        37.000  
        35.000                                                  
 22  1  7  4  1  5.0000000  0  0
 22  1  7  4  1  6.0000000  0  5E04E09E11E12E19
  23570440.571                   123863653.968 0                        48.000  
                  23570437.855    94908512.866          53.000  
  23399009.525                   122963273.424 0                        47.000  
                  23399008.363    94218614.699          51.000  
  22019141.056                   115711367.385 0                        45.000  
                  22019136.107    88661946.666          49.000  
  24814437.706                   130400454.788 0                        37.000  
                  24814434.776    99917847.879          43.000  
  26493785.585                   139225247.383 0                        36.000  
                  26493782.619   106679923.047          41.000  
 22  1  7  4  1  7.0000000  0 10G01G03G04G06G09G17G19G21G31G32
  20630333.931    20630330.554   108413634.326 0  84478158.410 0        49.000  
        48.000                                                  
  20321750.700    20321747.573   106790847.618 0  83213650.799 0        50.000  
        49.000                                                  
  21319691.889    21319686.635   112036503.62410  87301173.777 0        47.000  
        47.000                                                  
  24932639.202    24932638.005   131021866.717 0 102095302.964 0        38.000  
        38.000                                                  
  24126873.512    24126870.403   126787603.93410  98795535.960 0        42.000  
        41.000                                                  
  22574941.845    22574936.198   118632634.627 0  92440979.815 0        46.000  
        45.000                                                  
  22808531.467                   119859145.82010                        44.000  
                                                                
  22456151.761                   118007475.674 0                        46.000  
                                                                
  22600428.718    22600421.767   118765561.525 0  92544596.095 0        44.000  
        40.000                                                  
  25593094.838    25593092.372   134491866.031 0 104799147.062 0        37.000  
        35.000                                                  
 22  1  7  4  1  6.0000000  0  0
 22  1  7  4  1  7.0000000  0  5E04E09E11E12E19
  23570513.923                   123864040.215 0                        48.000  
                  23570511.439    94908808.821          53.000  
  23398610.188                   122961175.011 0                        47.000  
                  23398609.080    94217006.818          51.000  
  22019280.452                   115712100.202 0                        45.000  
                  22019275.646    88662508.180          49.000  
  24814990.413                   130403359.231 0                        37.000  
                  24814987.572    99920073.362          43.000  
  26494273.517                   139227811.603 0                        36.000  
                  26494270.711   106681887.835          41.000  
 22  1  7  4  1  8.0000000  0 10G01G03G04G06G09G17G19G21G31G32
  20630713.272    20630709.841   108415627.444 0  84479711.483 0        49.000  
        48.000                                                  
  20321677.758    20321674.488   106790463.614 0  83213351.581 0        50.000  
        49.000                                                  
  21319254.670    21319249.452   112034206.38310  87299383.717 0        47.000  
        47.000                                                  
  24931965.433    24931964.289   131018326.455 0 102092544.313 0        38.000  
        38.000                                                  
  24126206.425    24126203.263   126784098.65610  98792804.584 0        42.000  
        41.000                                                  
  22575020.129    22575014.536   118633045.617 0  92441300.083 0        46.000  
        45.000                                                  
  22808344.432                   119858162.70010                        44.000  
                                                                
  22456636.297                   118010021.464 0                        46.000  
                                                                
  22600520.029    22600513.042   118766040.888 0  92544969.626 0        44.000  
        40.000                                                  
  25593751.739    25593749.094   134495317.250 0 104801836.333 0        37.000  
        35.000                                                  
 22  1  7  4  1  7.0000000  0  0
 22  1  7  4  1  8.0000000  0  5E04E09E11E12E19
  23570587.722                   123864427.257 0                        48.000  
                  23570584.970    94909105.388          53.000  
  23398210.994                   122959077.309 0                        47.000  
                  23398209.832    94215399.487          51.000  
  22019420.099                   115712833.955 0                        45.000  
                  22019415.256    88663070.408          49.000  
  24815543.352                   130406264.365 0                        37.000  
                  24815540.314    99922299.371          43.000  
  26494761.662                   139230376.405 0                        36.000  
                  26494758.768   106683853.046          41.000  
 22  1  7  4  1  9.0000000  0 10G01G03G04G06G09G17G19G21G31G32
  20631092.542    20631089.237   108417620.794 0  84481264.747 0        49.000  
        48.000                                                  
  20321604.710    20321601.422   106790079.679 0  83213052.407 0        50.000  
        49.000                                                  
  21318817.593    21318812.251   112031909.30210  87297593.775 0        47.000  
        47.000                                                  
  24931291.681    24931290.574   131014785.946 0 102089785.498 0        38.000  
        38.000                                                  
  24125539.375    24125536.319   126780593.23110  98790073.089 0        42.000  
        41.000                                                  
  22575098.467    22575092.802   118633456.924 0  92441620.564 0        46.000  
        45.000                                                  
  22808157.325                   119857179.97110                        44.000  
                                                                
  22457120.726                   118012567.262 0                        46.000  
                                                                
  22600611.375    22600604.371   118766520.650 0  92545343.469 0        44.000  
        40.000                                                  
  25594408.443    25594405.817   134498768.185 0 104804525.336 0        37.000  
        35.000                                                  
 22  1  7  4  1  8.0000000  0  0
 22  1  7  4  1  9.0000000  0  5E04E09E11E12E19
  23570661.486                   123864814.343 0                        48.000  
                  23570658.573    94909401.982          53.000  
  23397811.746                   122956979.572 0                        47.000  
                  23397810.513    94213792.139          51.000  
  22019559.674                   115713567.851 0                        45.000  
                  22019554.867    88663632.738          49.000  
  24816096.309                   130409169.386 0                        38.000  
                  24816093.182    99924525.281          43.000  
  26495249.737                   139232940.940 0                        36.000  
                  26495246.842   106685818.092          41.000  
 22  1  7  4  1 10.0000000  0 10G01G03G04G06G09G17G19G21G31G32
  20631471.955    20631468.667   108419614.377 0  84482818.185 0        49.000  
        48.000                                                  
  20321531.608    20321528.409   106789695.786 0  83212753.276 0        50.000  
        49.000                                                  
  21318380.553    21318375.156   112029612.37510  87295803.970 0        47.000  
        47.000                                                  
  24930617.983    24930616.840   131011245.193 0 102087026.470 0        38.000  
        38.000                                                  
  24124872.288    24124869.286   126777087.70710  98787341.512 0        42.000  
        41.000                                                  
  22575176.787    22575171.051   118633868.531 0  92441941.305 0        46.000  
        45.000                                                  
  22807970.415                   119856197.64410                        44.000  
                                                                
  22457605.138                   118015113.096 0                        46.000  
                                                                
  22600702.722    22600695.806   118767000.817 0  92545717.634 0        44.000  
        41.000                                                  
  25595065.130    25595062.521   134502218.821 0 104807214.175 0        37.000  
        35.000                                                  
 22  1  7  4  1  9.0000000  0  0
 22  1  7  4  1 10.0000000  0  5E04E09E11E12E19
  23570735.142                   123865201.462 0                        48.000  
                  23570732.336    94909698.607          53.000  
  23397412.624                   122954881.796 0                        47.000  
                  23397411.444    94212184.741          51.000  
  22019699.338                   115714301.892 0                        45.000  
                  22019694.478    88664195.180          49.000  
  24816649.141                   130412074.279 0                        38.000  
                  24816645.835    99926751.128          43.000  
  26495737.740                   139235505.255 0                        36.000  
                  26495734.756   106687782.950          41.000  
 22  1  7  4  1 11.0000000  0 10G01G03G04G06G09G17G19G21G31G32
  20631851.350    20631848.205   108421608.680 0  84484372.182 0        49.000  
        48.000                                                  
  20321458.648    20321455.468   106789312.468 0  83212454.580 0        50.000  
        49.000                                                  
  21317943.619    21317938.116   112027316.08910  87294014.648 0        47.000  
        47.000                                                  
  24929944.214    24929943.124   131007704.731 0 102084267.641 0        38.000  
        38.000                                                  
  24124205.274    24124202.379   126773582.54010  98784610.206 0        42.000  
        41.000                                                  
  22575255.321    22575249.567   118634280.950 0  92442262.664 0        46.000  
        45.000                                                  
  22807783.738                   119855216.23210                        44.000  
                                                                
  22458089.621                   118017659.449 0                        46.000  
                                                                
  22600794.211    22600787.367   118767481.884 0  92546092.476 0        44.000  
        41.000                                                  
  25595721.852    25595719.172   134505669.667 0 104809903.144 0        37.000  
        35.000                                                  
 22  1  7  4  1 10.0000000  0  0
 22  1  7  4  1 11.0000000  0  5E04E09E11E12E19
  23570808.762                   123865589.096 0                        48.000  
                  23570806.153    94909995.628          53.000  
  23397013.412                   122952784.455 0                        47.000  
                  23397012.411    94210577.692          51.000  
  22019839.020                   115715036.569 0                        45.000  
                  22019834.356    88664758.113          49.000  
  24817201.937                   130414979.580 0                        38.000  
                  24817198.774    99928977.261          43.000  
  26496225.600                   139238069.848 0                        36.000  
                  26496222.723   106689748.021          41.000  
 22  1  7  4  1 12.0000000  0 10G01G03G04G06G09G17G19G21G31G32
  20632231.031    20632227.886   108423603.715 0  84485926.754 0        49.000  
        48.000                                                  
  20321385.761    20321382.526   106788929.698 0  83212156.309 0        50.000  
        49.000                                                  
  21317506.901    21317501.325   112025020.45010  87292225.835 0        47.000  
        47.000                                                  
  24929270.498    24929269.426   131004164.510 0 102081509.041 0        38.000  
        37.000                                                  
  24123538.420    24123535.346   126770077.73210  98781879.212 0        42.000  
        41.000                                                  
  22575333.873    22575328.066   118634694.152 0  92442584.642 0        46.000  
        45.000                                                  
  22807597.167                   119854235.71310                        44.000  
                                                                
  22458574.246                   118020206.309 0                        46.000  
                                                                
  22600885.915    22600879.178   118767963.841 0  92546468.029 0        44.000  
        41.000                                                  
  25596378.575    25596375.858   134509120.705 0 104812592.246 0        37.000  
        35.000                                                  
 22  1  7  4  1 11.0000000  0  0
 22  1  7  4  1 12.0000000  0  5E04E09E11E12E19
  23570882.758                   123865977.245 0                        48.000  
                  23570879.988    94910293.034          53.000  
  23396614.414                   122950687.554 0                        47.000  
                  23396613.289    94208970.978          51.000  
  22019979.024                   115715771.866 0                        45.000  
                  22019974.289    88665321.526          49.000  
  24817754.929                   130417885.221 0                        38.000  
                  24817751.713    99931203.670          43.000  
  26496713.532                   139240634.700 0                        36.000  
                  26496710.798   106691713.295          41.000  
 22  1  7  4  1 13.0000000  0 10G01G03G04G06G09G17G19G21G31G32
  20632610.927    20632607.692   108425599.431 0  84487481.859 0        49.000  
        48.000                                                  
  20321312.998    20321309.853   106788547.439 0  83211858.452 0        50.000  
        49.000                                                  
  21317070.110    21317064.553   112022725.41810  87290437.506 0        47.000  
        47.000                                                  
  24928596.836    24928595.728   131000624.509 0 102078750.580 0        38.000  
        37.000                                                  
  24122871.637    24122868.438   126766573.28210  98779148.448 0        42.000  
        41.000                                                  
  22575412.765    22575406.868   118635108.121 0  92442907.222 0        46.000  
        45.000                                                  
  22807410.686                   119853256.02910                        44.000  
                                                                
  22459058.944                   118022753.639 0                        46.000  
                                                                
  22600977.744    22600971.079   118768446.652 0  92546844.240 0        44.000  
        41.000                                                  
  25597035.368    25597032.634   134512571.907 0 104815281.481 0        36.000  
        36.000                                                  
 22  1  7  4  1 12.0000000  0  0
 22  1  7  4  1 13.0000000  0  5E04E09E11E12E19
  23570956.735                   123866365.886 0                        48.000  
                  23570953.876    94910590.826          53.000  
  23396215.399                   122948591.064 0                        47.000  
                  23396214.273    94207364.572          51.000  
  22020119.153                   115716507.761 0                        45.000  
                  22020114.328    88665885.389          49.000  
  24818308.029                   130420791.261 0                        38.000  
                  24818304.634    99933430.362          43.000  
  26497201.642                   139243199.777 0                        36.000  
                  26497198.944   106693678.744          41.000  
 22  1  7  4  1 14.0000000  0 10G01G03G04G06G09G17G19G21G31G32
  20632990.751    20632987.570   108427595.574 0  84489037.303 0        49.000  
        48.000                                                  
  20321240.378    20321237.233   106788165.453 0  83211560.802 0        50.000  
        49.000                                                  
  21316633.463    21316627.923   112020430.74710  87288649.450 0        47.000  
        47.000                                                  
  24927923.228    24927922.013   130997084.449 0 102075992.131 0        39.000  
        36.000                                                  
  24122204.783    24122201.495   126763068.88410  98776417.756 0        42.000  
        41.000                                                  
  22575491.585    22575485.778   118635522.609 0  92443230.197 0        46.000  
        45.000                                                  
  22807224.348                   119852276.96810                        44.000  
                                                                
  22459543.712                   118025301.201 0                        46.000  
                                                                
  22601069.769    22601063.104   118768930.079 0  92547220.941 0        44.000  
        41.000                                                  
  25597691.983    25597689.249   134516023.021 0 104817970.656 0        36.000  
        36.000                                                  
 22  1  7  4  1 13.0000000  0  0
 22  1  7  4  1 14.0000000  0  5E04E09E11E12E19
  23571030.606                   123866754.759 0                        48.000  
                  23571027.944    94910888.796          53.000  
  23395816.509                   122946494.729 0                        46.000  
                  23395815.419    94205758.294          51.000  
  22020259.085                   115717244.017 0                        45.000  
                  22020254.439    88666449.534          49.000  
  24818861.183                   130423697.359 0                        38.000  
                  24818857.645    99935657.127          43.000  
  26497689.770                   139245764.802 0                        36.000  
                  26497687.036   106695644.175          41.000  
 22  1  7  4  1 15.0000000  0 10G01G03G04G06G09G17G19G21G31G32
  20633370.700    20633367.483   108429591.938 0  84490592.909 0        49.000  
        48.000                                                  
  20321167.705    20321164.560   106787783.514 0  83211263.192 0        50.000  
        49.000                                                  
  21316196.726    21316191.258   112018136.20710  87286861.500 0        47.000  
        47.000                                                  
  24927249.530    24927248.261   130993544.228 0 102073233.505 0        39.000  
        36.000                                                  
  24121537.857    24121534.623   126759564.37510  98773686.970 0        42.000  
        41.000                                                  
  22575570.584    22575564.652   118635937.384 0  92443553.404 0        46.000  
        45.000                                                  
  22807038.099                   119851298.29210                        44.000  
                                                                
  22460028.410                   118027848.787 0                        46.000  
                                                                
  22601161.848    22601155.148   118769413.875 0  92547597.928 0        44.000  
        41.000                                                  
  25598348.634    25598346.043   134519473.794 0 104820659.582 0        36.000  
        35.000                                                  
 22  1  7  4  1 14.0000000  0  0
 22  1  7  4  1 15.0000000  0  5E04E09E11E12E19
  23571104.512                   123867143.626 0                        48.000  
                  23571101.903    94911186.766          53.000  
  23395417.726                   122944398.327 0                        46.000  
                  23395416.600    94204151.960          51.000  
  22020399.321                   115717980.378 0                        45.000  
                  22020394.515    88667013.768          49.000  
  24819414.068                   130426603.323 0                        38.000  
                  24819410.602    99937883.781          43.000  
  26498177.916                   139248329.616 0                        36.000  
                  26498175.039   106697609.420          41.000  
 22  1  7  4  1 16.0000000  0 10G01G03G04G06G09G17G19G21G31G32
  20633750.685    20633747.575   108431588.895 0  84492148.975 0        49.000  
        48.000                                                  
  20321095.085    20321091.887   106787401.992 0  83210965.893 0        50.000  
        49.000                                                  
  21315760.257    21315754.771   112015842.18210  87285073.947 0        47.000  
        47.000                                                  
  24926575.921    24926574.456   130990004.095 0 102070474.923 0        39.000  
        36.000                                                  
  24120870.896    24120867.751   126756060.08310  98770956.350 0        42.000  
        41.000                                                  
  22575649.601    22575643.794   118636352.829 0  92443877.127 0        46.000  
        45.000                                                  
  22806851.957                   119850320.38710                        44.000  
                                                                
  22460513.250                   118030396.727 0                        46.000  
                                                                
  22601253.999    22601247.405   118769898.450 0  92547975.523 0        44.000  
        41.000                                                  
  25599005.410    25599002.694   134522924.661 0 104823348.585 0        36.000  
        35.000                                                  
 22  1  7  4  1 15.0000000  0  0
 22  1  7  4  1 16.0000000  0  5E04E09E11E12E19
  23571178.597                   123867532.907 0                        48.000  
                  23571175.971    94911485.037          53.000  
  23395018.907                   122942302.236 0                        46.000  
                  23395017.710    94202545.859          51.000  
  22020539.397                   115718717.271 0                        45.000  
                  22020534.769    88667578.391          49.000  
  24819967.204                   130429509.551 0                        38.000  
                  24819963.630    99940110.631          43.000  
  26498665.973                   139250894.553 0                        36.000  
                  26498663.185   106699574.739          40.000  
 22  1  7  4  1 17.0000000  0 10G01G03G04G06G09G17G19G21G31G32
  20634130.812    20634127.667   108433586.351 0  84493705.433 0        49.000  
        48.000                                                  
  20321022.555    20321019.338   106787020.807 0  83210668.870 0        50.000  
        49.000                                                  
  21315323.788    21315318.267   112013548.58210  87283286.722 0        47.000  
        47.000                                                  
  24925902.241    24925900.829   130986463.976 0 102067716.419 0        39.000  
        36.000                                                  
  24120204.131    24120200.861   126752555.93810  98768225.848 0        42.000  
        41.000                                                  
  22575728.743    22575723.043   118636768.860 0  92444201.307 0        46.000  
        45.000                                                  
  22806666.084                   119849343.15710                        44.000  
                                                                
  22460998.108                   118032944.979 0                        46.000  
                                                                
  22601346.310    22601339.752   118770383.681 0  92548353.625 0        44.000  
        41.000                                                  
  25599662.240    25599659.381   134526375.502 0 104826037.564 0        36.000  
        35.000                                                  
 22  1  7  4  1 16.0000000  0  0
 22  1  7  4  1 17.0000000  0  5E04E09E11E12E19
  23571252.646                   123867922.470 0                        48.000  
                  23571250.127    94911783.535          53.000  
  23394619.910                   122940206.364 0                        46.000  
                  23394618.802    94200939.934          51.000  
  22020679.829                   115719454.560 0                        45.000  
                  22020675.165    88668143.331          49.000  
  24820520.304                   130432415.952 0                        38.000  
                  24820516.658    99942337.605          43.000  
  26499153.976                   139253459.531 0                        36.000  
                  26499151.277   106701540.120          41.000  
 22  1  7  4  1 18.0000000  0 10G01G03G04G06G09G17G19G21G31G32
  20634511.083    20634507.902   108435584.464 0  84495262.402 0        49.000  
        48.000                                                  
  20320950.114    20320946.969   106786640.106 0  83210372.218 0        50.000  
        49.000                                                  
  21314887.373    21314881.941   112011255.56010  87281499.954 0        47.000  
        47.000                                                  
  24925228.633    24925227.203   130982924.069 0 102064958.031 0        39.000  
        36.000                                                  
  24119537.402    24119534.043   126749052.08010  98765495.580 0        42.000  
        41.000                                                  
  22575808.028    22575802.328   118637185.625 0  92444526.045 0        46.000  
        45.000                                                  
  22806480.282                   119848366.74510                        44.000  
                                                                
  22461483.145                   118035493.676 0                        45.000  
                                                                
  22601438.729    22601432.385   118770869.746 0  92548732.354 0        45.000  
        41.000                                                  
  25600318.855    25600316.067   134529826.458 0 104828726.629 0        36.000  
        35.000                                                  
 22  1  7  4  1 17.0000000  0  0
 22  1  7  4  1 18.0000000  0  5E04E09E11E12E19
  23571327.017                   123868312.490 0                        48.000  
                  23571324.301    94912082.382          53.000  
  23394221.002                   122938110.869 0                        47.000  
                  23394219.965    94199334.300          51.000  
  22020820.226                   115720192.427 0                        45.000  
                  22020815.509    88668708.705          49.000  
  24821073.332                   130435322.652 0                        38.000  
                  24821069.812    99944564.810          43.000  
  26499642.264                   139256024.699 0                        36.000  
                  26499639.423   106703505.648          40.000  
 22  1  7  4  1 19.0000000  0 10G01G03G04G06G09G17G19G21G31G32
  20634891.371    20634888.155   108437583.105 0  84496819.780 0        49.000  
        48.000                                                  
  20320877.744    20320874.582   106786259.767 0  83210075.854 0        50.000  
        49.000                                                  
  21314451.083    21314445.687   112008962.98710  87279713.529 0        47.000  
        47.000                                                  
  24924555.042    24924553.666   130979384.217 0 102062199.733 0        39.000  
        36.000                                                  
  24118870.673    24118867.242   126745548.43410  98762765.457 0        42.000  
        41.000                                                  
  22575887.402    22575881.630   118637602.977 0  92444851.264 0        46.000  
        45.000                                                  
  22806294.640                   119847391.03210                        44.000  
                                                                
  22461968.235                   118038042.682 0                        45.000  
                                                                
  22601531.398    22601524.965   118771356.501 0  92549111.662 0        45.000  
        41.000                                                  
  25600975.631    25600972.736   134533277.439 0 104831415.706 0        36.000  
        35.000                                                  
 22  1  7  4  1 18.0000000  0  0
 22  1  7  4  1 19.0000000  0  5E04E09E11E12E19
  23571401.084                   123868702.837 0                        48.000  
                  23571398.601    94912381.481          53.000  
  23393822.522                   122936015.626 0                        47.000  
                  23393821.379    94197728.856          51.000  
  22020960.695                   115720930.729 0                        45.000  
                  22020956.138    88669274.419          49.000  
  24821626.539                   130438229.555 0                        38.000  
                  24821623.001    99946792.177          43.000  
  26500130.500                   139258589.950 0                        36.000  
                  26500127.623   106705471.223          40.000  
 22  1  7  4  1 20.0000000  0 10G01G03G04G06G09G17G19G21G31G32
  20635271.767    20635268.622   108439582.262 0  84498377.568 0        49.000  
        48.000                                                  
  20320805.393    20320802.319   106785879.782 0  83209779.760 0        50.000  
        49.000                                                  
  21314014.918    21314009.540   112006670.86010  87277927.460 0        47.000  
        47.000                                                  
  24923881.362    24923880.075   130975844.474 0 102059441.448 0        39.000  
        35.000                                                  
  24118204.034    24118200.388   126742044.92010  98760035.462 0        42.000  
        41.000                                                  
  22575966.919    22575961.147   118638020.939 0  92445176.949 0        46.000  
        45.000                                                  
  22806108.999                   119846416.02110                        44.000  
                                                                
  22462453.397                   118040592.016 0                        45.000  
                                                                
  22601624.138    22601617.634   118771843.951 0  92549491.491 0        45.000  
        41.000                                                  
  25601632.210    25601629.387   134536728.427 0 104834104.780 0        35.000  
        34.000                                                  
 22  1  7  4  1 19.0000000  0  0
 22  1  7  4  1 20.0000000  0  5E04E09E11E12E19
  23571475.455                   123869093.511 0                        48.000  
                  23571472.936    94912680.827          53.000  
  23393423.757                   122933920.629 0                        47.000  
                  23393422.667    94196123.590          51.000  
  22021101.306                   115721669.447 0                        45.000  
                  22021096.588    88669840.452          49.000  
  24822179.728                   130441136.604 0                        38.000  
                  24822176.172    99949019.665          43.000  
  26500618.592                   139261155.271 0                        36.000  
                  26500615.769   106707436.850          40.000  
 22  1  7  4  1 21.0000000  0 10G01G03G04G06G09G17G19G21G31G32
  20635652.270    20635649.286   108441581.963 0  84499935.773 0        49.000  
        48.000                                                  
  20320733.238    20320730.128   106785500.167 0  83209483.961 0        50.000  
        49.000                                                  
  21313578.807    21313573.428   112004379.20510  87276141.744 0        47.000  
        47.000                                                  
  24923207.700    24923206.431   130972304.758 0 102056683.259 0        39.000  
        35.000                                                  
  24117537.394    24117533.570   126738541.60510  98757305.593 0        42.000  
        40.000                                                  
  22576046.597    22576040.825   118638439.521 0  92445503.121 0        46.000  
        45.000                                                  
  22805923.590                   119845441.71410                        44.000  
                                                                
  22462938.612                   118043141.676 0                        45.000  
                                                                
  22601717.110    22601710.606   118772332.114 0  92549871.887 0        45.000  
        41.000                                                  
  25602288.915    25602286.163   134540179.409 0 104836793.891 0        35.000  
        34.000                                                  
 22  1  7  4  1 20.0000000  0  0
 22  1  7  4  1 21.0000000  0  5E04E09E11E12E19
  23571549.951                   123869484.512 0                        48.000  
                  23571547.253    94912980.427          53.000  
  23393025.296                   122931825.888 0                        47.000  
                  23393024.009    94194518.524          51.000  
  22021241.935                   115722408.631 0                        45.000  
                  22021237.218    88670406.840          49.000  
  24822732.935                   130444043.871 0                        38.000  
                  24822729.415    99951247.316          43.000  
  26501106.720                   139263720.636 0                        36.000  
                  26501104.058   106709402.526          40.000  
 22  1  7  4  1 22.0000000  0 10G01G03G04G06G09G17G19G21G31G32
  20636032.934    20636029.914   108443582.168 0  84501494.375 0        49.000  
        48.000                                                  
  20320661.154    20320657.937   106785120.887 0  83209188.406 0        50.000  
        49.000                                                  
  21313142.856    21313137.442   112002087.96710  87274356.371 0        47.000  
        47.000                                                  
  24922534.180    24922532.787   130968765.094 0 102053925.066 0        39.000  
        34.000                                                  
  24116870.737    24116866.895   126735038.43710  98754575.858 0        42.000  
        40.000                                                  
  22576126.364    22576120.593   118638858.692 0  92445829.736 0        46.000  
        45.000                                                  
  22805738.324                   119844468.10810                        44.000  
                                                                
  22463424.078                   118045691.633 0                        45.000  
                                                                
  22601810.101    22601803.686   118772820.952 0  92550252.802 0        45.000  
        41.000                                                  
  25602945.530    25602942.885   134543630.367 0 104839482.931 0        35.000  
        34.000                                                  
 22  1  7  4  1 21.0000000  0  0
 22  1  7  4  1 22.0000000  0  5E04E09E11E12E19
  23571624.590                   123869875.824 0                        48.000  
                  23571621.713    94913280.261          53.000  
  23392626.710                   122929731.367 0                        47.000  
                  23392625.477    94192913.635          51.000  
  22021382.564                   115723148.238 0                        45.000  
                  22021377.990    88670973.550          49.000  
  24823286.232                   130446951.311 0                        38.000  
                  24823282.765    99953475.074          43.000  
  26501594.777                   139266286.090 0                        36.000  
                  26501592.150   106711368.249          40.000  
 22  1  7  4  1 23.0000000  0 10G01G03G04G06G09G17G19G21G31G32
  20636413.580    20636410.578   108445582.716 0  84503053.246 0        49.000  
        48.000                                                  
  20320588.927    20320585.765   106784741.777 0  83208893.000 0        50.000  
        49.000                                                  
  21312706.959    21312701.491   111999796.99410  87272571.199 0        47.000  
        47.000                                                  
  24921860.625    24921859.142   130965225.322 0 102051166.816 0        39.000  
        34.000                                                  
  24116204.133    24116200.184   126731535.26910  98751846.106 0        42.000  
        40.000                                                  
  22576206.132    22576200.449   118639278.271 0  92446156.690 0        46.000  
        45.000                                                  
  22805553.237                   119843494.99210                        44.000  
                                                                
  22463909.365                   118048241.713 0                        46.000  
                                                                
  22601903.198    22601896.766   118773310.297 0  92550634.103 0        45.000  
        41.000                                                  
  25603602.199    25603599.482   134547081.155 0 104842171.848 0        35.000  
        34.000                                                  
 22  1  7  4  1 22.0000000  0  0
 22  1  7  4  1 23.0000000  0  5E04E09E11E12E19
  23571698.836                   123870267.279 0                        48.000  
                  23571696.316    94913580.210          53.000  
  23392228.034                   122927636.907 0                        47.000  
                  23392227.015    94191308.789          51.000  
  22021523.444                   115723888.104 0                        45.000  
                  22021518.744    88671540.455          49.000  
  24823839.564                   130449858.718 0                        38.000  
                  24823836.115    99955702.850          43.000  
  26502083.030                   139268851.399 0                        36.000  
                  26502080.296   106713333.878          41.000  
 22  1  7  4  1 24.0000000  0 10G01G03G04G06G09G17G19G21G31G32
  20636794.422    20636791.528   108447584.019 0  84504612.694 0        49.000  
        48.000                                                  
  20320517.022    20320513.681   106784363.236 0  83208598.031 0        50.000  
        49.000                                                  
  21312271.027    21312265.737   111997506.68610  87270786.543 0        47.000  
        47.000                                                  
  24921187.142    24921185.462   130961685.825 0 102048408.719 0        40.000  
        34.000                                                  
  24115537.690    24115533.455   126728032.46210  98749116.662 0        42.000  
        40.000                                                  
  22576286.078    22576280.395   118639698.675 0  92446484.264 0        46.000  
        45.000                                                  
  22805368.132                   119842522.80010                        44.000  
                                                                
  22464394.670                   118050792.335 0                        45.000  
                                                                
  22601996.546    22601990.060   118773800.573 0  92551016.123 0        45.000  
        42.000                                                  
  25604258.814    25604256.294   134550532.157 0 104844860.966 0        35.000  
        35.000                                                  
 22  1  7  4  1 23.0000000  0  0
 22  1  7  4  1 24.0000000  0  5E04E09E11E12E19
  23571773.582                   123870659.257 0                        48.000  
                  23571770.848    94913880.554          53.000  
  23391829.608                   122925542.905 0                        47.000  
                  23391828.429    94189704.299          51.000  
  22021664.412                   115724628.621 0                        45.000  
                  22021659.570    88672107.864          49.000  
  24824392.825                   130452766.542 0                        38.000  
                  24824389.394    99957930.910          43.000  
  26502571.176                   139271416.970 0                        36.000  
                  26502568.514   106715299.723          40.000  
 22  1  7  4  1 25.0000000  0 10G01G03G04G06G09G17G19G21G31G32
  20637175.461    20637172.477   108449585.923 0  84506172.617 0        49.000  
        48.000                                                  
  20320445.064    20320441.704   106783985.150 0  83208303.416 0        50.000  
        49.000                                                  
  21311835.416    21311830.019   111995216.90610  87269002.302 0        47.000  
        47.000                                                  
  24920513.605    24920511.890   130958146.487 0 102045650.786 0        40.000  
        34.000                                                  
  24114871.068    24114866.922   126724529.92510  98746387.412 0        42.000  
        40.000                                                  
  22576366.202    22576360.484   118640119.754 0  92446812.391 0        46.000  
        45.000                                                  
  22805183.312                   119841551.38610                        44.000  
                                                                
  22464880.064                   118053343.342 0                        45.000  
                                                                
  22602089.948    22602083.676   118774291.600 0  92551398.753 0        45.000  
        42.000                                                  
  25604915.572    25604913.016   134553983.233 0 104847550.088 0        34.000  
        35.000                                                  
 22  1  7  4  1 24.0000000  0  0
 22  1  7  4  1 25.0000000  0  5E04E09E11E12E19
  23571848.024                   123871051.657 0                        48.000  
                  23571845.505    94914181.224          53.000  
  23391431.236                   122923449.250 0                        47.000  
                  23391430.146    94188100.063          51.000  
  22021805.274                   115725369.660 0                        45.000  
                  22021800.628    88672675.678          49.000  
  24824946.157                   130455674.628 0                        38.000  
                  24824942.797    99960159.196          43.000  
  26503059.393                   139273982.720 0                        36.000  
                  26503056.767   106717265.681          40.000  
 22  1  7  4  1 26.0000000  0 10G01G03G04G06G09G17G19G21G31G32
  20637556.465    20637553.534   108451588.138 0  84507732.787 0        49.000  
        48.000                                                  
  20320373.177    20320369.889   106783607.204 0  83208008.913 0        50.000  
        49.000                                                  
  21311399.680    21311394.390   111992927.37610  87267218.248 0        47.000  
        47.000                                                  
  24919840.086    24919838.388   130954606.991 0 102042892.739 0        40.000  
        34.000                                                  
  24114204.500    24114200.408   126721027.35610  98743658.121 0        42.000  
        40.000                                                  
  22576446.524    22576440.716   118640541.240 0  92447140.810 0        46.000  
        45.000                                                  
  22804998.547                   119840580.47110                        45.000  
                                                                
  22465365.529                   118055894.464 0                        45.000  
                                                                
  22602183.474    22602177.220   118774783.126 0  92551781.753 0        45.000  
        42.000                                                  
  25605572.187    25605569.757   134557434.139 0 104850239.101 0        34.000  
        35.000                                                  
 22  1  7  4  1 25.0000000  0  0
 22  1  7  4  1 26.0000000  0  5E04E09E11E12E19
  23571922.949                   123871444.157 0                        48.000  
                  23571920.180    94914481.973          53.000  
  23391032.882                   122921355.615 0                        47.000  
                  23391031.703    94186495.853          51.000  
  22021946.529                   115726110.907 0                        45.000  
                  22021941.793    88673243.649          49.000  
  24825499.703                   130458582.710 0                        38.000  
                  24825496.094    99962387.452          43.000  
  26503547.539                   139276548.311 0                        36.000  
                  26503544.948   106719231.534          40.000  
 22  1  7  4  1 27.0000000  0 10G01G03G04G06G09G17G19G21G31G32
  20637937.522    20637934.698   108453590.984 0  84509293.446 0        49.000  
        49.000                                                  
  20320301.397    20320297.895   106783229.717 0  83207714.770 0        50.000  
        49.000                                                  
  21310964.068    21310958.797   111990638.39810  87265434.628 0        47.000  
        48.000                                                  
  24919166.602    24919164.833   130951067.661 0 102040134.850 0        40.000  
        34.000                                                  
  24113538.039    24113533.839   126717525.07110  98740929.054 0        42.000  
        40.000                                                  
  22576526.827    22576521.109   118640963.431 0  92447469.792 0        46.000  
        45.000                                                  
  22804814.031                   119839610.37210                        45.000  
                                                                
  22465851.102                   118058446.013 0                        45.000  
                                                                
  22602277.197    22602271.014   118775275.451 0  92552165.376 0        45.000  
        42.000                                                  
  25606228.981    25606226.461   134560885.132 0 104852928.191 0        34.000  
        35.000                                                  
 22  1  7  4  1 26.0000000  0  0
 22  1  7  4  1 27.0000000  0  5E04E09E11E12E19
  23571997.606                   123871837.100 0                        48.000  
                  23571995.015    94914783.064          53.000  
  23390634.617                   122919262.346 0                        47.000  
                  23390633.420    94184891.914          51.000  
  22022087.569                   115726852.710 0                        45.000  
                  22022082.905    88673812.047          49.000  
  24826052.982                   130461491.077 0                        38.000  
                  24826049.640    99964615.943          43.000  
  26504035.900                   139279114.107 0                        36.000  
                  26504033.202   106721197.530          40.000  
 22  1  7  4  1 28.0000000  0 10G01G03G04G06G09G17G19G21G31G32
  20638318.811    20638315.952   108455594.503 0  84510854.631 0        49.000  
        49.000                                                  
  20320229.724    20320226.150   106782852.746 0  83207421.021 0        50.000  
        48.000                                                  
  21310528.547    21310523.365   111988350.02110  87263651.475 0        47.000  
        47.000                                                  
  24918493.226    24918491.296   130947528.558 0 102037377.087 0        41.000  
        34.000                                                  
  24112871.721    24112867.396   126714023.08510  98738200.239 0        42.000  
        40.000                                                  
  22576607.256    22576601.609   118641386.370 0  92447799.353 0        46.000  
        44.000                                                  
  22804629.623                   119838641.10310                        44.000  
                                                                
  22466336.711                   118060998.015 0                        45.000  
                                                                
  22602371.081    22602364.934   118775768.623 0  92552549.659 0        45.000  
        41.000                                                  
  25606885.721    25606883.237   134564336.278 0 104855617.378 0        34.000  
        35.000                                                  
 22  1  7  4  1 27.0000000  0  0
