     2.11           OBSERVATION DATA    M (Mixed)           RINEX VERSION / TYPE
RTCM3TORINEX on                         2022-01-17 13:59    PGM / RUN BY / DATE
RTCM3TORINEX                                                MARKER NAME
                                                            OBSERVER / AGENCY
                                                            REC # / TYPE / VERS
                                                            ANT # / TYPE
         .0000         .0000         .0000                  APPROX POSITION XYZ
         .0000         .0000         .0000                  ANTENNA: DELTA H/E/N
     1     1                                                WAVELENGTH FACT L1/2
     9    C1    C2    L1    L2    S1    S2    C7    L7    S7# / TYPES OF OBSERV
  2022     1    17    13    59   20.0010000     GPS         TIME OF FIRST OBS
                                                            END OF HEADER
 22  1 17 13 59 20.0010000  0  7E02E03E07E08E11E25E30
  23295318.372                   122417791.404 0                        49.000  
                  23295316.907    93800674.771          53.000  
  27394025.461                   143956175.368 0                        41.000  
                  27394029.571   110304069.346          46.000  
  26251748.775                   137953895.538 0                        44.000  
                  26251749.955   105704953.120          49.000  
  23238494.486                   122119141.607 0                        47.000  
                  23238493.771    93571814.889          51.000  
  24698248.548                   129790536.926 0                        39.000  
                  24698244.956    99449903.375          42.000  
  25489162.150                   133946478.212 0                        45.000  
                  25489162.346   102634334.027          49.000  
  25694257.434                   135024275.300 0                        45.000  
                  25694258.524   103460180.986          49.000  
 22  1 17 13 59 21.0010000  0  9G02G06G12G15G17G19G24G25G32
  24423082.909                   128344558.60910                        30.000  
                                                                
  23466456.205    23466455.491   123316649.753 0  96090901.244 0        41.000  
        41.000                                                  
  20766274.721    20766270.093   109127613.554 0  85034534.260 0        49.000  
        47.000                                                  
  23964924.823    23964923.269   125936519.986 0  98132345.862 0        43.000  
        42.000                                                  
  23805984.135    23805979.185   125100967.347 0  97481399.083 0        43.000  
        39.000                                                  
  21632759.744                   113680897.518 0                        46.000  
                                                                
  20037221.157    20037218.495   105295757.440 0  82048658.448 0        50.000  
        50.000                                                  
  23223227.979    23223227.121   122038912.94210  95095265.568 0        43.000  
        43.000                                                  
  24488377.016    24488377.052   128687296.365 0 100275833.393 0        42.000  
        41.000                                                  
 22  1 17 13 59 20.0000000  0  0
 22  1 17 13 59 21.0010000  0  7E02E03E07E08E11E25E30
  23295314.834                   122417772.336 0                        49.000  
                  23295313.172    93800660.163          53.000  
  27394622.304                   143959310.932 0                        41.000  
                  27394626.146   110306471.911          46.000  
  26251571.086                   137952961.847 0                        45.000  
                  26251572.408   105704237.699          49.000  
  23238823.151                   122120868.451 0                        47.000  
                  23238822.436    93573138.055          51.000  
  24698179.984                   129790176.514 0                        39.000  
                  24698176.393    99449627.208          42.000  
  25489517.028                   133948343.621 0                        45.000  
                  25489517.296   102635763.373          49.000  
  25693894.300                   135022365.517 0                        45.000  
                  25693895.176   103458717.646          50.000  
 22  1 17 13 59 22.0010000  0  9G02G06G12G15G17G19G24G25G32
  24422519.820                   128341619.05710                        31.000  
                                                                
  23466064.213    23466063.462   123314589.773 0  96089296.058 0        41.000  
        41.000                                                  
  20765976.648    20765972.073   109126047.776 0  85033314.178 0        49.000  
        47.000                                                  
  23965612.995    23965611.566   125940136.571 0  98135163.975 0        43.000  
        41.000                                                  
  23806562.501    23806557.552   125104007.280 0  97483767.864 0        42.000  
        39.000                                                  
  21633134.458                   113682866.714 0                        46.000  
                                                                
  20037286.433    20037283.716   105296100.086 0  82048925.439 0        50.000  
        50.000                                                  
  23222650.077    23222649.237   122035876.10510  95092899.199 0        43.000  
        43.000                                                  
  24487851.810    24487851.988   128684536.678 0 100273682.994 0        42.000  
        41.000                                                  
 22  1 17 13 59 21.0000000  0  0
 22  1 17 13 59 22.0010000  0  7E02E03E07E08E11E25E30
  23295311.099                   122417753.282 0                        49.000  
                  23295309.652    93800645.559          53.000  
  27395219.130                   143962446.358 0                        41.000  
                  27395222.882   110308874.374          46.000  
  26251393.575                   137952028.440 0                        45.000  
                  26251394.790   105703522.491          49.000  
  23239151.798                   122122595.512 0                        47.000  
                  23239151.137    93574461.392          51.000  
  24698111.260                   129789816.410 0                        39.000  
                  24698107.811    99449351.296          42.000  
  25489871.996                   133950208.950 0                        45.000  
                  25489872.318   102637192.651          49.000  
  25693530.683                   135020455.673 0                        46.000  
                  25693531.702   103457254.256          50.000  
 22  1 17 13 59 23.0010000  0  9G02G06G12G15G17G19G24G25G32
  24421960.502                   128338679.58810                        31.000  
                                                                
  23465672.256    23465671.559   123312530.219 0  96087691.217 0        41.000  
        41.000                                                  
  20765678.914    20765674.125   109124482.365 0  85032094.380 0        49.000  
        47.000                                                  
  23966301.203    23966299.755   125943753.214 0  98137982.148 0        42.000  
        42.000                                                  
  23807141.083    23807135.954   125107047.447 0  97486136.801 0        42.000  
        38.000                                                  
  21633509.278                   113684836.475 0                        46.000  
                                                                
  20037351.708    20037348.992   105296443.238 0  82049192.839 0        50.000  
        50.000                                                  
  23222072.228    23222071.299   122032839.41810  95090532.961 0        43.000  
        43.000                                                  
  24487326.693    24487326.943   128681777.387 0 100271532.897 0        42.000  
        41.000                                                  
 22  1 17 13 59 22.0000000  0  0
 22  1 17 13 59 23.0010000  0  7E02E03E07E08E11E25E30
  23295307.454                   122417734.390 0                        49.000  
                  23295305.971    93800631.086          53.000  
  27395815.741                   143965581.772 0                        42.000  
                  27395819.618   110311276.836          46.000  
  26251216.136                   137951095.470 0                        45.000  
                  26251217.136   105702807.616          49.000  
  23239480.606                   122124322.957 0                        47.000  
                  23239479.802    93575785.007          51.000  
  24698042.804                   129789456.802 0                        39.000  
                  24698039.462    99449075.743          42.000  
  25490227.036                   133952074.355 0                        45.000  
                  25490227.250   102638621.985          49.000  
  25693167.370                   135018545.916 0                        46.000  
                  25693168.300   103455790.934          49.000  
 22  1 17 13 59 24.0010000  0  9G02G06G12G15G17G19G24G25G32
  24421399.111                   128335740.24210                        31.000  
                                                                
  23465280.388    23465279.763   123310471.175 0  96086086.768 0        42.000  
        41.000                                                  
  20765381.127    20765376.391   109122917.421 0  85030874.940 0        49.000  
        47.000                                                  
  23966989.339    23966988.142   125947370.024 0  98140800.432 0        42.000  
        41.000                                                  
  23807719.717    23807714.607   125110087.935 0  97488506.044 0        43.000  
        39.000                                                  
  21633884.188                   113686806.898 0                        46.000  
                                                                
  20037417.109    20037414.375   105296787.020 0  82049460.723 0        50.000  
        50.000                                                  
  23221494.290    23221493.468   122029803.00910  95088166.921 0        43.000  
        43.000                                                  
  24486801.701    24486801.987   128679018.542 0 100269383.168 0        42.000  
        41.000                                                  
 22  1 17 13 59 23.0000000  0  0
 22  1 17 13 59 24.0010000  0  7E02E03E07E08E11E25E30
  23295304.130                   122417715.777 0                        49.000  
                  23295302.397    93800616.824          53.000  
  27396412.280                   143968717.303 0                        41.000  
                  27396416.158   110313679.371          46.000  
  26251038.643                   137950163.031 0                        44.000  
                  26251039.733   105702093.154          49.000  
  23239809.253                   122126050.854 0                        47.000  
                  23239808.538    93577108.990          51.000  
  24697974.330                   129789097.766 0                        39.000  
                  24697971.113    99448800.629          42.000  
  25490582.165                   133953939.904 0                        45.000  
                  25490582.290   102640051.437          49.000  
  25692803.986                   135016636.347 0                        46.000  
                  25692804.951   103454327.765          50.000  
 22  1 17 13 59 25.0010000  0  9G02G06G12G15G17G19G24G25G32
  24420838.524                   128332801.33310                        31.000  
                                                                
  23464888.592    23464888.002   123308412.891 0  96084482.905 0        42.000  
        41.000                                                  
  20765083.393    20765078.711   109121353.149 0  85029656.031 0        49.000  
        47.000                                                  
  23967677.546    23967676.439   125950987.198 0  98143619.003 0        42.000  
        41.000                                                  
  23808298.477    23808293.384   125113128.971 0  97490875.681 0        43.000  
        39.000                                                  
  21634259.241                   113688778.184 0                        46.000  
                                                                
  20037482.742    20037479.936   105297131.642 0  82049729.264 0        50.000  
        50.000                                                  
  23220916.549    23220915.781   122026767.08110  95085801.270 0        43.000  
        43.000                                                  
  24486277.048    24486277.263   128676260.412 0 100267233.970 0        42.000  
        41.000                                                  
 22  1 17 13 59 24.0000000  0  0
 22  1 17 13 59 25.0010000  0  7E02E03E07E08E11E25E30
  23295300.503                   122417697.648 0                        49.000  
                  23295298.948    93800602.937          53.000  
  27397008.998                   143971853.146 0                        41.000  
                  27397012.911   110316082.161          46.000  
  26250861.400                   137949231.365 0                        45.000  
                  26250862.436   105701379.275          49.000  
  23240138.221                   122127779.467 0                        47.000  
                  23240137.542    93578433.511          51.000  
  24697906.141                   129788739.532 0                        39.000  
                  24697902.925    99448526.147          42.000  
  25490937.115                   133955805.873 0                        45.000  
                  25490937.419   102641481.198          49.000  
  25692440.637                   135014727.201 0                        45.000  
                  25692441.638   103452864.917          50.000  
 22  1 17 13 59 26.0010000  0 10G02G06G12G13G15G17G19G24G25G32
  24420280.635                   128329862.30410                        31.000  
                                                                
  23464497.010    23464496.385   123306354.819 0  96082879.215 0        42.000  
        41.000                                                  
  20764785.713    20764781.067   109119789.047 0  85028437.246 0        49.000  
        47.000                                                  
  25174501.717                   132293549.834 0                        26.000  
                                                                
  23968365.843    23968364.753   125954604.205 0  98146437.445 0        42.000  
        41.000                                                  
  23808877.201    23808872.001   125116170.011 0  97493245.324 0        43.000  
        39.000                                                  
  21634634.527                   113690749.817 0                        46.000  
                                                                
  20037548.428    20037545.587   105297476.566 0  82049998.029 0        50.000  
        50.000                                                  
  23220338.933    23220338.075   122023731.08610  95083435.560 0        43.000  
        43.000                                                  
  24485752.253    24485752.539   128673502.436 0 100265084.890 0        42.000  
        41.000                                                  
 22  1 17 13 59 25.0000000  0  0
 22  1 17 13 59 26.0010000  0  7E02E03E07E08E11E25E30
  23295297.090                   122417679.475 0                        49.000  
                  23295295.535    93800589.010          53.000  
  27397605.627                   143974988.786 0                        41.000  
                  27397609.647   110318484.777          46.000  
  26250684.085                   137948299.909 0                        45.000  
                  26250685.140   105700665.554          49.000  
  23240467.297                   122129508.236 0                        47.000  
                  23240466.404    93579758.145          51.000  
  24697838.150                   129788381.550 0                        39.000  
                  24697834.862    99448251.844          42.000  
  25491292.083                   133957671.669 0                        45.000  
                  25491292.423   102642910.832          49.000  
  25692077.217                   135012817.920 0                        46.000  
                  25692078.307   103451401.957          49.000  
 22  1 17 13 59 27.0010000  0 10G02G06G12G13G15G17G19G24G25G32
  24419721.210                   128326923.29010                        31.000  
                                                                
  23464105.446    23464104.713   123304297.140 0  96081275.824 0        42.000  
        41.000                                                  
  20764488.104    20764483.459   109118225.261 0  85027218.714 0        50.000  
        47.000                                                  
  25175242.245                   132297430.889 0                        27.000  
                                                                
  23969054.051    23969053.014   125958221.233 0  98149255.917 0        42.000  
        41.000                                                  
  23809455.872    23809450.654   125119211.261 0  97495615.123 0        43.000  
        39.000                                                  
  21635009.883                   113692721.957 0                        46.000  
                                                                
  20037614.204    20037611.291   105297821.971 0  82050267.181 0        50.000  
        50.000                                                  
  23219761.210    23219760.298   122020695.20010  95081069.939 0        43.000  
        43.000                                                  
  24485227.493    24485227.726   128670744.782 0 100262936.067 0        42.000  
        41.000                                                  
 22  1 17 13 59 26.0000000  0  0
 22  1 17 13 59 27.0010000  0  7E02E03E07E08E11E25E30
  23295293.659                   122417661.443 0                        49.000  
                  23295292.087    93800575.191          53.000  
  27398202.274                   143978124.394 0                        41.000  
                  27398206.437   110320887.392          46.000  
  26250506.860                   137947368.847 0                        45.000  
                  26250508.076   105699952.153          49.000  
  23240796.284                   122131237.327 0                        47.000  
                  23240795.551    93581083.038          51.000  
  24697770.015                   129788024.014 0                        39.000  
                  24697766.745    99447977.892          42.000  
  25491647.069                   133959537.491 0                        45.000  
                  25491647.534   102644340.501          49.000  
  25691713.940                   135010908.697 0                        45.000  
                  25691714.976   103449939.066          49.000  
 22  1 17 13 59 28.0010000  0 10G02G06G12G13G15G17G19G24G25G32
  24419162.070                   128323984.52210                        31.000  
                                                                
  23463713.972    23463713.257   123302240.068 0  96079672.909 0        42.000  
        41.000                                                  
  20764190.657    20764185.993   109116662.045 0  85026000.629 0        50.000  
        47.000                                                  
  25175978.628                   132301312.066 0                        27.000  
                                                                
  23969742.366    23969741.383   125961838.528 0  98152074.577 0        42.000  
        41.000                                                  
  23810034.792    23810029.449   125122252.920 0  97497985.237 0        42.000  
        39.000                                                  
  21635385.294                   113694694.869 0                        46.000  
                                                                
  20037680.051    20037677.210   105298168.095 0  82050536.890 0        50.000  
        50.000                                                  
  23219183.558    23219182.575   122017659.68910  95078704.606 0        43.000  
        43.000                                                  
  24484702.841    24484703.109   128667987.715 0 100260787.719 0        42.000  
        41.000                                                  
 22  1 17 13 59 27.0000000  0  0
 22  1 17 13 59 28.0010000  0  7E02E03E07E08E11E25E30
  23295290.192                   122417643.772 0                        49.000  
                  23295288.674    93800561.655          53.000  
  27398799.063                   143981260.201 0                        41.000  
                  27398803.137   110323290.135          46.000  
  26250329.993                   137946438.427 0                        45.000  
                  26250330.940   105699239.237          49.000  
  23241125.396                   122132967.009 0                        47.000  
                  23241124.645    93582408.376          51.000  
  24697702.113                   129787667.167 0                        39.000  
                  24697698.950    99447704.482          42.000  
  25492002.306                   133961403.598 0                        45.000  
                  25492002.627   102645770.366          49.000  
  25691350.663                   135008999.768 0                        45.000  
                  25691351.735   103448476.380          50.000  
 22  1 17 13 59 29.0010000  0 10G02G06G12G13G15G17G19G24G25G32
  24418602.931                   128321045.58410                        31.000  
                                                                
  23463322.622    23463321.782   123300183.160 0  96078070.119 0        42.000  
        41.000                                                  
  20763893.173    20763888.599   109115098.906 0  85024782.598 0        50.000  
        47.000                                                  
  25176715.314                   132305192.907 0                        27.000  
                                                                
  23970430.609    23970429.698   125965455.581 0  98154893.067 0        42.000  
        41.000                                                  
  23810613.623    23810608.120   125125294.528 0  97500355.313 0        43.000  
        39.000                                                  
  21635760.775                   113696668.042 0                        47.000  
                                                                
  20037745.934    20037743.183   105298514.454 0  82050806.784 0        50.000  
        50.000                                                  
  23218605.924    23218604.994   122014624.04610  95076339.176 0        43.000  
        43.000                                                  
  24484178.260    24484178.510   128665230.725 0 100258639.433 0        42.000  
        41.000                                                  
 22  1 17 13 59 28.0000000  0  0
 22  1 17 13 59 29.0010000  0  7E02E03E07E08E11E25E30
  23295286.815                   122417625.989 0                        49.000  
                  23295285.386    93800548.029          53.000  
  27399395.585                   143984395.709 0                        41.000  
                  27399399.802   110325692.681          46.000  
  26250152.768                   137945508.169 0                        44.000  
                  26250154.001   105698526.437          49.000  
  23241454.597                   122134696.760 0                        47.000  
                  23241453.775    93583733.775          51.000  
  24697634.354                   129787310.520 0                        39.000  
                  24697630.976    99447431.201          42.000  
  25492357.238                   133963269.478 0                        45.000  
                  25492357.631   102647200.069          49.000  
  25690987.421                   135007090.666 0                        46.000  
                  25690988.493   103447013.557          50.000  
 22  1 17 13 59 30.0010000  0 10G02G06G12G13G15G17G19G24G25G32
  24418043.773                   128318106.76910                        31.000  
                                                                
  23462931.362    23462930.433   123298126.731 0  96076467.693 0        42.000  
        41.000                                                  
  20763595.868    20763591.276   109113536.177 0  85023564.887 0        50.000  
        47.000                                                  
  25177454.573                   132309073.641 0                        27.000  
                                                                
  23971118.995    23971117.977   125969072.747 0  98157711.610 0        42.000  
        41.000                                                  
  23811192.508    23811186.969   125128336.384 0  97502725.617 0        43.000  
        39.000                                                  
  21636136.472                   113698641.825 0                        47.000  
                                                                
  20037811.943    20037809.119   105298861.370 0  82051077.107 0        50.000  
        50.000                                                  
  23218028.147    23218027.378   122011588.60610  95073973.905 0        43.000  
        43.000                                                  
  24483653.608    24483653.929   128662474.163 0 100256491.428 0        42.000  
        41.000                                                  
 22  1 17 13 59 29.0000000  0  0
 22  1 17 13 59 30.0010000  0  7E02E03E07E08E11E25E30
  23295283.563                   122417608.406 0                        49.000  
                  23295281.973    93800534.557          53.000  
  27399992.160                   143987531.288 0                        41.000  
                  27399996.466   110328095.238          46.000  
  26249975.811                   137944578.377 0                        44.000  
                  26249977.062   105697813.992          49.000  
  23241783.941                   122136426.935 0                        47.000  
                  23241782.976    93585059.488          51.000  
  24697566.505                   129786954.384 0                        39.000  
                  24697563.360    99447158.306          42.000  
  25492712.456                   133965135.462 0                        45.000  
                  25492712.742   102648629.844          49.000  
  25690624.233                   135005181.672 0                        46.000  
                  25690625.180   103445550.822          50.000  
 22  1 17 13 59 31.0010000  0 10G02G06G12G13G15G17G19G24G25G32
  24417484.544                   128315168.28810                        31.000  
                                                                
  23462540.227    23462539.280   123296071.033 0  96074865.850 0        42.000  
        41.000                                                  
  20763298.617    20763294.061   109111974.129 0  85022347.707 0        50.000  
        47.000                                                  
  25178193.189                   132312954.655 0                        28.000  
                                                                
  23971807.435    23971806.256   125972690.250 0  98160530.460 0        43.000  
        41.000                                                  
  23811771.393    23811766.015   125131378.799 0  97505096.333 0        42.000  
        39.000                                                  
  21636512.221                   113700616.462 0                        47.000  
                                                                
  20037878.058    20037875.342   105299209.132 0  82051348.092 0        50.000  
        50.000                                                  
  23217450.566    23217449.887   122008553.62910  95071608.986 0        43.000  
        43.000                                                  
  24483129.170    24483129.527   128659718.269 0 100254344.007 0        42.000  
        41.000                                                  
 22  1 17 13 59 30.0000000  0  0
 22  1 17 13 59 31.0010000  0  7E02E03E07E08E11E25E30
  23295280.347                   122417591.316 0                        49.000  
                  23295278.756    93800521.464          53.000  
  27400588.842                   143990667.157 0                        41.000  
                  27400593.220   110330498.051          46.000  
  26249798.961                   137943649.339 0                        44.000  
                  26249800.230   105697102.130          49.000  
  23242113.374                   122138157.801 0                        47.000  
                  23242112.445    93586385.735          51.000  
  24697498.924                   129786599.051 0                        39.000  
                  24697495.761    99446886.040          42.000  
  25493067.407                   133967001.833 0                        45.000  
                  25493067.889   102650059.920          49.000  
  25690261.063                   135003273.098 0                        46.000  
                  25690261.957   103444088.410          50.000  
 22  1 17 13 59 32.0010000  0 10G02G06G12G13G15G17G19G24G25G32
  24416925.244                   128312229.85210                        31.000  
                                                                
  23462149.199    23462148.109   123294015.725 0  96073264.320 0        42.000  
        42.000                                                  
  20763001.402    20762996.881   109110412.430 0  85021130.808 0        50.000  
        47.000                                                  
  25178932.181                   132316835.604 0                        28.000  
                                                                
  23972495.875    23972494.588   125976307.823 0  98163349.318 0        42.000  
        41.000                                                  
  23812350.278    23812344.953   125134421.417 0  97507467.188 0        42.000  
        39.000                                                  
  21636887.989                   113702591.666 0                        46.000  
                                                                
  20037944.316    20037941.618   105299557.392 0  82051619.466 0        50.000  
        50.000                                                  
  23216873.039    23216872.396   122005518.82510  95069244.195 0        43.000  
        43.000                                                  
  24482604.785    24482605.053   128656962.758 0 100252196.843 0        42.000  
        41.000                                                  
 22  1 17 13 59 31.0000000  0  0
 22  1 17 13 59 32.0010000  0  7E02E03E07E08E11E25E30
  23295277.005                   122417574.381 0                        49.000  
                  23295275.540    93800508.483          53.000  
  27401185.561                   143993803.043 0                        41.000  
                  27401190.081   110332900.855          46.000  
  26249622.290                   137942720.730 0                        44.000  
                  26249623.541   105696390.598          49.000  
  23242442.593                   122139889.029 0                        47.000  
                  23242441.807    93587712.260          51.000  
  24697431.379                   129786244.186 0                        39.000  
                  24697428.181    99446614.121          42.000  
  25493422.661                   133968868.251 0                        45.000  
                  25493423.054   102651490.030          49.000  
  25689897.893                   135001364.594 0                        45.000  
                  25689898.697   103442626.052          50.000  
 22  1 17 13 59 33.0010000  0 10G02G06G12G13G15G17G19G24G25G32
  24416365.997                   128309291.68610                        31.000  
                                                                
  23461758.046    23461757.099   123291961.030 0  96071663.259 0        42.000  
        42.000                                                  
  20762704.347    20762699.808   109108851.266 0  85019914.316 0        50.000  
        47.000                                                  
  25179670.725                   132320716.690 0                        28.000  
                                                                
  23973184.190    23973182.975   125979925.590 0  98166168.369 0        42.000  
        41.000                                                  
  23812929.359    23812924.070   125137464.434 0  97509838.375 0        42.000  
        39.000                                                  
  21637263.882                   113704567.565 0                        47.000  
                                                                
  20038010.736    20038008.037   105299906.348 0  82051891.379 0        50.000  
        50.000                                                  
  23216295.620    23216294.959   122002484.32710  95066879.664 0        43.000  
        43.000                                                  
  24482080.562    24482080.812   128654207.780 0 100250050.105 0        42.000  
        42.000                                                  
 22  1 17 13 59 32.0000000  0  0
 22  1 17 13 59 33.0010000  0  7E02E03E07E08E11E25E30
  23295273.735                   122417557.775 0                        49.000  
                  23295272.377    93800495.759          53.000  
  27401782.332                   143996939.062 0                        41.000  
                  27401786.764   110335303.783          46.000  
  26249445.530                   137941792.717 0                        44.000  
                  26249446.834   105695679.521          49.000  
  23242772.098                   122141620.800 0                        47.000  
                  23242771.419    93589039.194          51.000  
  24697363.674                   129785889.951 0                        39.000  
                  24697360.672    99446342.692          42.000  
  25493777.807                   133970734.900 0                        45.000  
                  25493778.218   102652920.325          49.000  
  25689534.616                   134999456.349 0                        46.000  
                  25689535.652   103441163.901          50.000  
 22  1 17 13 59 34.0010000  0 10G02G06G12G13G15G17G19G24G25G32
  24415806.768                   128306353.18210                        31.000  
                                                                
  23461367.036    23461366.089   123289906.361 0  96070062.216 0        42.000  
        42.000                                                  
  20762407.221    20762402.718   109107290.057 0  85018697.796 0        50.000  
        47.000                                                  
  25180407.447                   132324597.223 0                        28.000  
                                                                
  23973872.522    23973871.343   125983543.011 0  98168987.145 0        42.000  
        41.000                                                  
  23813508.494    23813503.098   125140507.267 0  97512209.395 0        42.000  
        39.000                                                  
  21637639.918                   113706543.626 0                        47.000  
                                                                
  20038077.065    20038074.439   105300255.409 0  82052163.378 0        50.000  
        50.000                                                  
  23215718.129    23215717.414   121999449.57010  95064514.925 0        43.000  
        43.000                                                  
  24481556.320    24481556.535   128651452.770 0 100247903.344 0        42.000  
        42.000                                                  
 22  1 17 13 59 33.0000000  0  0
 22  1 17 13 59 34.0010000  0  7E02E03E07E08E11E25E30
  23295270.662                   122417540.931 0                        49.000  
                  23295269.071    93800482.855          53.000  
  27402379.140                   144000074.702 0                        41.000  
                  27402383.375   110337706.407          46.000  
  26249268.966                   137940864.724 0                        44.000  
                  26249270.324   105694968.470          49.000  
  23243101.692                   122143352.515 0                        47.000  
                  23243100.977    93590366.102          51.000  
  24697296.325                   129785535.789 0                        39.000  
                  24697293.216    99446071.324          42.000  
  25494132.901                   133972601.215 0                        45.000  
                  25494133.455   102654350.354          49.000  
  25689171.517                   134997547.784 0                        45.000  
                  25689172.482   103439701.494          49.000  
 22  1 17 13 59 35.0010000  0 10G02G06G12G13G15G17G19G24G25G32
  24415247.521                   128303414.87210                        31.000  
                                                                
  23460976.151    23460975.222   123287852.212 0  96068461.590 0        42.000  
        42.000                                                  
  20762110.166    20762105.663   109105729.315 0  85017481.631 0        50.000  
        47.000                                                  
  25181149.619                   132328477.837 0                        28.000  
                                                                
  23974560.819    23974559.711   125987160.584 0  98171806.015 0        42.000  
        41.000                                                  
  23814087.594    23814082.215   125143550.404 0  97514580.686 0        42.000  
        39.000                                                  
  21638016.061                   113708520.340 0                        47.000  
                                                                
  20038143.556    20038141.036   105300605.093 0  82052435.856 0        50.000  
        50.000                                                  
  23215140.691    23215140.030   121996415.09510  95062150.400 0        43.000  
        43.000                                                  
  24481032.133    24481032.329   128648698.218 0 100245756.956 0        42.000  
        42.000                                                  
 22  1 17 13 59 34.0000000  0  0
 22  1 17 13 59 35.0010000  0  7E02E03E07E08E11E25E30
  23295267.392                   122417524.357 0                        49.000  
                  23295265.998    93800470.160          53.000  
  27402975.929                   144003210.421 0                        41.000  
                  27402980.147   110340109.097          46.000  
  26249092.420                   137939937.274 0                        44.000  
                  26249093.885   105694257.820          49.000  
  23243431.196                   122145084.711 0                        47.000  
                  23243430.607    93591693.364          51.000  
  24697229.084                   129785182.173 0                        39.000  
                  24697226.082    99445800.403          42.000  
  25494488.030                   133974467.689 0                        45.000  
                  25494488.673   102655780.502          49.000  
  25688808.401                   134995639.412 0                        45.000  
                  25688809.312   103438239.238          50.000  
 22  1 17 13 59 36.0010000  0 10G02G06G12G13G15G17G19G24G25G32
  24414688.489                   128300476.84010                        30.000  
                                                                
  23460585.499    23460584.427   123285798.764 0  96066861.480 0        42.000  
        42.000                                                  
  20761813.308    20761808.787   109104169.201 0  85016265.967 0        50.000  
        47.000                                                  
  25181888.092                   132332358.607 0                        28.000  
                                                                
  23975249.241    23975248.151   125990778.472 0  98174625.139 0        42.000  
        41.000                                                  
  23814666.693    23814661.350   125146594.043 0  97516952.360 0        42.000  
        39.000                                                  
  21638392.311                   113710497.874 0                        47.000  
                                                                
  20038210.190    20038207.813   105300955.563 0  82052708.954 0        50.000  
        50.000                                                  
  23214563.200    23214562.807   121993381.03110  95059786.198 0        43.000  
        43.000                                                  
  24480508.070    24480508.338   128645944.312 0 100243611.057 0        42.000  
        42.000                                                  
 22  1 17 13 59 35.0000000  0  0
 22  1 17 13 59 36.0010000  0  7E02E03E07E08E11E25E30
  23295264.550                   122417508.218 0                        49.000  
                  23295262.889    93800457.791          53.000  
  27403572.719                   144006346.419 0                        41.000  
                  27403576.990   110342512.000          46.000  
  26248916.124                   137939010.528 0                        44.000  
                  26248917.536   105693547.728          49.000  
  23243761.023                   122146817.549 0                        47.000  
                  23243760.290    93593021.124          51.000  
  24697162.022                   129784829.365 0                        39.000  
                  24697158.930    99445530.053          42.000  
  25494843.266                   133976334.488 0                        45.000  
                  25494843.748   102657210.909          49.000  
  25688445.267                   134993731.398 0                        45.000  
                  25688446.232   103436777.258          50.000  
 22  1 17 13 59 37.0010000  0 10G02G06G12G13G15G17G19G24G25G32
  24414129.349                   128297538.73010                        31.000  
                                                                
  23460194.632    23460193.774   123283745.460 0  96065261.505 0        42.000  
        42.000                                                  
  20761516.468    20761511.911   109102609.192 0  85015050.378 0        50.000  
        47.000                                                  
  25182628.209                   132336239.057 0                        28.000  
                                                                
  23975937.574    23975936.555   125994396.145 0  98177444.119 0        42.000  
        41.000                                                  
  23815245.882    23815240.503   125149637.636 0  97519323.972 0        42.000  
        39.000                                                  
  21638768.740                   113712475.689 0                        47.000  
                                                                
  20038276.966    20038274.500   105301306.285 0  82052982.240 0        50.000  
        50.000                                                  
  23213985.906    23213985.370   121990346.85310  95057421.912 0        43.000  
        43.000                                                  
  24479984.061    24479984.293   128643190.517 0 100241465.252 0        42.000  
        42.000                                                  
 22  1 17 13 59 36.0000000  0  0
 22  1 17 13 59 37.0010000  0  7E02E03E07E08E11E25E30
  23295261.388                   122417491.984 0                        49.000  
                  23295259.833    93800445.351          53.000  
  27404169.491                   144009482.136 0                        41.000  
                  27404173.672   110344914.692          46.000  
  26248739.793                   137938083.958 0                        44.000  
                  26248741.258   105692837.752          49.000  
  23244090.903                   122148550.491 0                        47.000  
                  23244090.045    93594348.962          51.000  
  24697094.816                   129784476.747 0                        39.000  
                  24697091.850    99445259.875          42.000  
  25495198.341                   133978201.088 0                        45.000  
                  25495198.967   102658641.168          49.000  
  25688082.097                   134991823.203 0                        45.000  
                  25688082.990   103435315.145          50.000  
 22  1 17 13 59 38.0010000  0 10G02G06G12G13G15G17G19G24G25G32
  24413570.138                   128294600.67210                        32.000  
                                                                
  23459803.997    23459803.175   123281692.684 0  96063661.942 0        42.000  
        42.000                                                  
  20761219.699    20761215.161   109101049.662 0  85013835.155 0        50.000  
        47.000                                                  
  25183365.521                   132340119.542 0                        28.000  
                                                                
  23976625.996    23976625.031   125998013.982 0  98180263.193 0        42.000  
        41.000                                                  
  23815825.053    23815819.656   125152681.557 0  97521695.872 0        42.000  
        39.000                                                  
  21639145.240                   113714454.165 0                        47.000  
                                                                
  20038343.796    20038341.366   105301657.627 0  82053256.015 0        50.000  
        50.000                                                  
  23213408.575    23213408.111   121987312.93510  95055057.809 0        43.000  
        43.000                                                  
  24479460.159    24479460.356   128640437.191 0 100239319.817 0        42.000  
        42.000                                                  
 22  1 17 13 59 37.0000000  0  0
 22  1 17 13 59 38.0010000  0  7E02E03E07E08E11E25E30
  23295258.225                   122417476.027 0                        49.000  
                  23295256.831    93800433.126          53.000  
  27404766.191                   144012617.996 0                        41.000  
                  27404770.426   110347317.471          46.000  
  26248563.497                   137937157.923 0                        44.000  
                  26248564.998   105692128.188          49.000  
  23244420.854                   122150283.908 0                        47.000  
                  23244420.015    93595677.164          51.000  
  24697027.843                   129784124.710 0                        40.000  
                  24697024.752    99444990.127          42.000  
  25495553.685                   133980067.869 0                        45.000  
                  25495554.185   102660071.552          49.000  
  25687718.962                   134989915.219 0                        45.000  
                  25687720.034   103433853.177          50.000  
 22  1 17 13 59 39.0010000  0 10G02G06G12G13G15G17G19G24G25G32
  24413011.177                   128291663.33610                        32.000  
                                                                
  23459413.666    23459412.773   123279640.883 0  96062063.143 0        42.000  
        42.000                                                  
  20760922.984    20760918.517   109099491.015 0  85012620.630 0        50.000  
        47.000                                                  
  25184099.134                   132344000.497 0                        29.000  
                                                                
  23977314.561    23977313.614   126001632.395 0  98183082.728 0        43.000  
        41.000                                                  
  23816404.384    23816399.059   125155726.232 0  97524068.328 0        42.000  
        39.000                                                  
  21639521.972                   113716433.732 0                        47.000  
                                                                
  20038410.787    20038408.393   105302010.016 0  82053530.606 0        50.000  
        50.000                                                  
  23212831.406    23212830.888   121984279.72210  95052694.264 0        43.000  
        43.000                                                  
  24478936.418    24478936.650   128637684.779 0 100237175.075 0        42.000  
        42.000                                                  
 22  1 17 13 59 38.0000000  0  0
 22  1 17 13 59 39.0010000  0  7E02E03E07E08E11E25E30
  23295255.348                   122417460.753 0                        49.000  
                  23295253.865    93800421.420          53.000  
  27405363.142                   144015754.352 0                        41.000  
                  27405367.251   110349720.646          46.000  
  26248387.398                   137936232.847 0                        44.000  
                  26248388.917   105691419.361          49.000  
  23244750.967                   122152018.231 0                        47.000  
                  23244749.895    93597006.055          51.000  
  24696961.138                   129783773.679 0                        40.000  
                  24696957.993    99444721.165          42.000  
  25495909.010                   133981935.232 0                        45.000  
                  25495909.564   102661502.386          49.000  
  25687356.114                   134988007.842 0                        46.000  
                  25687357.007   103432391.687          50.000  
 22  1 17 13 59 40.0010000  0 10G02G06G12G13G15G17G19G24G25G32
  24412451.948                   128288725.55410                        32.000  
                                                                
  23459023.299    23459022.424   123277589.137 0  96060464.377 0        42.000  
        42.000                                                  
  20760626.323    20760621.963   109097932.374 0  85011406.107 0        50.000  
        47.000                                                  
  25184836.177                   132347881.056 0                        29.000  
                                                                
  23978003.072    23978002.000   126005250.490 0  98185902.030 0        43.000  
        41.000                                                  
  23816983.787    23816978.409   125158770.748 0  97526440.690 0        42.000  
        39.000                                                  
  21639898.616                   113718413.472 0                        47.000  
                                                                
  20038477.868    20038475.437   105302362.563 0  82053805.320 0        50.000  
        50.000                                                  
  23212254.219    23212253.718   121981246.28010  95050330.557 0        43.000  
        43.000                                                  
  24478412.570    24478412.873   128634932.360 0 100235030.357 0        43.000  
        42.000                                                  
 22  1 17 13 59 39.0000000  0  0
 22  1 17 13 59 40.0010000  0  7E02E03E07E08E11E25E30
  23295252.560                   122417445.283 0                        49.000  
                  23295250.916    93800409.573          53.000  
  27405959.842                   144018890.347 0                        41.000  
                  27405964.023   110352123.547          46.000  
  26248211.370                   137935307.850 0                        44.000  
                  26248212.800   105690710.597          49.000  
  23245081.008                   122153752.552 0                        47.000  
                  23245080.061    93598334.964          51.000  
  24696894.326                   129783422.757 0                        40.000  
                  24696891.324    99444452.263          42.000  
  25496264.354                   133983802.310 0                        45.000  
                  25496264.907   102662933.002          49.000  
  25686993.337                   134986100.189 0                        46.000  
                  25686994.070   103430929.979          50.000  
 22  1 17 13 59 41.0010000  0 10G02G06G12G13G15G17G19G24G25G32
  24411892.880                   128285787.86010                        32.000  
                                                                
  23458632.951    23458632.057   123275537.738 0  96058865.882 0        42.000  
        42.000                                                  
  20760329.786    20760325.444   109096374.014 0  85010191.801 0        50.000  
        47.000                                                  
  25185575.258                   132351761.441 0                        29.000  
                                                                
  23978691.601    23978690.511   126008868.571 0  98188721.303 0        43.000  
        41.000                                                  
  23817563.208    23817557.758   125161815.429 0  97528813.162 0        42.000  
        39.000                                                  
  21640275.491                   113720393.685 0                        47.000  
                                                                
  20038545.019    20038542.589   105302715.539 0  82054080.364 0        50.000  
        50.000                                                  
  23211677.031    23211676.513   121978212.92010  95047966.914 0        43.000  
        43.000                                                  
  24477888.882    24477889.079   128632180.240 0 100232885.830 0        43.000  
        41.000                                                  
 22  1 17 13 59 40.0000000  0  0
 22  1 17 13 59 41.0010000  0  7E02E03E07E08E11E25E30
  23295249.487                   122417429.903 0                        49.000  
                  23295248.004    93800397.789          53.000  
  27406556.810                   144022026.260 0                        41.000  
                  27406560.741   110354526.396          46.000  
  26248035.396                   137934383.193 0                        44.000  
                  26248036.951   105690002.103          49.000  
  23245410.941                   122155487.178 0                        47.000  
                  23245410.066    93599664.081          51.000  
  24696827.478                   129783072.232 0                        40.000  
                  24696824.655    99444183.683          42.000  
  25496619.697                   133985669.350 0                        45.000  
                  25496620.215   102664363.593          49.000  
  25686630.221                   134984192.545 0                        46.000  
                  25686631.096   103429468.289          50.000  
 22  1 17 13 59 42.0010000  0 10G02G06G12G13G15G17G19G24G25G32
  24411333.848                   128282850.25410                        32.000  
                                                                
  23458242.709    23458241.816   123273486.802 0  96057267.732 0        42.000  
        42.000                                                  
  20760033.232    20760028.926   109094816.051 0  85008977.799 0        50.000  
        47.000                                                  
  25186312.909                   132355641.736 0                        28.000  
                                                                
  23979380.095    23979379.273   126012486.723 0  98191540.641 0        43.000  
        41.000                                                  
  23818142.558    23818137.268   125164860.363 0  97531185.828 0        42.000  
        39.000                                                  
  21640652.546                   113722374.499 0                        47.000  
                                                                
  20038612.332    20038609.884   105303069.073 0  82054355.852 0        50.000  
        50.000                                                  
  23211099.808    23211099.326   121975179.77210  95045603.426 0        43.000  
        43.000                                                  
  24477365.338    24477365.481   128629428.532 0 100230741.632 0        43.000  
        41.000                                                  
 22  1 17 13 59 41.0000000  0  0
 22  1 17 13 59 42.0010000  0  7E02E03E07E08E11E25E30
  23295246.646                   122417414.720 0                        49.000  
                  23295245.055    93800386.157          53.000  
  27407153.385                   144025162.214 0                        41.000  
                  27407157.442   110356929.252          46.000  
  26247859.511                   137933459.018 0                        44.000  
                  26247861.084   105689293.960          49.000  
  23245741.161                   122157222.194 0                        47.000  
                  23245740.232    93600993.509          51.000  
  24696761.041                   129782722.225 0                        39.000  
                  24696758.057    99443915.494          42.000  
  25496974.897                   133987536.501 0                        44.000  
                  25496975.451   102665794.263          49.000  
  25686267.211                   134982285.031 0                        46.000  
                  25686268.033   103428006.691          50.000  
 22  1 17 13 59 43.0010000  0 10G02G06G12G13G15G17G19G24G25G32
  24410774.565                   128279912.79810                        32.000  
                                                                
  23457852.557    23457851.592   123271436.385 0  96055670.018 0        42.000  
        42.000                                                  
  20759736.910    20759732.514   109093258.549 0  85007764.163 0        50.000  
        47.000                                                  
  25187050.650                   132359522.106 0                        28.000  
                                                                
  23980068.660    23980067.730   126016105.036 0  98194360.106 0        43.000  
        41.000                                                  
  23818722.050    23818716.796   125167905.604 0  97533558.755 0        42.000  
        39.000                                                  
  21641029.582                   113724355.959 0                        47.000  
                                                                
  20038679.662    20038677.339   105303423.228 0  82054631.815 0        50.000  
        50.000                                                  
  23210522.639    23210522.156   121972146.86110  95043240.130 0        43.000  
        43.000                                                  
  24476841.775    24476841.847   128626677.284 0 100228597.805 0        43.000  
        41.000                                                  
 22  1 17 13 59 42.0000000  0  0
 22  1 17 13 59 43.0010000  0  7E02E03E07E08E11E25E30
  23295243.751                   122417399.808 0                        49.000  
                  23295242.232    93800374.731          53.000  
  27407750.121                   144028298.262 0                        41.000  
                  27407754.321   110359332.194          46.000  
  26247683.805                   137932535.377 0                        44.000  
                  26247685.252   105688586.239          49.000  
  23246071.541                   122158957.680 0                        47.000  
                  23246070.469    93602323.299          51.000  
  24696694.657                   129782372.800 0                        39.000  
                  24696691.512    99443647.757          42.000  
  25497330.187                   133989403.814 0                        44.000  
                  25497330.705   102667225.061          49.000  
  25685904.417                   134980377.707 0                        46.000  
                  25685904.971   103426545.231          50.000  
 22  1 17 13 59 44.0010000  0 10G02G06G12G13G15G17G19G24G25G32
  24410215.461                   128276975.47110                        32.000  
                                                                
  23457462.512    23457461.457   123269386.415 0  96054072.627 0        42.000  
        42.000                                                  
  20759440.642    20759436.085   109091701.416 0  85006550.817 0        50.000  
        47.000                                                  
  25187788.944                   132363402.383 0                        28.000  
                                                                
  23980757.278    23980756.242   126019723.407 0  98197179.607 0        43.000  
        41.000                                                  
  23819301.632    23819296.289   125170951.086 0  97535931.849 0        42.000  
        39.000                                                  
  21641406.833                   113726337.968 0                        47.000  
                                                                
  20038747.136    20038744.813   105303777.906 0  82054908.190 0        50.000  
        50.000                                                  
  23209945.630    23209945.130   121969114.11710  95040876.949 0        43.000  
        43.000                                                  
  24476318.427    24476318.392   128623926.429 0 100226454.275 0        43.000  
        41.000                                                  
 22  1 17 13 59 43.0000000  0  0
 22  1 17 13 59 44.0010000  0  7E02E03E07E08E11E25E30
  23295240.910                   122417385.065 0                        49.000  
                  23295239.498    93800363.437          53.000  
  27408347.036                   144031434.319 0                        41.000  
                  27408351.003   110361735.137          46.000  
  26247507.992                   137931612.167 0                        44.000  
                  26247509.600   105687878.847          49.000  
  23246401.868                   122160693.552 0                        47.000  
                  23246400.867    93603653.377          51.000  
  24696628.328                   129782023.838 0                        39.000  
                  24696625.165    99443380.378          42.000  
  25497685.477                   133991271.194 0                        44.000  
                  25497686.138   102668655.911          49.000  
  25685541.265                   134978470.468 0                        46.000  
                  25685542.086   103425083.851          50.000  
 22  1 17 13 59 45.0010000  0 10G02G06G12G13G15G17G19G24G25G32
  24409656.393                   128274037.92710                        32.000  
                                                                
  23457072.431    23457071.323   123267336.573 0  96052475.346 0        42.000  
        42.000                                                  
  20759144.320    20759139.799   109090144.374 0  85005337.547 0        50.000  
        47.000                                                  
  25188527.650                   132367282.340 0                        29.000  
                                                                
  23981445.879    23981444.717   126023341.541 0  98199998.930 0        43.000  
        41.000                                                  
  23819881.178    23819875.817   125173996.510 0  97538304.913 0        42.000  
        39.000                                                  
  21641784.137                   113728320.264 0                        47.000  
                                                                
  20038814.716    20038812.429   105304132.810 0  82055184.741 0        50.000  
        50.000                                                  
  23209368.514    23209367.925   121966081.24110  95038513.690 0        43.000  
        43.000                                                  
  24475794.937    24475794.847   128621175.654 0 100224310.818 0        43.000  
        41.000                                                  
 22  1 17 13 59 44.0000000  0  0
 22  1 17 13 59 45.0010000  0  7E02E03E07E08E11E25E30
  23295238.069                   122417370.214 0                        49.000  
                  23295236.532    93800352.055          53.000  
  27408943.754                   144034570.105 0                        41.000  
                  27408947.721   110364137.870          46.000  
  26247332.625                   137930689.125 0                        44.000  
                  26247333.965   105687171.583          49.000  
  23246732.320                   122162429.502 0                        47.000  
                  23246731.230    93604983.526          51.000  
  24696561.998                   129781675.106 0                        39.000  
                  24696558.764    99443113.162          42.000  
  25498040.749                   133993138.354 0                        44.000  
                  25498041.446   102670086.599          49.000  
  25685178.452                   134976563.050 0                        46.000  
                  25685179.184   103423622.323          50.000  
 22  1 17 13 59 46.0010000  0 10G02G06G12G13G15G17G19G24G25G32
  24409097.611                   128271100.97510                        33.000  
                                                                
  23456682.654    23456681.546   123265287.712 0  96050878.831 0        42.000  
        42.000                                                  
  20758848.230    20758843.798   109088588.242 0  85004124.976 0        50.000  
        47.000                                                  
  25189266.694                   132371162.761 0                        29.000  
                                                                
  23982134.479    23982133.354   126026960.273 0  98202818.715 0        43.000  
        41.000                                                  
  23820460.849    23820455.542   125177042.693 0  97540678.560 0        42.000  
        39.000                                                  
  21642161.549                   113730303.658 0                        47.000  
                                                                
  20038882.404    20038880.135   105304488.800 0  82055462.135 0        50.000  
        50.000                                                  
  23208791.452    23208790.845   121963049.09610  95036150.970 0        43.000  
        43.000                                                  
  24475271.660    24475271.446   128618425.803 0 100222168.093 0        43.000  
        42.000                                                  
 22  1 17 13 59 45.0000000  0  0
 22  1 17 13 59 46.0010000  0  7E02E03E07E08E11E25E30
  23295235.388                   122417356.081 0                        49.000  
                  23295233.923    93800341.228          53.000  
  27409540.401                   144037706.418 0                        41.000  
                  27409544.547   110366541.018          46.000  
  26247157.098                   137929767.063 0                        44.000  
                  26247158.527   105686465.059          49.000  
  23247062.843                   122164166.375 0                        47.000  
                  23247061.682    93606314.375          51.000  
  24696495.865                   129781327.385 0                        40.000  
                  24696492.612    99442846.718          42.000  
  25498396.092                   133995006.137 0                        44.000  
                  25498396.771   102671517.750          49.000  
  25684815.568                   134974656.272 0                        46.000  
                  25684816.229   103422161.281          50.000  
 22  1 17 13 59 47.0010000  0 10G02G06G12G13G15G17G19G24G25G32
  24408538.900                   128268164.08810                        33.000  
                                                                
  23456292.805    23456291.787   123263239.274 0  96049282.645 0        42.000  
        42.000                                                  
  20758552.229    20758547.762   109087032.483 0  85002912.696 0        50.000  
        47.000                                                  
  25190005.293                   132375043.141 0                        28.000  
                                                                
  23982823.080    23982822.079   126030579.059 0  98205638.550 0        43.000  
        41.000                                                  
  23821040.484    23821035.284   125180089.117 0  97543052.395 0        42.000  
        39.000                                                  
  21642539.014                   113732287.609 0                        47.000  
                                                                
  20038950.199    20038948.073   105304845.306 0  82055739.930 0        50.000  
        50.000                                                  
  23208214.461    23208213.997   121960017.10110  95033788.379 0        43.000  
        43.000                                                  
  24474748.509    24474748.294   128615676.339 0 100220025.631 0        43.000  
        41.000                                                  
 22  1 17 13 59 46.0000000  0  0
 22  1 17 13 59 47.0010000  0  7E02E03E07E08E11E25E30
  23295232.726                   122417342.113 0                        49.000  
                  23295231.368    93800330.523          53.000  
  27410137.101                   144040842.730 0                        41.000  
                  27410141.247   110368944.164          46.000  
  26246981.713                   137928845.440 0                        44.000  
                  26246983.161   105685758.876          49.000  
  23247393.366                   122165903.628 0                        47.000  
                  23247392.276    93607645.510          51.000  
  24696429.910                   129780980.143 0                        40.000  
                  24696426.479    99442580.659          42.000  
  25498751.453                   133996873.981 0                        44.000  
                  25498752.365   102672948.953          49.000  
  25684452.594                   134972749.573 0                        46.000  
                  25684453.398   103420700.313          50.000  
 22  1 17 13 59 48.0010000  0 10G02G06G12G13G15G17G19G24G25G32
  24407980.047                   128265227.15710                        33.000  
                                                                
  23455903.100    23455902.046   123261191.152 0  96047686.717 0        42.000  
        42.000                                                  
  20758256.265    20758251.726   109085476.964 0  85001700.611 0        50.000  
        47.000                                                  
  25190743.712                   132378923.324 0                        29.000  
                                                                
  23983511.788    23983510.609   126034197.774 0  98208458.320 0        43.000  
        41.000                                                  
  23821620.263    23821615.009   125183135.632 0  97545426.305 0        42.000  
        39.000                                                  
  21642916.569                   113734272.000 0                        46.000  
                                                                
  20039018.173    20039016.029   105305202.211 0  82056018.036 0        50.000  
        50.000                                                  
  23207637.381    23207637.042   121956985.13210  95031425.810 0        43.000  
        43.000                                                  
  24474225.464    24474225.107   128612927.101 0 100217883.384 0        43.000  
        41.000                                                  
 22  1 17 13 59 47.0000000  0  0
 22  1 17 13 59 48.0010000  0  7E02E03E07E08E11E25E30
  23295230.063                   122417328.192 0                        49.000  
                  23295228.616    93800319.861          53.000  
  27410734.159                   144043978.945 0                        41.000  
                  27410738.162   110371347.224          46.000  
  26246806.329                   137927924.126 0                        44.000  
                  26246807.758   105685052.939          49.000  
  23247724.051                   122167641.120 0                        47.000  
                  23247722.907    93608976.838          51.000  
  24696363.812                   129780633.241 0                        40.000  
                  24696360.453    99442314.855          42.000  
  25499107.047                   133998741.766 0                        44.000  
                  25499107.798   102674380.115          49.000  
  25684089.817                   134970842.859 0                        46.000  
                  25684090.657   103419239.324          50.000  
 22  1 17 13 59 49.0010000  0 10G02G06G12G13G15G17G19G24G25G32
  24407421.086                   128262290.10310                        33.000  
                                                                
  23455513.430    23455512.394   123259143.230 0  96046090.922 0        42.000  
        42.000                                                  
  20757960.264    20757955.744   109083921.565 0  85000488.609 0        50.000  
        47.000                                                  
  25191481.756                   132382803.119 0                        29.000  
                                                                
  23984200.478    23984199.299   126037816.298 0  98211277.929 0        43.000  
        41.000                                                  
  23822199.969    23822194.752   125186182.144 0  97547800.208 0        42.000  
        39.000                                                  
  21643294.230                   113736256.688 0                        46.000  
                                                                
  20039086.183    20039084.038   105305559.389 0  82056296.359 0        50.000  
        50.000                                                  
  23207060.337    23207060.123   121953953.09010  95029063.196 0        43.000  
        43.000                                                  
  24473702.385    24473702.063   128610178.013 0 100215741.242 0        43.000  
        41.000                                                  
 22  1 17 13 59 48.0000000  0  0
 22  1 17 13 59 49.0010000  0  7E02E03E07E08E11E25E30
  23295227.508                   122417314.186 0                        49.000  
                  23295225.918    93800309.136          53.000  
  27411330.895                   144047114.884 0                        41.000  
                  27411334.951   110373750.094          46.000  
  26246631.355                   137927003.009 0                        44.000  
                  26246632.481   105684347.145          49.000  
  23248054.717                   122169378.742 0                        47.000  
                  23248053.591    93610308.265          51.000  
  24696298.054                   129780286.586 0                        40.000  
                  24696294.463    99442049.248          42.000  
  25499462.283                   134000609.372 0                        44.000  
                  25499463.177   102675811.143          49.000  
  25683726.951                   134968935.975 0                        46.000  
                  25683727.773   103417778.219          50.000  
 22  1 17 13 59 50.0010000  0 10G02G06G12G13G15G17G19G24G25G32
  24406862.232                   128259352.89910                        34.000  
                                                                
  23455123.796    23455122.760   123257095.489 0  96044495.283 0        42.000  
        42.000                                                  
  20757664.264    20757659.779   109082366.322 0  84999276.727 0        50.000  
        47.000                                                  
  25192220.033                   132386682.701 0                        29.000  
                                                                
  23984889.025    23984887.810   126041434.652 0  98214097.430 0        43.000  
        41.000                                                  
  23822779.676    23822774.566   125189228.644 0  97550174.104 0        42.000  
        39.000                                                  
  21643671.892                   113738241.710 0                        47.000  
                                                                
  20039154.103    20039152.030   105305916.861 0  82056574.908 0        50.000  
        50.000                                                  
  23206483.328    23206483.150   121950920.99510  95026700.503 0        43.000  
        43.000                                                  
  24473179.269    24473179.037   128607429.087 0 100213599.207 0        43.000  
        41.000                                                  
 22  1 17 13 59 49.0000000  0  0
 22  1 17 13 59 50.0010000  0  7E02E03E07E08E11E25E30
  23295224.720                   122417300.154 0                        49.000  
                  23295223.237    93800298.370          53.000  
  27411927.738                   144050250.627 0                        41.000  
                  27411931.652   110376152.792          46.000  
  26246456.132                   137926082.105 0                        44.000  
                  26246457.222   105683641.511          49.000  
  23248385.419                   122171116.528 0                        47.000  
                  23248384.275    93611639.811          51.000  
  24696232.046                   129779940.198 0                        40.000  
                  24696228.473    99441783.820          42.000  
  25499817.573                   134002476.829 0                        44.000  
                  25499818.520   102677242.044          49.000  
  25683364.067                   134967028.971 0                        46.000  
                  25683364.782   103416317.011          50.000  
 22  1 17 13 59 51.0010000  0 10G02G06G12G13G15G17G19G24G25G32
  24406303.557                   128256416.35910                        34.000  
                                                                
  23454734.287    23454733.322   123255048.835 0  96042900.487 0        42.000  
        42.000                                                  
  20757368.585    20757363.904   109080812.086 0  84998065.643 0        50.000  
        47.000                                                  
  25192958.435                   132390562.825 0                        29.000  
                                                                
  23985577.715    23985576.554   126045053.683 0  98216917.459 0        43.000  
        41.000                                                  
  23823359.562    23823354.487   125192276.013 0  97552548.669 0        42.000  
        39.000                                                  
  21644049.858                   113740227.924 0                        47.000  
                                                                
  20039222.363    20039220.200   105306275.489 0  82056854.358 0        50.000  
        50.000                                                  
  23205906.498    23205906.248   121947889.66810  95024338.440 0        43.000  
        43.000                                                  
  24472656.296    24472655.992   128604681.163 0 100211457.970 0        43.000  
        41.000                                                  
 22  1 17 13 59 50.0000000  0  0
 22  1 17 13 59 51.0010000  0  7E02E03E07E08E11E25E30
  23295222.254                   122417286.916 0                        49.000  
                  23295220.843    93800288.230          53.000  
  27412524.492                   144053387.007 0                        41.000  
                  27412528.441   110378555.985          46.000  
  26246281.122                   137925162.285 0                        44.000  
                  26246282.212   105682936.714          49.000  
  23248716.335                   122172855.312 0                        47.000  
                  23248715.174    93612972.126          51.000  
  24696166.538                   129779594.946 0                        40.000  
                  24696162.875    99441519.267          42.000  
  25500173.077                   134004344.992 0                        44.000  
                  25500174.149   102678673.490          49.000  
  25683001.219                   134965122.710 0                        46.000  
                  25683002.112   103414856.362          50.000  
 22  1 17 13 59 52.0010000  0 10G02G06G12G13G15G17G19G24G25G32
  24405744.971                   128253480.24610                        34.000  
                                                                
  23454344.903    23454343.974   123253002.917 0  96041306.265 0        42.000  
        42.000                                                  
  20757072.925    20757068.368   109079258.509 0  84996855.069 0        50.000  
        47.000                                                  
  25193696.765                   132394443.164 0                        29.000  
                                                                
  23986266.441    23986265.261   126048673.079 0  98219737.761 0        43.000  
        41.000                                                  
  23823939.572    23823934.444   125195323.908 0  97554923.656 0        42.000  
        39.000                                                  
  21644428.074                   113742215.009 0                        46.000  
                                                                
  20039290.783    20039288.621   105306634.956 0  82057134.464 0        50.000  
        50.000                                                  
  23205329.794    23205329.526   121944858.83510  95021976.772 0        43.000  
        43.000                                                  
  24472133.735    24472133.163   128601933.930 0 100209317.278 0        43.000  
        41.000                                                  
 22  1 17 13 59 51.0000000  0  0
 22  1 17 13 59 52.0010000  0  7E02E03E07E08E11E25E30
  23295219.771                   122417274.143 0                        49.000  
                  23295218.323    93800278.449          53.000  
  27413121.443                   144056523.691 0                        41.000  
                  27413125.320   110380959.415          46.000  
  26246106.042                   137924243.207 0                        44.000  
                  26246107.382   105682232.478          49.000  
  23249047.305                   122174594.771 0                        47.000  
                  23249046.126    93614304.958          51.000  
  24696101.174                   129779250.459 0                        40.000  
                  24696097.367    99441255.323          42.000  
  25500528.849                   134006213.523 0                        44.000  
                  25500529.671   102680105.226          49.000  
  25682638.495                   134963216.829 0                        46.000  
                  25682639.353   103413396.023          50.000  
 22  1 17 13 59 53.0010000  0 10G02G06G12G13G15G17G19G24G25G32
  24405186.243                   128250543.77310                        34.000  
                                                                
  23453955.662    23453954.751   123250957.013 0  96039712.071 0        42.000  
        42.000                                                  
  20756777.317    20756772.689   109077704.907 0  84995644.474 0        50.000  
        47.000                                                  
  25194435.238                   132398323.077 0                        29.000  
                                                                
  23986955.095    23986953.969   126052292.125 0  98222557.788 0        43.000  
        41.000                                                  
  23824519.583    23824514.401   125198371.623 0  97557298.505 0        42.000  
        39.000                                                  
  21644806.343                   113744202.224 0                        46.000  
                                                                
  20039359.203    20039357.059   105306994.537 0  82057414.658 0        50.000  
        50.000                                                  
  23204752.981    23204752.803   121941827.74010  95019614.874 0        43.000  
        43.000                                                  
  24471611.048    24471610.315   128599186.670 0 100207176.554 0        43.000  
        41.000                                                  
 22  1 17 13 59 52.0000000  0  0
 22  1 17 13 59 53.0010000  0  7E02E03E07E08E11E25E30
  23295217.323                   122417261.146 0                        49.000  
                  23295215.750    93800268.488          53.000  
  27413718.286                   144059659.971 0                        41.000  
                  27413722.163   110383362.534          46.000  
  26245931.104                   137923324.155 0                        44.000  
                  26245932.480   105681528.274          49.000  
  23249378.204                   122176334.207 0                        47.000  
                  23249377.150    93615637.776          51.000  
  24696035.541                   129778906.060 0                        40.000  
                  24696031.735    99440991.424          42.000  
  25500884.300                   134008081.716 0                        44.000  
                  25500885.086   102681536.694          49.000  
  25682275.969                   134961310.638 0                        46.000  
                  25682276.630   103411935.442          50.000  
 22  1 17 13 59 54.0010000  0 10G02G06G12G13G15G17G19G24G25G32
  24404627.514                   128247607.00910                        35.000  
                                                                
  23453566.439    23453565.439   123248911.192 0  96038117.906 0        42.000  
        42.000                                                  
  20756481.674    20756477.153   109076151.304 0  84994433.867 0        50.000  
        47.000                                                  
  25195173.640                   132402202.588 0                        29.000  
                                                                
  23987643.732    23987642.677   126055910.849 0  98225377.575 0        43.000  
        41.000                                                  
  23825099.504    23825094.322   125201419.206 0  97559673.230 0        42.000  
        39.000                                                  
  21645184.523                   113746189.649 0                        46.000  
                                                                
  20039427.624    20039425.641   105307354.277 0  82057694.970 0        50.000  
        51.000                                                  
  23204176.241    23204175.812   121938796.46110  95017252.842 0        43.000  
        43.000                                                  
  24471088.450    24471087.575   128596439.407 0 100205035.829 0        43.000  
        41.000                                                  
 22  1 17 13 59 53.0000000  0  0
 22  1 17 13 59 54.0010000  0  7E02E03E07E08E11E25E30
  23295214.821                   122417247.959 0                        49.000  
                  23295213.266    93800258.383          53.000  
  27414315.111                   144062795.893 0                        41.000  
                  27414318.846   110385765.369          46.000  
  26245756.291                   137922405.186 0                        44.000  
                  26245757.632   105680824.122          49.000  
  23249709.192                   122178073.648 0                        47.000  
                  23249708.137    93616970.593          51.000  
  24695969.979                   129778561.735 0                        40.000  
                  24695966.298    99440727.609          42.000  
  25501239.751                   134009949.613 0                        44.000  
                  25501240.537   102682967.944          49.000  
  25681913.031                   134959404.194 0                        46.000  
                  25681913.835   103410474.656          50.000  
 22  1 17 13 59 55.0010000  0 10G02G06G12G13G15G17G19G24G25G32
  24404068.911                   128244670.51910                        35.000  
                                                                
  23453177.198    23453176.376   123246865.935 0  96036524.201 0        42.000  
        42.000                                                  
  20756186.121    20756181.600   109074598.206 0  84993223.668 0        50.000  
        47.000                                                  
  25195911.952                   132406082.096 0                        29.000  
                                                                
  23988332.332    23988331.260   126059529.787 0  98228197.524 0        43.000  
        42.000                                                  
  23825679.586    23825674.333   125204467.144 0  97562048.260 0        42.000  
        39.000                                                  
  21645562.846                   113748177.753 0                        47.000  
                                                                
  20039496.187    20039494.258   105307714.683 0  82057975.810 0        50.000  
        51.000                                                  
  23203599.536    23203599.054   121935765.46110  95014891.017 0        43.000  
        43.000                                                  
  24470565.835    24470564.870   128593692.675 0 100202895.512 0        43.000  
        41.000                                                  
 22  1 17 13 59 54.0000000  0  0
 22  1 17 13 59 55.0010000  0  7E02E03E07E08E11E25E30
  23295212.373                   122417235.082 0                        49.000  
                  23295210.908    93800248.519          53.000  
  27414911.776                   144065931.967 0                        41.000  
                  27414915.671   110388168.324          46.000  
  26245581.443                   137921486.789 0                        44.000  
                  26245582.837   105680120.426          49.000  
  23250040.251                   122179813.608 0                        47.000  
                  23250039.250    93618303.812          51.000  
  24695904.596                   129778218.070 0                        40.000  
                  24695900.826    99440464.270          42.000  
  25501595.112                   134011817.727 0                        44.000  
                  25501595.934   102684399.354          49.000  
  25681550.290                   134957497.983 0                        46.000  
                  25681551.094   103409014.054          50.000  
 22  1 17 13 59 56.0010000  0 10G02G06G12G13G15G17G19G24G25G32
  24403510.593                   128241734.24810                        35.000  
                                                                
  23452788.047    23452787.314   123244821.322 0  96034931.008 0        42.000  
        42.000                                                  
  20755890.639    20755886.225   109073045.695 0  84992013.928 0        50.000  
        47.000                                                  
  25196650.103                   132409961.774 0                        29.000  
                                                                
  23989021.040    23989020.039   126063148.965 0  98231017.672 0        43.000  
        41.000                                                  
  23826259.651    23826254.361   125207515.523 0  97564423.615 0        42.000  
        39.000                                                  
  21645941.294                   113750166.637 0                        47.000  
                                                                
  20039564.912    20039563.000   105308075.823 0  82058257.220 0        50.000  
        51.000                                                  
  23203022.760    23203022.295   121932734.85010  95012529.518 0        44.000  
        43.000                                                  
  24470043.345    24470042.219   128590946.539 0 100200755.680 0        43.000  
        41.000                                                  
 22  1 17 13 59 55.0000000  0  0
 22  1 17 13 59 56.0010000  0  7E02E03E07E08E11E25E30
  23295210.050                   122417222.587 0                        49.000  
                  23295208.460    93800238.950          53.000  
  27415508.512                   144069068.235 0                        41.000  
                  27415512.461   110390571.443          46.000  
  26245406.791                   137920569.055 0                        44.000  
                  26245408.239   105679417.221          49.000  
  23250371.543                   122181554.165 0                        47.000  
                  23250370.381    93619637.480          51.000  
  24695839.267                   129777875.092 0                        40.000  
                  24695835.551    99440201.482          42.000  
  25501950.723                   134013686.114 0                        44.000  
                  25501951.653   102685830.981          49.000  
  25681187.584                   134955592.070 0                        46.000  
                  25681188.442   103407553.686          50.000  
 22  1 17 13 59 57.0010000  0 10G02G06G12G13G15G17G19G24G25G32
  24402952.007                   128238798.15310                        35.000  
                                                                
  23452399.074    23452398.341   123242777.186 0  96033338.172 0        42.000  
        42.000                                                  
  20755595.246    20755590.814   109071493.595 0  84990804.502 0        50.000  
        47.000                                                  
  25197388.523                   132413841.417 0                        29.000  
                                                                
  23989709.837    23989708.783   126066768.267 0  98233837.894 0        43.000  
        42.000                                                  
  23826839.858    23826834.426   125210564.174 0  97566799.179 0        42.000  
        39.000                                                  
  21646319.956                   113752156.117 0                        47.000  
                                                                
  20039633.690    20039631.742   105308437.529 0  82058539.067 0        50.000  
        51.000                                                  
  23202446.091    23202445.662   121929704.45110  95010168.164 0        44.000  
        43.000                                                  
  24469520.855    24469519.604   128588200.817 0 100198616.149 0        43.000  
        41.000                                                  
 22  1 17 13 59 56.0000000  0  0
 22  1 17 13 59 57.0010000  0  7E02E03E07E08E11E25E30
  23295207.673                   122417210.313 0                        49.000  
                  23295206.190    93800229.540          53.000  
  27416105.444                   144072204.559 0                        41.000  
                  27416109.268   110392974.591          46.000  
  26245232.372                   137919651.793 0                        44.000  
                  26245233.587   105678714.391          49.000  
  23250702.852                   122183295.132 0                        47.000  
                  23250701.691    93620971.470          51.000  
  24695773.920                   129777532.656 0                        40.000  
                  24695770.418    99439939.096          42.000  
  25502306.281                   134015554.618 0                        44.000  
                  25502307.067   102687262.683          49.000  
  25680825.075                   134953686.287 0                        46.000  
                  25680825.808   103406093.418          50.000  
 22  1 17 13 59 58.0010000  0 10G02G06G12G13G15G17G19G24G25G32
  24402393.225                   128235862.15310                        35.000  
                                                                
  23452010.101    23452009.511   123240733.530 0  96031745.693 0        42.000  
        42.000                                                  
  20755300.049    20755295.636   109069941.912 0  84989595.396 0        50.000  
        47.000                                                  
  25198126.889                   132417721.066 0                        29.000  
                                                                
  23990398.581    23990397.562   126070387.648 0  98236658.186 0        43.000  
        42.000                                                  
  23827420.047    23827414.615   125213613.080 0  97569174.941 0        42.000  
        39.000                                                  
  21646698.583                   113754146.189 0                        47.000  
                                                                
  20039702.700    20039700.645   105308799.798 0  82058821.352 0        50.000  
        51.000                                                  
  23201869.475    23201869.011   121926674.25210  95007806.970 0        44.000  
        43.000                                                  
  24468998.400    24468997.167   128585455.505 0 100196476.950 0        43.000  
        41.000                                                  
 22  1 17 13 59 57.0000000  0  0
 22  1 17 13 59 58.0010000  0  7E02E03E07E08E11E25E30
  23295205.475                   122417198.240 0                        49.000  
                  23295203.849    93800220.290          53.000  
  27416702.216                   144075340.921 0                        42.000  
                  27416706.111   110395377.775          46.000  
  26245057.934                   137918735.021 0                        44.000  
                  26245059.203   105678011.916          49.000  
  23251034.144                   122185036.513 0                        47.000  
                  23251033.072    93622305.775          51.000  
  24695708.895                   129777190.743 0                        40.000  
                  24695705.285    99439677.088          42.000  
  25502661.839                   134017423.222 0                        44.000  
                  25502662.625   102688694.471          49.000  
  25680462.441                   134951780.653 0                        46.000  
                  25680463.103   103404633.252          50.000  
 22  1 17 13 59 59.0010000  0 10G02G06G12G13G15G17G19G24G25G32
  24401834.389                   128232926.18410                        35.000  
                                                                
  23451621.307    23451620.663   123238690.241 0  96030153.524 0        42.000  
        42.000                                                  
  20755004.710    20755000.422   109068390.545 0  84988386.539 0        49.000  
        47.000                                                  
  25198864.987                   132421600.595 0                        29.000  
                                                                
  23991087.396    23991086.377   126074007.038 0  98239478.476 0        43.000  
        42.000                                                  
  23828000.183    23827994.751   125216662.157 0  97571550.856 0        42.000  
        39.000                                                  
  21647077.442                   113756136.763 0                        46.000  
                                                                
  20039771.746    20039769.726   105309162.534 0  82059104.008 0        50.000  
        51.000                                                  
  23201292.860    23201292.377   121923644.15810  95005445.867 0        44.000  
        43.000                                                  
  24468476.071    24468474.748   128582710.523 0 100194338.016 0        43.000  
        40.000                                                  
 22  1 17 13 59 58.0000000  0  0
 22  1 17 13 59 59.0010000  0  7E02E03E07E08E11E25E30
  23295203.009                   122417186.297 0                        49.000  
                  23295201.598    93800211.136          53.000  
  27417299.149                   144078477.245 0                        41.000  
                  27417303.008   110397780.917          46.000  
  26244883.676                   137917818.634 0                        44.000  
                  26244884.837   105677309.751          49.000  
  23251365.525                   122186778.214 0                        47.000  
                  23251364.578    93623640.325          51.000  
  24695643.870                   129776849.250 0                        40.000  
                  24695640.403    99439415.435          42.000  
  25503017.504                   134019291.846 0                        44.000  
                  25503018.344   102690126.269          49.000  
  25680099.772                   134949875.054 0                        46.000  
                  25680100.504   103403173.120          50.000  
 22  1 17 14  0  0.0010000  0 10G02G06G12G13G15G17G19G24G25G32
  24401275.714                   128229990.39210                        36.000  
                                                                
  23451232.638    23451231.941   123236647.513 0  96028561.781 0        42.000  
        42.000                                                  
  20754709.532    20754705.279   109066839.651 0  84987178.052 0        50.000  
        47.000                                                  
  25199603.245                   132425480.161 0                        29.000  
                                                                
  23991776.157    23991775.210   126077626.580 0  98242298.908 0        43.000  
        42.000                                                  
  23828580.444    23828575.029   125219711.580 0  97573927.030 0        42.000  
        39.000                                                  
  21647456.283                   113758128.004 0                        47.000  
                                                                
  20039840.934    20039838.933   105309525.898 0  82059387.151 0        50.000  
        51.000                                                  
  23200716.262    23200715.797   121920614.34010  95003084.963 0        44.000  
        43.000                                                  
  24467953.848    24467952.437   128579966.047 0 100192199.439 0        43.000  
        40.000                                                  
 22  1 17 13 59 59.0000000  0  0
 22  1 17 14  0  0.0010000  0  7E02E03E07E08E11E25E30
  23295200.812                   122417174.618 0                        49.000  
                  23295199.346    93800202.192          53.000  
  27417896.224                   144081613.668 0                        42.000  
                  27417899.744   110400184.155          46.000  
  26244709.238                   137916902.787 0                        44.000  
                  26244710.471   105676607.996          49.000  
  23251697.264                   122188520.393 0                        47.000  
                  23251696.031    93624975.244          51.000  
  24695579.112                   129776508.340 0                        40.000  
                  24695575.485    99439154.217          42.000  
  25503373.312                   134021160.655 0                        44.000  
                  25503373.848   102691558.212          49.000  
  25679737.352                   134947969.658 0                        46.000  
                  25679738.013   103401713.155          50.000  
 22  1 17 14  0  1.0010000  0 10G02G06G12G13G15G17G19G24G25G32
  24400717.182                   128227054.91010                        36.000  
                                                                
  23450844.094    23450843.432   123234605.416 0  96026970.555 0        42.000  
        42.000                                                  
  20754414.443    20754410.279   109065289.361 0  84985970.036 0        49.000  
        47.000                                                  
  25200341.611                   132429359.881 0                        29.000  
                                                                
  23992464.990    23992464.115   126081246.410 0  98245119.550 0        43.000  
        42.000                                                  
  23829160.812    23829155.272   125222761.432 0  97576303.538 0        42.000  
        39.000                                                  
  21647835.357                   113760120.007 0                        46.000  
                                                                
  20039910.213    20039908.319   105309890.010 0  82059670.873 0        50.000  
        51.000                                                  
  23200139.789    23200139.343   121917584.89510  95000724.372 0        43.000  
        43.000                                                  
  24467431.680    24467430.250   128577222.147 0 100190061.335 0        43.000  
        40.000                                                  
 22  1 17 14  0  0.0000000  0  0
 22  1 17 14  0  1.0010000  0  7E02E03E07E08E11E25E30
  23295198.739                   122417163.347 0                        49.000  
                  23295197.202    93800193.553          53.000  
  27418493.032                   144084750.306 0                        42.000  
                  27418496.731   110402587.551          46.000  
  26244535.087                   137915987.600 0                        44.000  
                  26244536.391   105675906.756          49.000  
  23252028.859                   122190263.171 0                        47.000  
                  23252027.697    93626310.619          51.000  
  24695514.355                   129776168.138 0                        40.000  
                  24695510.888    99438893.554          42.000  
  25503728.745                   134023029.747 0                        44.000  
                  25503729.567   102692990.377          49.000  
  25679374.700                   134946064.570 0                        46.000  
                  25679375.415   103400253.412          50.000  
 22  1 17 14  0  2.0010000  0 10G02G06G12G13G15G17G19G24G25G32
  24400158.507                   128224119.23210                        35.000  
                                                                
  23450455.621    23450454.978   123232563.489 0  96025379.438 0        42.000  
        42.000                                                  
  20754119.407    20754115.190   109063739.148 0  84984762.082 0        49.000  
        47.000                                                  
  25201079.566                   132433239.245 0                        29.000  
                                                                
  23993153.859    23993152.894   126084865.996 0  98247939.995 0        43.000  
        41.000                                                  
  23829741.126    23829735.622   125225811.239 0  97578680.011 0        41.000  
        39.000                                                  
  21648214.466                   113762112.283 0                        46.000  
                                                                
  20039979.527    20039977.579   105310254.366 0  82059954.786 0        50.000  
        50.000                                                  
  23199563.335    23199562.727   121914555.33510  94998363.674 0        43.000  
        43.000                                                  
  24466909.511    24466908.100   128574478.338 0 100187923.315 0        43.000  
        40.000                                                  
 22  1 17 14  0  1.0000000  0  0
 22  1 17 14  0  2.0010000  0  7E02E03E07E08E11E25E30
  23295196.469                   122417151.958 0                        49.000  
                  23295195.165    93800184.834          53.000  
  27419089.839                   144087886.689 0                        42.000  
                  27419093.538   110404990.735          46.000  
  26244360.846                   137915072.577 0                        44.000  
                  26244362.240   105675205.637          49.000  
  23252360.294                   122192006.048 0                        47.000  
                  23252359.311    93627646.068          51.000  
  24695449.580                   129775828.135 0                        40.000  
                  24695446.185    99438633.021          42.000  
  25504084.231                   134024898.618 0                        44.000  
                  25504085.232   102694422.372          49.000  
  25679012.174                   134944159.309 0                        46.000  
                  25679012.888   103398793.533          49.000  
 22  1 17 14  0  3.0010000  0 10G02G06G12G13G15G17G19G24G25G32
  24399599.814                   128221183.29310                        36.000  
                                                                
  23450067.131    23450066.327   123230521.638 0  96023788.390 0        42.000  
        42.000                                                  
  20753824.426    20753820.208   109062188.970 0  84983554.154 0        49.000  
        47.000                                                  
  25201817.485                   132437118.187 0                        29.000  
                                                                
  23993842.674    23993841.549   126088485.298 0  98250760.228 0        43.000  
        42.000                                                  
  23830321.476    23830316.026   125228860.912 0  97581056.363 0        41.000  
        39.000                                                  
  21648593.682                   113764104.789 0                        46.000  
                                                                
  20040049.019    20040047.018   105310618.901 0  82060238.833 0        50.000  
        50.000                                                  
  23198986.719    23198986.255   121911525.58710  94996002.843 0        43.000  
        43.000                                                  
  24466387.432    24466385.949   128571734.585 0 100185785.314 0        43.000  
        40.000                                                  
 22  1 17 14  0  2.0000000  0  0
 22  1 17 14  0  3.0010000  0  7E02E03E07E08E11E25E30
  23295194.146                   122417140.399 0                        49.000  
                  23295192.860    93800175.970          53.000  
  27419686.593                   144091022.716 0                        42.000  
                  27419690.238   110407393.660          46.000  
  26244186.819                   137914157.654 0                        44.000  
                  26244188.160   105674504.585          49.000  
  23252691.978                   122193748.931 0                        47.000  
                  23252691.014    93628981.526          51.000  
  24695384.965                   129775488.261 0                        40.000  
                  24695381.463    99438372.607          42.000  
  25504439.700                   134026767.216 0                        44.000  
                  25504440.825   102695854.145          49.000  
  25678649.379                   134942253.793 0                        46.000  
                  25678650.272   103397333.468          49.000  
 22  1 17 14  0  4.0010000  0 10G02G06G12G13G15G17G19G24G25G32
  24399041.282                   128218247.69410                        36.000  
                                                                
  23449678.640    23449677.979   123228480.503 0  96022197.868 0        42.000  
        42.000                                                  
  20753529.569    20753525.280   109060639.417 0  84982346.714 0        49.000  
        47.000                                                  
  25202555.780                   132440997.348 0                        29.000  
                                                                
  23994531.525    23994530.221   126092104.923 0  98253580.717 0        43.000  
        42.000                                                  
  23830901.951    23830896.448   125231911.092 0  97583433.129 0        42.000  
        39.000                                                  
  21648973.042                   113766098.110 0                        46.000  
                                                                
  20040118.583    20040116.582   105310984.225 0  82060523.501 0        50.000  
        51.000                                                  
  23198410.300    23198409.818   121908496.27710  94993642.332 0        44.000  
        43.000                                                  
  24465865.442    24465863.977   128568991.471 0 100183647.830 0        43.000  
        40.000                                                  
 22  1 17 14  0  3.0000000  0  0
 22  1 17 14  0  4.0010000  0  7E02E03E07E08E11E25E30
  23295192.163                   122417129.266 0                        49.000  
                  23295190.698    93800167.442          53.000  
  27420283.490                   144094159.013 0                        42.000  
                  27420287.189   110409796.795          46.000  
  26244012.739                   137913243.424 0                        44.000  
                  26244014.240   105673804.075          49.000  
  23253023.806                   122195492.481 0                        47.000  
                  23253022.806    93630317.491          51.000  
  24695320.494                   129775149.136 0                        40.000  
                  24695317.045    99438112.762          42.000  
  25504795.722                   134028636.151 0                        44.000  
                  25504796.383   102697286.187          49.000  
  25678286.942                   134940348.629 0                        46.000  
                  25678287.621   103395873.669          50.000  
 22  1 17 14  0  5.0010000  0 10G02G06G12G13G15G17G19G24G25G32
  24398482.715                   128215312.56810                        36.000  
                                                                
  23449290.436    23449289.775   123226440.210 0  96020608.039 0        42.000  
        42.000                                                  
  20753234.801    20753230.620   109059090.668 0  84981139.899 0        49.000  
        47.000                                                  
  25203293.967                   132444876.862 0                        29.000  
                                                                
  23995220.430    23995219.125   126095725.034 0  98256401.561 0        43.000  
        41.000                                                  
  23831482.462    23831476.959   125234961.920 0  97585810.389 0        42.000  
        39.000                                                  
  21649352.455                   113768092.405 0                        47.000  
                                                                
  20040188.255    20040186.164   105311350.494 0  82060808.912 0        50.000  
        51.000                                                  
  23197833.881    23197833.453   121905467.55410  94991282.302 0        44.000  
        43.000                                                  
  24465343.559    24465342.112   128566249.159 0 100181510.965 0        43.000  
        40.000                                                  
 22  1 17 14  0  4.0000000  0  0
 22  1 17 14  0  5.0010000  0  7E02E03E07E08E11E25E30
  23295190.287                   122417118.743 0                        49.000  
                  23295188.714    93800159.383          53.000  
  27420880.280                   144097295.742 0                        42.000  
                  27420884.068   110412200.249          46.000  
  26243838.820                   137912330.080 0                        44.000  
                  26243840.357   105673104.236          49.000  
  23253355.670                   122197236.828 0                        47.000  
                  23253354.794    93631654.064          51.000  
  24695256.147                   129774810.952 0                        40.000  
                  24695252.609    99437853.621          42.000  
  25505151.476                   134030505.580 0                        44.000  
                  25505152.120   102698718.611          49.000  
  25677924.576                   134938443.996 0                        46.000  
                  25677925.183   103394414.275          50.000  
 22  1 17 14  0  6.0010000  0 10G02G06G12G13G15G17G19G24G25G32
  24397924.093                   128212377.63010                        35.000  
                                                                
  23448902.303    23448901.624   123224400.431 0  96019018.596 0        42.000  
        42.000                                                  
  20752940.213    20752935.978   109057542.353 0  84979933.418 0        49.000  
        47.000                                                  
  25204031.993                   132448756.406 0                        29.000  
                                                                
  23995909.334    23995908.065   126099345.260 0  98259222.518 0        43.000  
        42.000                                                  
  23832063.045    23832057.595   125238013.025 0  97588187.905 0        42.000  
        39.000                                                  
  21649732.100                   113770087.331 0                        47.000  
                                                                
  20040258.105    20040255.943   105311717.362 0  82061094.778 0        50.000  
        51.000                                                  
  23197257.695    23197257.212   121902439.07710  94988922.431 0        44.000  
        43.000                                                  
  24464821.695    24464820.390   128563507.281 0 100179374.455 0        43.000  
        40.000                                                  
 22  1 17 14  0  5.0000000  0  0
 22  1 17 14  0  6.0010000  0  7E02E03E07E08E11E25E30
  23295188.285                   122417108.452 0                        49.000  
                  23295186.784    93800151.502          53.000  
  27421477.230                   144100432.533 0                        42.000  
                  27421480.965   110414603.761          46.000  
  26243665.026                   137911417.226 0                        44.000  
                  26243666.688   105672404.778          49.000  
  23253687.765                   122198981.596 0                        47.000  
                  23253686.765    93632990.971          51.000  
  24695191.908                   129774473.306 0                        40.000  
                  24695188.299    99437594.918          42.000  
  25505507.338                   134032375.143 0                        44.000  
                  25505507.910   102700151.136          49.000  
  25677561.995                   134936539.524 0                        46.000  
                  25677562.799   103392955.014          50.000  
 22  1 17 14  0  7.0010000  0 10G02G06G12G13G15G17G19G24G25G32
  24397365.686                   128209442.54710                        36.000  
                                                                
  23448514.205    23448513.544   123222360.834 0  96017429.325 0        42.000  
        42.000                                                  
  20752645.642    20752641.371   109055994.191 0  84978727.060 0        49.000  
        47.000                                                  
  25204770.073                   132452635.623 0                        29.000  
                                                                
  23996598.274    23996596.934   126102965.322 0  98262043.341 0        43.000  
        42.000                                                  
  23832643.663    23832638.141   125241064.150 0  97590565.385 0        42.000  
        39.000                                                  
  21650111.674                   113772082.577 0                        47.000  
                                                                
  20040327.955    20040325.828   105312084.526 0  82061380.887 0        50.000  
        51.000                                                  
  23196681.365    23196680.793   121899410.52010  94986562.529 0        44.000  
        43.000                                                  
  24464300.008    24464298.579   128560765.585 0 100177238.064 0        43.000  
        40.000                                                  
 22  1 17 14  0  6.0000000  0  0
 22  1 17 14  0  7.0010000  0  7E02E03E07E08E11E25E30
  23295186.230                   122417098.126 0                        49.000  
                  23295184.765    93800143.585          53.000  
  27422074.127                   144103569.112 0                        42.000  
                  27422077.861   110417007.112          46.000  
  26243491.286                   137910504.601 0                        44.000  
                  26243492.947   105671705.494          49.000  
  23254019.647                   122200726.533 0                        47.000  
                  23254018.914    93634327.998          51.000  
  24695127.741                   129774135.918 0                        40.000  
                  24695124.078    99437336.396          42.000  
  25505862.896                   134034244.569 0                        44.000  
                  25505863.593   102701583.537          49.000  
  25677199.665                   134934634.920 0                        46.000  
                  25677200.326   103391495.646          50.000  
 22  1 17 14  0  8.0010000  0 10G02G06G12G13G15G17G19G24G25G32
  24396807.118                   128206507.30410                        35.000  
                                                                
  23448126.197    23448125.465   123220321.498 0  96015840.197 0        42.000  
        42.000                                                  
  20752351.053    20752346.836   109054446.166 0  84977520.812 0        49.000  
        47.000                                                  
  25205508.332                   132456514.503 0                        28.000  
                                                                
  23997287.143    23997285.767   126106585.199 0  98264864.029 0        43.000  
        41.000                                                  
  23833224.245    23833218.777   125244115.272 0  97592942.889 0        42.000  
        39.000                                                  
  21650491.408                   113774078.163 0                        47.000  
                                                                
  20040397.751    20040395.732   105312451.992 0  82061667.225 0        50.000  
        51.000                                                  
  23196105.018    23196104.392   121896381.90610  94984202.569 0        43.000  
        43.000                                                  
  24463778.304    24463776.857   128558024.035 0 100175101.789 0        43.000  
        40.000                                                  
 22  1 17 14  0  7.0000000  0  0
 22  1 17 14  0  8.0010000  0  7E02E03E07E08E11E25E30
  23295184.176                   122417087.732 0                        49.000  
                  23295182.871    93800135.626          53.000  
  27422670.881                   144106705.471 0                        42.000  
                  27422674.687   110419410.283          46.000  
  26243317.742                   137909592.201 0                        44.000  
                  26243319.368   105671006.374          49.000  
  23254351.850                   122202471.623 0                        47.000  
                  23254350.939    93635665.141          51.000  
  24695063.627                   129773798.770 0                        40.000  
                  24695059.892    99437078.078          42.000  
  25506218.668                   134036113.824 0                        44.000  
                  25506219.276   102703015.832          49.000  
  25676837.246                   134932730.193 0                        46.000  
                  25676837.925   103390036.183          50.000  
 22  1 17 14  0  9.0010000  0 10G02G06G12G13G15G17G19G24G25G32
  24396248.551                   128203572.03410                        36.000  
                                                                
  23447738.082    23447737.457   123218282.444 0  96014251.360 0        41.000  
        42.000                                                  
  20752056.464    20752052.372   109052898.415 0  84976314.774 0        49.000  
        47.000                                                  
  25206246.537                   132460393.307 0                        28.000  
                                                                
  23997975.976    23997974.600   126110205.044 0  98267684.694 0        44.000  
        41.000                                                  
  23833804.881    23833799.342   125247166.517 0  97595320.494 0        42.000  
        39.000                                                  
  21650871.232                   113776074.210 0                        47.000  
                                                                
  20040467.816    20040465.796   105312819.887 0  82061953.887 0        50.000  
        51.000                                                  
  23195528.724    23195528.134   121893353.36410  94981842.680 0        43.000  
        43.000                                                  
  24463256.583    24463255.278   128555282.779 0 100172965.743 0        43.000  
        40.000                                                  
 22  1 17 14  0  8.0000000  0  0
 22  1 17 14  0  9.0010000  0  7E02E03E07E08E11E25E30
  23295182.335                   122417077.429 0                        49.000  
                  23295180.834    93800127.725          53.000  
  27423267.813                   144109841.733 0                        42.000  
                  27423271.351   110421813.395          46.000  
  26243144.055                   137908680.122 0                        44.000  
                  26243145.877   105670307.517          49.000  
  23254684.035                   122204216.992 0                        47.000  
                  23254683.070    93637002.495          51.000  
  24694999.566                   129773462.030 0                        40.000  
                  24694995.742    99436820.041          42.000  
  25506574.405                   134037983.068 0                        44.000  
                  25506575.030   102704448.103          49.000  
  25676474.683                   134930825.466 0                        46.000  
                  25676475.487   103388576.716          50.000  
 22  1 17 14  0 10.0010000  0 10G02G06G12G13G15G17G19G24G25G32
  24395690.001                   128200637.18010                        36.000  
                                                                
  23447350.181    23447349.538   123216244.152 0  96012663.077 0        41.000  
        42.000                                                  
  20751762.054    20751757.980   109051351.330 0  84975109.260 0        49.000  
        47.000                                                  
  25206984.724                   132464272.337 0                        28.000  
                                                                
  23998664.862    23998663.469   126113825.235 0  98270505.615 0        44.000  
        41.000                                                  
  23834385.535    23834380.067   125250218.276 0  97597698.477 0        41.000  
        39.000                                                  
  21651251.163                   113778071.102 0                        47.000  
                                                                
  20040538.005    20040535.968   105313188.597 0  82062241.200 0        50.000  
        51.000                                                  
  23194952.412    23194951.930   121890325.27410  94979483.139 0        43.000  
        43.000                                                  
  24462735.022    24462733.771   128552542.168 0 100170830.219 0        42.000  
        40.000                                                  
 22  1 17 14  0  9.0000000  0  0
 22  1 17 14  0 10.0010000  0  7E02E03E07E08E11E25E30
  23295180.298                   122417067.584 0                        49.000  
                  23295179.029    93800120.185          53.000  
  27423864.728                   144112978.294 0                        42.000  
                  27423868.230   110424216.730          46.000  
  26242970.493                   137907768.794 0                        44.000  
                  26242972.387   105669609.231          49.000  
  23255015.952                   122205963.027 0                        47.000  
                  23255015.452    93638340.370          51.000  
  24694935.416                   129773126.051 0                        40.000  
                  24694931.860    99436562.613          42.000  
  25506930.212                   134039852.666 0                        44.000  
                  25506930.820   102705880.653          49.000  
  25676112.121                   134928921.132 0                        46.000  
                  25676113.157   103387117.556          50.000  
 22  1 17 14  0 11.0010000  0 10G02G06G12G13G15G17G19G24G25G32
  24395131.612                   128197702.66710                        35.000  
                                                                
  23446962.495    23446961.798   123214206.606 0  96011075.347 0        41.000  
        42.000                                                  
  20751467.805    20751463.695   109049804.911 0  84973904.256 0        49.000  
        47.000                                                  
  25207722.786                   132468151.593 0                        28.000  
                                                                
  23999353.803    23999352.427   126117445.783 0  98273326.817 0        44.000  
        41.000                                                  
  23834966.278    23834961.043   125253270.566 0  97600076.875 0        41.000  
        39.000                                                  
  21651631.363                   113780068.842 0                        47.000  
                                                                
  20040608.373    20040606.247   105313558.121 0  82062529.141 0        50.000  
        51.000                                                  
  23194376.297    23194375.743   121887297.64810  94977123.936 0        43.000  
        43.000                                                  
  24462213.514    24462212.371   128549802.248 0 100168695.222 0        42.000  
        40.000                                                  
 22  1 17 14  0 10.0000000  0  0
 22  1 17 14  0 11.0010000  0  7E02E03E07E08E11E25E30
  23295178.565                   122417058.203 0                        49.000  
                  23295177.260    93800112.997          53.000  
  27424461.589                   144116115.135 0                        42.000  
                  27424465.270   110426620.278          46.000  
  26242797.163                   137906858.205 0                        44.000  
                  26242799.093   105668911.496          49.000  
  23255348.387                   122207709.728 0                        47.000  
                  23255347.833    93639678.751          51.000  
  24694871.749                   129772790.858 0                        40.000  
                  24694868.157    99436305.770          42.000  
  25507286.146                   134041722.620 0                        44.000  
                  25507286.735   102707313.477          49.000  
  25675749.826                   134927017.165 0                        46.000  
                  25675750.809   103385658.686          50.000  
 22  1 17 14  0 12.0010000  0 10G02G06G12G13G15G17G19G24G25G32
  24394573.062                   128194768.04910                        35.000  
                                                                
  23446574.702    23446574.183   123212169.269 0  96009487.820 0        42.000  
        42.000                                                  
  20751173.592    20751169.410   109048258.665 0  84972699.391 0        49.000  
        47.000                                                  
  25208460.884                   132472030.555 0                        28.000  
                                                                
  24000042.725    24000041.313   126121066.174 0  98276147.910 0        44.000  
        41.000                                                  
  23835547.182    23835541.786   125256322.891 0  97602455.311 0        41.000  
        39.000                                                  
  21652011.633                   113782066.952 0                        47.000  
                                                                
  20040678.777    20040676.740   105313927.984 0  82062817.348 0        50.000  
        50.000                                                  
  23193800.164    23193799.664   121884269.97310  94974764.727 0        43.000  
        43.000                                                  
  24461692.078    24461691.006   128547062.520 0 100166560.372 0        42.000  
        40.000                                                  
 22  1 17 14  0 11.0000000  0  0
 22  1 17 14  0 12.0010000  0  7E02E03E07E08E11E25E30
  23295176.849                   122417048.801 0                        49.000  
                  23295175.455    93800105.797          53.000  
  27425058.504                   144119251.802 0                        42.000  
                  27425062.095   110429023.696          46.000  
  26242624.263                   137905947.863 0                        44.000  
                  26242625.942   105668213.959          49.000  
  23255680.751                   122209456.599 0                        47.000  
                  23255680.179    93641017.272          51.000  
  24694807.849                   129772455.970 0                        40.000  
                  24694804.329    99436049.176          42.000  
  25507641.954                   134043592.445 0                        44.000  
                  25507642.436   102708746.211          49.000  
  25675387.567                   134925113.125 0                        46.000  
                  25675388.497   103384199.746          50.000  
 22  1 17 14  0 13.0010000  0 10G02G06G12G13G15G17G19G24G25G32
  24394014.708                   128191833.61210                        35.000  
                                                                
  23446187.212    23446186.551   123210132.527 0  96007900.748 0        42.000  
        42.000                                                  
  20750879.396    20750875.108   109046712.918 0  84971494.920 0        49.000  
        47.000                                                  
  25209199.000                   132475909.608 0                        28.000  
                                                                
  24000731.754    24000730.271   126124686.761 0  98278969.137 0        44.000  
        41.000                                                  
  23836128.104    23836122.690   125259375.569 0  97604834.009 0        41.000  
        38.000                                                  
  21652391.940                   113784065.743 0                        46.000  
                                                                
  20040749.306    20040747.233   105314298.508 0  82063106.062 0        50.000  
        50.000                                                  
  23193224.102    23193223.673   121881242.62210  94972405.743 0        43.000  
        43.000                                                  
  24461170.767    24461169.713   128544323.298 0 100164425.893 0        42.000  
        40.000                                                  
 22  1 17 14  0 12.0000000  0  0
 22  1 17 14  0 13.0010000  0  7E02E03E07E08E11E25E30
  23295175.044                   122417039.716 0                        49.000  
                  23295173.829    93800098.832          53.000  
  27425655.365                   144122388.601 0                        42.000  
                  27425659.117   110431427.211          46.000  
  26242451.022                   137905038.087 0                        44.000  
                  26242452.720   105667516.862          49.000  
  23256013.294                   122211203.999 0                        47.000  
                  23256012.668    93642356.182          51.000  
  24694744.146                   129772121.698 0                        40.000  
                  24694740.698    99435793.046          42.000  
  25507997.815                   134045462.493 0                        45.000  
                  25507998.298   102710179.091          49.000  
  25675025.344                   134923209.311 0                        46.000  
                  25675026.166   103382740.974          50.000  
 22  1 17 14  0 14.0010000  0 10G02G06G12G13G15G17G19G24G25G32
  24393456.301                   128188899.16110                        35.000  
                                                                
  23445799.686    23445799.043   123208096.122 0  96006313.930 0        41.000  
        42.000                                                  
  20750585.361    20750581.162   109045167.461 0  84970290.661 0        49.000  
        47.000                                                  
  25209937.008                   132479788.500 0                        27.000  
                                                                
  24001420.820    24001419.194   126128307.316 0  98281790.344 0        44.000  
        41.000                                                  
  23836708.955    23836703.630   125262428.375 0  97607212.837 0        41.000  
        38.000                                                  
  21652772.353                   113786065.000 0                        47.000  
                                                                
  20040819.889    20040817.709   105314669.449 0  82063395.111 0        50.000  
        51.000                                                  
  23192648.094    23192647.612   121878215.33410  94970046.820 0        43.000  
        43.000                                                  
  24460649.546    24460648.474   128541584.375 0 100162291.680 0        42.000  
        40.000                                                  
 22  1 17 14  0 13.0000000  0  0
 22  1 17 14  0 14.0010000  0  7E02E03E07E08E11E25E30
  23295173.240                   122417030.698 0                        49.000  
                  23295171.989    93800091.920          53.000  
  27426252.387                   144125525.324 0                        42.000  
                  27426255.979   110433830.658          46.000  
  26242277.872                   137904128.658 0                        44.000  
                  26242279.712   105666820.027          49.000  
  23256345.783                   122212951.668 0                        47.000  
                  23256345.300    93643695.301          51.000  
  24694680.783                   129771787.799 0                        40.000  
                  24694677.334    99435537.196          42.000  
  25508353.838                   134047332.508 0                        45.000  
                  25508354.123   102711611.958          49.000  
  25674663.193                   134921305.485 0                        46.000  
                  25674663.908   103381282.208          50.000  
 22  1 17 14  0 15.0010000  0 10G02G06G12G13G15G17G19G24G25G32
  24392897.894                   128185964.84110                        35.000  
                                                                
  23445412.179    23445411.660   123206060.132 0  96004727.478 0        41.000  
        42.000                                                  
  20750291.416    20750287.127   109043622.357 0  84969086.693 0        49.000  
        47.000                                                  
  25210674.820                   132483667.283 0                        28.000  
                                                                
  24002109.760    24002108.241   126131927.909 0  98284611.599 0        44.000  
        41.000                                                  
  23837289.930    23837284.623   125265481.408 0  97609591.805 0        41.000  
        38.000                                                  
  21653152.785                   113788064.818 0                        47.000  
                                                                
  20040890.597    20040888.399   105315040.921 0  82063684.563 0        50.000  
        51.000                                                  
  23192072.122    23192071.586   121875188.19810  94967688.019 0        43.000  
        43.000                                                  
  24460128.324    24460127.288   128538845.815 0 100160157.736 0        42.000  
        40.000                                                  
 22  1 17 14  0 14.0000000  0  0
 22  1 17 14  0 15.0010000  0  7E02E03E07E08E11E25E30
  23295171.614                   122417021.851 0                        49.000  
                  23295170.291    93800085.143          53.000  
  27426849.319                   144128662.029 0                        42.000  
                  27426852.857   110436234.094          46.000  
  26242104.917                   137903219.674 0                        44.000  
                  26242106.758   105666123.533          49.000  
  23256678.504                   122214699.708 0                        47.000  
                  23256677.825    93645034.712          51.000  
  24694617.598                   129771454.389 0                        40.000  
                  24694613.845    99435281.727          42.000  
  25508709.574                   134049202.582 0                        45.000  
                  25508710.074   102713044.872          49.000  
  25674300.773                   134919401.755 0                        46.000  
                  25674301.631   103379823.508          50.000  
 22  1 17 14  0 16.0010000  0 10G02G06G12G13G15G17G19G24G25G32
  24392339.237                   128183030.20210                        34.000  
                                                                
  23445024.725    23445024.117   123204024.214 0  96003141.020 0        41.000  
        42.000                                                  
  20749997.310    20749993.128   109042077.258 0  84967882.711 0        49.000  
        47.000                                                  
  25211412.936                   132487545.703 0                        27.000  
                                                                
  24002798.736    24002797.020   126135548.202 0  98287432.571 0        44.000  
        41.000                                                  
  23837870.870    23837865.617   125268534.279 0  97611970.687 0        41.000  
        38.000                                                  
  21653533.377                   113790064.791 0                        47.000  
                                                                
  20040961.322    20040959.089   105315412.542 0  82063974.142 0        50.000  
        51.000                                                  
  23191496.043    23191495.489   121872160.86010  94965329.057 0        43.000  
        43.000                                                  
  24459607.192    24459606.174   128536107.274 0 100158023.794 0        42.000  
        40.000                                                  
 22  1 17 14  0 15.0000000  0  0
 22  1 17 14  0 16.0010000  0  7E02E03E07E08E11E25E30
  23295169.970                   122417012.801 0                        49.000  
                  23295168.612    93800078.209          53.000  
  27427446.145                   144131798.379 0                        42.000  
                  27427449.683   110438637.272          46.000  
  26241931.802                   137902310.749 0                        44.000  
                  26241933.875   105665427.086          49.000  
  23257011.225                   122216447.747 0                        47.000  
                  23257010.421    93646374.116          51.000  
  24694554.127                   129771121.080 0                        40.000  
                  24694550.410    99435026.334          42.000  
  25509065.275                   134051072.354 0                        45.000  
                  25509065.722   102714477.556          49.000  
  25673938.390                   134917497.753 0                        46.000  
                  25673939.355   103378364.604          50.000  
 22  1 17 14  0 17.0010000  0 10G02G06G12G13G15G17G19G24G25G32
  24391780.884                   128180096.08310                        34.000  
                                                                
  23444637.449    23444636.895   123201989.183 0  96001555.292 0        41.000  
        42.000                                                  
  20749703.418    20749699.308   109040532.993 0  84966679.392 0        49.000  
        47.000                                                  
  25212151.070                   132491424.468 0                        28.000  
                                                                
  24003487.676    24003486.014   126139168.997 0  98290253.979 0        44.000  
        41.000                                                  
  23838451.917    23838446.807   125271587.877 0  97614350.084 0        41.000  
        39.000                                                  
  21653914.130                   113792065.798 0                        47.000  
                                                                
  20041032.191    20041030.118   105315785.141 0  82064264.479 0        50.000  
        51.000                                                  
  23190920.070    23190919.445   121869134.14310  94962970.574 0        43.000  
        43.000                                                  
  24459086.256    24459085.149   128533369.580 0 100155890.537 0        42.000  
        40.000                                                  
 22  1 17 14  0 16.0000000  0  0
 22  1 17 14  0 17.0010000  0  7E02E03E07E08E11E25E30
  23295168.326                   122417004.385 0                        49.000  
                  23295166.932    93800071.762          53.000  
  27428042.827                   144134935.170 0                        42.000  
                  27428046.633   110441040.777          46.000  
  26241759.116                   137901402.731 0                        44.000  
                  26241761.028   105664731.337          49.000  
  23257343.982                   122218196.631 0                        47.000  
                  23257343.214    93647714.164          51.000  
  24694490.799                   129770788.719 0                        40.000  
                  24694487.172    99434771.665          42.000  
  25509421.226                   134052942.657 0                        45.000  
                  25509421.708   102715910.643          49.000  
  25673576.274                   134915594.303 0                        46.000  
                  25673577.096   103376906.116          50.000  
 22  1 17 14  0 18.0010000  0 10G02G06G12G13G15G17G19G24G25G32
  24391222.423                   128177162.13310                        34.000  
                                                                
  23444250.317    23444249.727   123199954.662 0  95999969.931 0        41.000  
        42.000                                                  
  20749409.651    20749405.631   109038989.153 0  84965476.402 0        49.000  
        47.000                                                  
  25212889.096                   132495303.202 0                        27.000  
                                                                
  24004176.670    24004175.008   126142789.898 0  98293075.442 0        44.000  
        41.000                                                  
  23839033.054    23839027.943   125274641.746 0  97616729.732 0        41.000  
        39.000                                                  
  21654295.008                   113794067.411 0                        46.000  
                                                                
  20041103.327    20041101.129   105316158.330 0  82064555.273 0        50.000  
        51.000                                                  
  23190344.134    23190343.473   121866107.64110  94960612.256 0        43.000  
        43.000                                                  
  24458565.428    24458564.356   128530632.309 0 100153757.603 0        42.000  
        40.000                                                  
 22  1 17 14  0 17.0000000  0  0
 22  1 17 14  0 18.0010000  0  7E02E03E07E08E11E25E30
  23295166.771                   122416996.198 0                        49.000  
                  23295165.413    93800065.489          53.000  
  27428640.010                   144138072.028 0                        42.000  
                  27428643.512   110443444.341          46.000  
  26241586.573                   137900495.218 0                        44.000  
                  26241588.342   105664035.960          49.000  
  23257676.739                   122219945.929 0                        47.000  
                  23257676.114    93649054.537          51.000  
  24694427.686                   129770456.891 0                        40.000  
                  24694424.166    99434517.415          42.000  
  25509777.141                   134054813.080 0                        45.000  
                  25509777.588   102717343.825          49.000  
  25673214.176                   134913691.008 0                        46.000  
                  25673214.891   103375447.749          50.000  
 22  1 17 14  0 19.0010000  0 10G02G06G12G13G15G17G19G24G25G32
  24390664.124                   128174228.26610                        34.000  
                                                                
  23443863.292    23443862.577   123197920.576 0  95998384.938 0        41.000  
        42.000                                                  
  20749116.009    20749111.900   109037445.683 0  84964273.705 0        49.000  
        47.000                                                  
  25213627.051                   132499181.935 0                        27.000  
                                                                
  24004865.753    24004864.073   126146410.858 0  98295896.971 0        44.000  
        41.000                                                  
  23839614.172    23839609.133   125277695.856 0  97619109.548 0        42.000  
        39.000                                                  
  21654675.940                   113796069.589 0                        47.000  
                                                                
  20041174.446    20041172.212   105316532.052 0  82064846.488 0        50.000  
        51.000                                                  
  23189768.144    23189767.536   121863081.32110  94958254.103 0        43.000  
        43.000                                                  
  24458044.653    24458043.492   128527895.449 0 100151625.001 0        42.000  
        40.000                                                  
 22  1 17 14  0 18.0000000  0  0
 22  1 17 14  0 19.0010000  0  7E02E03E07E08E11E25E30
  23295165.181                   122416988.201 0                        49.000  
                  23295163.930    93800059.362          53.000  
  27429236.907                   144141208.918 0                        42.000  
                  27429240.498   110445847.921          46.000  
  26241413.922                   137899588.153 0                        44.000  
                  26241415.763   105663340.941          49.000  
  23258009.782                   122221695.638 0                        47.000  
                  23258009.156    93650395.223          51.000  
  24694364.519                   129770125.583 0                        40.000  
                  24694361.124    99434263.544          42.000  
  25510133.253                   134056683.606 0                        45.000  
                  25510133.610   102718777.087          49.000  
  25672851.971                   134911787.824 0                        46.000  
                  25672852.704   103373989.473          50.000  
 22  1 17 14  0 20.0010000  0 10G02G06G12G13G15G17G19G24G25G32
  24390105.842                   128171294.78010                        34.000  
                                                                
  23443476.249    23443475.677   123195887.285 0  95996800.555 0        41.000  
        42.000                                                  
  20748822.511    20748818.276   109035902.938 0  84963071.566 0        49.000  
        47.000                                                  
  25214365.167                   132503060.912 0                        27.000  
                                                                
  24005554.925    24005553.281   126150032.220 0  98298718.804 0        44.000  
        42.000                                                  
  23840195.416    23840190.412   125280750.522 0  97621489.826 0        41.000  
        39.000                                                  
  21655057.051                   113798072.675 0                        47.000  
                                                                
  20041245.672    20041243.528   105316906.646 0  82065138.377 0        50.000  
        51.000                                                  
  23189192.350    23189191.725   121860055.50910  94955896.332 0        43.000  
        43.000                                                  
  24457523.807    24457522.735   128525159.296 0 100149492.929 0        42.000  
        40.000                                                  
 22  1 17 14  0 19.0000000  0  0
 22  1 17 14  0 20.0010000  0  7E02E03E07E08E11E25E30
  23295163.876                   122416980.710 0                        49.000  
                  23295162.518    93800053.631          53.000  
  27429833.929                   144144346.142 0                        42.000  
                  27429837.431   110448251.767          46.000  
  26241241.343                   137898681.878 0                        44.000  
                  26241243.273   105662646.521          49.000  
  23258342.807                   122223446.051 0                        47.000  
                  23258342.128    93651736.451          51.000  
  24694301.709                   129769795.097 0                        40.000  
                  24694298.225    99434010.323          42.000  
  25510489.168                   134058554.525 0                        45.000  
                  25510489.633   102720210.653          49.000  
  25672490.052                   134909885.075 0                        46.000  
                  25672490.731   103372531.520          50.000  
 22  1 17 14  0 21.0010000  0 10G02G06G12G13G15G17G19G24G25G32
  24389547.417                   128168360.96810                        34.000  
                                                                
  23443089.224    23443088.705   123193853.953 0  95995216.136 0        41.000  
        42.000                                                  
  20748528.941    20748524.723   109034360.105 0  84961869.365 0        49.000  
        47.000                                                  
  25215103.157                   132506939.464 0                        27.000  
                                                                
  24006244.062    24006242.382   126153653.171 0  98301540.327 0        44.000  
        42.000                                                  
  23840776.749    23840771.602   125283804.981 0  97623869.896 0        41.000  
        38.000                                                  
  21655438.269                   113800075.859 0                        46.000  
                                                                
  20041316.969    20041314.897   105317281.305 0  82065430.321 0        50.000  
        51.000                                                  
  23188616.485    23188615.967   121857029.39710  94953538.316 0        43.000  
        43.000                                                  
  24457003.139    24457002.049   128522423.078 0 100147360.814 0        42.000  
        40.000                                                  
 22  1 17 14  0 20.0000000  0  0
 22  1 17 14  0 21.0010000  0  7E02E03E07E08E11E25E30
  23295162.393                   122416972.951 0                        49.000  
                  23295160.999    93800047.677          53.000  
  27430430.772                   144147482.901 0                        42.000  
                  27430434.417   110450655.250          46.000  
  26241068.818                   137897775.580 0                        44.000  
                  26241070.783   105661952.091          49.000  
  23258675.725                   122225196.385 0                        47.000  
                  23258675.314    93653077.605          51.000  
  24694238.810                   129769464.625 0                        40.000  
                  24694235.380    99433757.107          42.000  
  25510845.226                   134060425.075 0                        45.000  
                  25510845.548   102721643.920          49.000  
  25672127.775                   134907981.971 0                        46.000  
                  25672128.508   103371073.297          50.000  
 22  1 17 14  0 22.0010000  0 10G02G06G12G13G15G17G19G24G25G32
  24388988.956                   128165426.98310                        33.000  
                                                                
  23442702.234    23442701.823   123191820.835 0  95993631.898 0        42.000  
        42.000                                                  
  20748235.370    20748231.153   109032817.395 0  84960667.251 0        49.000  
        47.000                                                  
  25215841.416                   132510817.642 0                        27.000  
                                                                
  24006933.074    24006931.412   126157273.937 0  98304361.694 0        44.000  
        42.000                                                  
  23841357.939    23841352.810   125286859.393 0  97626249.992 0        41.000  
        39.000                                                  
  21655819.433                   113802079.351 0                        46.000  
                                                                
  20041388.374    20041386.105   105317656.248 0  82065722.491 0        50.000  
        50.000                                                  
  23188040.638    23188040.138   121854003.20910  94951180.252 0        43.000  
        43.000                                                  
  24456482.597    24456481.435   128519687.004 0 100145228.822 0        42.000  
        40.000                                                  
 22  1 17 14  0 21.0000000  0  0
 22  1 17 14  0 22.0010000  0  7E02E03E07E08E11E25E30
  23295160.749                   122416965.113 0                        49.000  
                  23295159.534    93800041.675          53.000  
  27431027.615                   144150619.433 0                        42.000  
                  27431031.189   110453058.555          46.000  
  26240896.310                   137896869.484 0                        44.000  
                  26240898.294   105661257.809          49.000  
  23259009.000                   122226946.842 0                        47.000  
                  23259008.410    93654418.876          51.000  
  24694176.019                   129769134.426 0                        40.000  
                  24694172.534    99433504.102          42.000  
  25511201.123                   134062295.442 0                        45.000  
                  25511201.391   102723077.059          49.000  
  25671765.695                   134906078.705 0                        46.000  
                  25671766.356   103369614.966          50.000  
 22  1 17 14  0 23.0010000  0 10G02G06G12G13G15G17G19G24G25G32
  24388430.460                   128162493.08910                        33.000  
                                                                
  23442315.406    23442315.084   123189788.122 0  95992047.977 0        41.000  
        42.000                                                  
  20747941.854    20747937.583   109031275.057 0  84959465.430 0        49.000  
        47.000                                                  
  25216579.335                   132514695.683 0                        27.000  
                                                                
  24007622.121    24007620.406   126160894.744 0  98307183.111 0        44.000  
        42.000                                                  
  23841939.254    23841934.054   125289914.039 0  97628630.219 0        42.000  
        39.000                                                  
  21656200.793                   113804083.388 0                        46.000  
                                                                
  20041459.886    20041457.509   105318031.702 0  82066015.050 0        50.000  
        51.000                                                  
  23187464.827    23187464.255   121850977.20310  94948822.313 0        43.000  
        43.000                                                  
  24455962.054    24455960.786   128516951.300 0 100143097.081 0        42.000  
        40.000                                                  
 22  1 17 14  0 22.0000000  0  0
 22  1 17 14  0 23.0010000  0  7E02E03E07E08E11E25E30
  23295159.248                   122416957.437 0                        49.000  
                  23295158.105    93800035.796          53.000  
  27431624.441                   144153755.953 0                        42.000  
                  27431628.032   110455461.866          45.000  
  26240724.124                   137895963.831 0                        44.000  
                  26240725.983   105660563.865          49.000  
  23259342.185                   122228697.681 0                        47.000  
                  23259341.614    93655760.420          51.000  
  24694113.263                   129768804.676 0                        40.000  
                  24694109.635    99433251.432          42.000  
  25511557.074                   134064165.866 0                        45.000  
                  25511557.396   102724510.243          49.000  
  25671403.705                   134904175.551 0                        46.000  
                  25671404.151   103368156.703          50.000  
 22  1 17 14  0 24.0010000  0 10G02G06G12G13G15G17G19G24G25G32
  24387872.250                   128159559.91510                        33.000  
                                                                
  23441928.809    23441928.523   123187756.492 0  95990464.891 0        42.000  
        42.000                                                  
  20747648.498    20747644.227   109029733.712 0  84958264.391 0        49.000  
        47.000                                                  
  25217317.540                   132518574.334 0                        27.000  
                                                                
  24008311.294    24008309.560   126164516.226 0  98310005.041 0        44.000  
        42.000                                                  
  23842520.604    23842515.494   125292969.530 0  97631011.129 0        42.000  
        38.000                                                  
  21656582.368                   113806088.608 0                        46.000  
                                                                
  20041531.576    20041529.164   105318408.303 0  82066308.508 0        50.000  
        51.000                                                  
  23186889.194    23186888.587   121847951.95710  94946464.990 0        43.000  
        43.000                                                  
  24455441.726    24455440.440   128514216.599 0 100140966.150 0        42.000  
        40.000                                                  
 22  1 17 14  0 23.0000000  0  0
 22  1 17 14  0 24.0010000  0  7E02E03E07E08E11E25E30
  23295158.069                   122416950.558 0                        49.000  
                  23295156.782    93800030.532          53.000  
  27432221.588                   144156893.096 0                        42.000  
                  27432224.840   110457865.646          45.000  
  26240552.028                   137895059.240 0                        44.000  
                  26240553.833   105659870.735          49.000  
  23259675.550                   122230449.514 0                        47.000  
                  23259674.978    93657102.734          51.000  
  24694050.560                   129768476.033 0                        40.000  
                  24694047.147    99432999.619          42.000  
  25511913.240                   134066036.984 0                        45.000  
                  25511913.401   102725943.962          49.000  
  25671041.660                   134902273.095 0                        46.000  
                  25671042.143   103366698.989          50.000  
 22  1 17 14  0 25.0010000  0 10G02G06G12G13G15G17G19G24G25G32
  24387314.003                   128156626.74010                        33.000  
                                                                
  23441542.302    23441541.891   123185725.196 0  95988882.061 0        42.000  
        42.000                                                  
  20747355.285    20747351.032   109028192.639 0  84957063.555 0        49.000  
        47.000                                                  
  25218055.620                   132522452.783 0                        27.000  
                                                                
  24009000.395    24008998.715   126168137.661 0  98312826.938 0        44.000  
        42.000                                                  
  23843102.009    23843097.041   125296025.122 0  97633392.095 0        41.000  
        38.000                                                  
  21656963.979                   113808094.266 0                        46.000  
                                                                
  20041603.267    20041600.908   105318785.342 0  82066602.307 0        50.000  
        50.000                                                  
  23186313.436    23186312.936   121844926.76610  94944107.713 0        43.000  
        43.000                                                  
  24454921.380    24454920.094   128511482.184 0 100138835.448 0        42.000  
        40.000                                                  
 22  1 17 14  0 24.0000000  0  0
 22  1 17 14  0 25.0010000  0  7E02E03E07E08E11E25E30
  23295156.782                   122416943.765 0                        49.000  
                  23295155.406    93800025.322          53.000  
  27432818.413                   144160030.144 0                        42.000  
                  27432821.897   110460269.363          46.000  
  26240380.021                   137894154.987 0                        44.000  
                  26240381.736   105659177.863          49.000  
  23260008.879                   122232201.615 0                        47.000  
                  23260008.325    93658445.255          51.000  
  24693988.108                   129768147.788 0                        40.000  
                  24693984.641    99432748.091          42.000  
  25512269.262                   134067908.089 0                        45.000  
                  25512269.387   102727377.660          49.000  
  25670679.777                   134900370.645 0                        46.000  
                  25670680.152   103365241.270          50.000  
 22  1 17 14  0 26.0010000  0 10G02G06G12G13G15G17G19G24G25G32
  24386755.686                   128153693.47110                        33.000  
                                                                
  23441155.885    23441155.402   123183694.224 0  95987299.487 0        42.000  
        42.000                                                  
  20747062.144    20747057.802   109026651.825 0  84955862.929 0        49.000  
        47.000                                                  
  25218793.593                   132526331.120 0                        27.000  
                                                                
  24009689.603    24009687.905   126171759.046 0  98315648.776 0        44.000  
        42.000                                                  
  23843683.503    23843678.535   125299080.839 0  97635773.187 0        42.000  
        38.000                                                  
  21657345.858                   113810100.384 0                        46.000  
                                                                
  20041675.100    20041672.831   105319162.782 0  82066896.416 0        50.000  
        50.000                                                  
  23185737.839    23185737.303   121841901.66110  94941750.492 0        43.000  
        43.000                                                  
  24454401.070    24454399.819   128508748.026 0 100136704.947 0        42.000  
        40.000                                                  
 22  1 17 14  0 25.0000000  0  0
 22  1 17 14  0 26.0010000  0  7E02E03E07E08E11E25E30
  23295155.442                   122416937.022 0                        49.000  
                  23295154.191    93800020.151          53.000  
  27433415.471                   144163167.084 0                        42.000  
                  27433418.848   110462672.983          45.000  
  26240208.013                   137893251.062 0                        44.000  
                  26240209.729   105658485.250          49.000  
  23260342.422                   122233953.976 0                        47.000  
                  23260341.779    93659787.972          51.000  
  24693925.852                   129767819.887 0                        40.000  
                  24693922.189    99432496.858          42.000  
  25512625.302                   134069779.131 0                        45.000  
                  25512625.463   102728811.314          49.000  
  25670317.625                   134898468.184 0                        46.000  
                  25670318.144   103363783.535          50.000  
 22  1 17 14  0 27.0010000  0 10G02G06G12G13G15G17G19G24G25G32
  24386197.350                   128150760.02610                        33.000  
                                                                
  23440769.413    23440768.859   123181663.392 0  95985717.009 0        42.000  
        42.000                                                  
  20746768.931    20746764.696   109025111.087 0  84954662.350 0        49.000  
        47.000                                                  
  25219531.709                   132530209.014 0                        27.000  
                                                                
  24010378.686    24010376.917   126175380.167 0  98318470.445 0        44.000  
        42.000                                                  
  23844265.014    23844259.993   125302136.486 0  97638154.202 0        42.000  
        39.000                                                  
  21657727.737                   113812106.754 0                        46.000  
                                                                
  20041747.059    20041744.700   105319540.455 0  82067190.711 0        50.000  
        50.000                                                  
  23185162.153    23185161.635   121838876.38810  94939393.148 0        43.000  
        43.000                                                  
  24453880.760    24453879.509   128506013.968 0 100134574.506 0        42.000  
        40.000                                                  
 22  1 17 14  0 26.0000000  0  0
 22  1 17 14  0 27.0010000  0  7E02E03E07E08E11E25E30
  23295154.156                   122416930.149 0                        49.000  
                  23295152.815    93800014.885          53.000  
  27434012.439                   144166303.740 0                        42.000  
                  27434015.709   110465076.376          46.000  
  26240036.006                   137892347.290 0                        44.000  
                  26240037.704   105657792.748          49.000  
  23260675.858                   122235706.411 0                        47.000  
                  23260675.322    93661130.749          51.000  
  24693863.400                   129767492.218 0                        40.000  
                  24693859.844    99432245.780          42.000  
  25512981.271                   134071649.939 0                        45.000  
                  25512981.521   102730244.794          49.000  
  25669955.688                   134896565.508 0                        46.000  
                  25669956.046   103362325.654          50.000  
 22  1 17 14  0 28.0010000  0 10G02G06G12G13G15G17G19G24G25G32
  24385639.122                   128147827.27410                        32.000  
                                                                
  23440383.049    23440382.656   123179633.613 0  95984135.368 0        42.000  
        42.000                                                  
  20746475.986    20746471.680   109023571.347 0  84953462.557 0        49.000  
        47.000                                                  
  25220269.735                   132534087.519 0                        26.000  
                                                                
  24011067.912    24011066.232   126179001.981 0  98321292.631 0        44.000  
        42.000                                                  
  23844846.669    23844841.594   125305192.981 0  97640535.873 0        42.000  
        39.000                                                  
  21658109.705                   113814114.304 0                        46.000  
                                                                
  20041819.125    20041816.820   105319919.283 0  82067485.895 0        50.000  
        50.000                                                  
  23184586.538    23184586.002   121835851.94910  94937036.429 0        43.000  
        43.000                                                  
  24453360.593    24453359.467   128503280.920 0 100132444.860 0        42.000  
        40.000                                                  
 22  1 17 14  0 27.0000000  0  0
 22  1 17 14  0 28.0010000  0  7E02E03E07E08E11E25E30
  23295152.923                   122416924.084 0                        49.000  
                  23295151.779    93800010.244          53.000  
  27434609.407                   144169441.002 0                        42.000  
                  27434612.767   110467480.269          45.000  
  26239864.356                   137891444.592 0                        44.000  
                  26239865.929   105657101.070          49.000  
  23261009.508                   122237459.859 0                        47.000  
                  23261008.954    93662474.302          51.000  
  24693801.341                   129767165.637 0                        40.000  
                  24693797.785    99431995.538          42.000  
  25513337.454                   134073521.468 0                        45.000  
                  25513337.740   102731678.819          49.000  
  25669593.572                   134894663.569 0                        46.000  
                  25669594.073   103360868.322          50.000  
 22  1 17 14  0 29.0010000  0 10G02G06G12G13G15G17G19G24G25G32
  24385081.055                   128144894.46610                        33.000  
                                                                
  23439996.900    23439996.364   123177604.113 0  95982553.962 0        42.000  
        42.000                                                  
  20746183.024    20746178.735   109022031.821 0  84952262.924 0        49.000  
        47.000                                                  
  25221007.779                   132537965.783 0                        26.000  
                                                                
  24011757.245    24011755.512   126182623.692 0  98324114.731 0        44.000  
        42.000                                                  
  23845428.270    23845423.266   125308249.532 0  97642917.610 0        41.000  
        39.000                                                  
  21658491.781                   113816122.262 0                        46.000  
                                                                
  20041891.351    20041888.993   105320298.472 0  82067781.372 0        50.000  
        50.000                                                  
  23184011.013    23184010.441   121832827.48710  94934679.707 0        43.000  
        43.000                                                  
  24452840.479    24452839.371   128500548.097 0 100130315.385 0        42.000  
        40.000                                                  
 22  1 17 14  0 28.0000000  0  0
 22  1 17 14  0 29.0010000  0  7E02E03E07E08E11E25E30
  23295151.761                   122416918.030 0                        49.000  
                  23295150.582    93800005.608          53.000  
  27435206.143                   144172578.121 0                        42.000  
                  27435209.789   110469884.017          45.000  
  26239692.528                   137890542.164 0                        44.000  
                  26239694.190   105656409.606          49.000  
  23261343.284                   122239213.520 0                        47.000  
                  23261342.748    93663818.016          51.000  
  24693739.175                   129766839.385 0                        40.000  
                  24693735.601    99431745.562          43.000  
  25513693.584                   134075392.904 0                        45.000  
                  25513693.709   102733112.774          49.000  
  25669231.761                   134892761.565 0                        46.000  
                  25669232.064   103359410.951          50.000  
 22  1 17 14  0 30.0010000  0 10G02G06G12G13G15G17G19G24G25G32
  24384522.773                   128141961.51110                        33.000  
                                                                
  23439610.625    23439610.196   123175574.816 0  95980972.678 0        42.000  
        42.000                                                  
  20745890.186    20745885.790   109020492.433 0  84951063.403 0        49.000  
        47.000                                                  
  25221745.556                   132541843.809 0                        26.000  
                                                                
  24012446.346    24012444.774   126186245.197 0  98326936.686 0        44.000  
        42.000                                                  
  23846009.960    23846004.939   125311306.068 0  97645299.335 0        41.000  
        38.000                                                  
  21658873.946                   113818130.522 0                        46.000  
                                                                
  20041963.667    20041961.326   105320677.941 0  82068077.066 0        50.000  
        50.000                                                  
  23183435.416    23183434.987   121829802.96510  94932322.939 0        43.000  
        43.000                                                  
  24452320.437    24452319.329   128497815.410 0 100128186.025 0        42.000  
        40.000                                                  
 22  1 17 14  0 29.0000000  0  0
 22  1 17 14  0 30.0010000  0  7E02E03E07E08E11E25E30
  23295150.582                   122416911.909 0                        49.000  
                  23295149.367    93800000.915          53.000  
  27435803.201                   144175715.015 0                        42.000  
                  27435806.721   110472287.590          45.000  
  26239521.003                   137889639.953 0                        44.000  
                  26239522.486   105655718.288          49.000  
  23261676.952                   122240967.317 0                        47.000  
                  23261676.434    93665161.830          51.000  
  24693677.133                   129766513.371 0                        40.000  
                  24693673.667    99431495.748          42.000  
  25514049.696                   134077264.155 0                        45.000  
                  25514049.910   102734546.587          49.000  
  25668869.752                   134890859.411 0                        46.000  
                  25668870.163   103357953.457          50.000  
 22  1 17 14  0 31.0010000  0 10G02G06G12G13G15G17G19G24G25G32
  24383964.634                   128139028.40610                        33.000  
                                                                
  23439224.547    23439224.065   123173545.756 0  95979391.567 0        42.000  
        42.000                                                  
  20745597.206    20745592.899   109018953.185 0  84949863.992 0        49.000  
        47.000                                                  
  25222483.296                   132545721.416 0                        26.000  
                                                                
  24013135.376    24013133.911   126189866.547 0  98329758.515 0        44.000  
        42.000                                                  
  23846591.632    23846586.522   125314362.610 0  97647681.045 0        42.000  
        39.000                                                  
  21659256.164                   113820139.111 0                        46.000  
                                                                
  20042036.090    20042033.499   105321057.717 0  82068372.989 0        50.000  
        50.000                                                  
  23182859.837    23182859.444   121826778.35310  94929966.115 0        43.000  
        43.000                                                  
  24451800.484    24451799.358   128495082.901 0 100126056.787 0        42.000  
        40.000                                                  
 22  1 17 14  0 30.0000000  0  0
 22  1 17 14  0 31.0010000  0  7E02E03E07E08E11E25E30
  23295149.545                   122416905.749 0                        49.000  
                  23295148.223    93799996.193          53.000  
  27436400.134                   144178851.661 0                        42.000  
                  27436403.636   110474691.004          45.000  
  26239349.246                   137888737.942 0                        44.000  
                  26239350.818   105655027.145          49.000  
  23262010.728                   122242721.257 0                        47.000  
                  23262010.138    93666505.763          51.000  
  24693615.039                   129766187.615 0                        40.000  
                  24693611.715    99431246.156          42.000  
  25514405.790                   134079135.271 0                        45.000  
                  25514405.879   102735980.297          49.000  
  25668507.690                   134888957.132 0                        46.000  
                  25668508.190   103356495.873          50.000  
 22  1 17 14  0 32.0010000  0 10G02G06G12G13G15G17G19G24G25G32
  24383406.548                   128136095.59310                        33.000  
                                                                
  23438838.523    23438838.040   123171517.319 0  95977810.990 0        42.000  
        42.000                                                  
  20745304.547    20745300.115   109017414.528 0  84948665.040 0        49.000  
        47.000                                                  
  25223221.197                   132549599.236 0                        25.000  
                                                                
  24013824.548    24013822.994   126193488.170 0  98332580.556 0        44.000  
        42.000                                                  
  23847173.359    23847168.266   125317419.601 0  97650063.104 0        42.000  
        39.000                                                  
  21659638.400                   113822148.478 0                        46.000  
                                                                
  20042108.406    20042105.887   105321438.250 0  82068669.513 0        50.000  
        50.000                                                  
  23182284.329    23182283.882   121823754.16310  94927609.601 0        43.000  
        43.000                                                  
  24451280.567    24451279.548   128492350.974 0 100123928.012 0        42.000  
        40.000                                                  
 22  1 17 14  0 31.0000000  0  0
 22  1 17 14  0 32.0010000  0  7E02E03E07E08E11E25E30
  23295148.420                   122416899.977 0                        49.000  
                  23295147.097    93799991.768          53.000  
  27436997.155                   144181988.551 0                        42.000  
                  27437000.497   110477094.588          45.000  
  26239177.882                   137887836.618 0                        44.000  
                  26239179.258   105654336.511          49.000  
  23262344.557                   122244475.805 0                        47.000  
                  23262344.003    93667850.150          51.000  
  24693553.051                   129765862.572 0                        40.000  
                  24693549.870    99430997.086          42.000  
  25514761.866                   134081006.659 0                        45.000  
                  25514762.027   102737414.230          49.000  
  25668145.681                   134887055.181 0                        46.000  
                  25668146.271   103355038.531          50.000  
 22  1 17 14  0 33.0010000  0 10G02G06G12G13G15G17G19G24G25G32
  24382848.463                   128133163.06610                        33.000  
                                                                
  23438452.659    23438452.123   123169489.562 0  95976230.899 0        42.000  
        42.000                                                  
  20745011.942    20745007.385   109015876.457 0  84947466.543 0        49.000  
        47.000                                                  
  25223959.081                   132553477.180 0                        25.000  
                                                                
  24014513.828    24014512.202   126197110.057 0  98335402.802 0        44.000  
        42.000                                                  
  23847755.174    23847750.153   125320477.024 0  97652445.498 0        42.000  
        39.000                                                  
  21660020.994                   113824158.616 0                        46.000  
                                                                
  20042181.008    20042178.346   105321819.511 0  82068966.590 0        50.000  
        50.000                                                  
  23181708.964    23181708.446   121820730.34910  94925253.378 0        43.000  
        43.000                                                  
  24450760.864    24450759.810   128489619.642 0 100121799.708 0        42.000  
        40.000                                                  
 22  1 17 14  0 32.0000000  0  0
 22  1 17 14  0 33.0010000  0  7E02E03E07E08E11E25E30
  23295147.365                   122416894.581 0                        49.000  
                  23295146.079    93799987.636          53.000  
  27437594.124                   144185125.650 0                        42.000  
                  27437597.430   110479498.335          45.000  
  26239006.500                   137886935.927 0                        44.000  
                  26239007.948   105653646.378          49.000  
  23262678.672                   122246230.934 0                        47.000  
                  23262678.010    93669194.986          51.000  
  24693491.260                   129765538.222 0                        40.000  
                  24693488.186    99430748.562          42.000  
  25515118.013                   134082878.341 0                        45.000  
                  25515118.281   102738848.371          49.000  
  25667783.744                   134885153.523 0                        46.000  
                  25667784.316   103353581.421          50.000  
 22  1 17 14  0 34.0010000  0 10G02G06G12G13G15G17G19G24G25G32
  24382290.396                   128130230.89810                        33.000  
                                                                
  23438066.956    23438066.474   123167462.498 0  95974651.364 0        42.000  
        42.000                                                  
  20744719.336    20744714.762   109014339.000 0  84946268.534 0        49.000  
        47.000                                                  
  25224697.340                   132557355.350 0                        25.000  
                                                                
  24015203.090    24015201.500   126200732.223 0  98338225.259 0        44.000  
        42.000                                                  
  23848337.025    23848332.147   125323534.915 0  97654828.280 0        42.000  
        39.000                                                  
  21660403.695                   113826169.546 0                        46.000  
                                                                
  20042253.664    20042251.073   105322201.536 0  82069264.274 0        50.000  
        50.000                                                  
  23181133.564    23181133.099   121817706.91410  94922897.479 0        43.000  
        43.000                                                  
  24450241.144    24450240.232   128486888.947 0 100119671.903 0        42.000  
        40.000                                                  
 22  1 17 14  0 33.0000000  0  0
 22  1 17 14  0 34.0010000  0  7E02E03E07E08E11E25E30
  23295146.400                   122416889.613 0                        49.000  
                  23295145.203    93799983.831          53.000  
  27438191.164                   144188262.989 0                        42.000  
                  27438194.451   110481902.263          45.000  
  26238835.083                   137886035.937 0                        44.000  
                  26238836.655   105652956.776          49.000  
  23263012.626                   122247986.682 0                        47.000  
                  23263012.179    93670540.300          51.000  
  24693429.665                   129765214.611 0                        39.000  
                  24693426.502    99430500.600          42.000  
  25515474.143                   134084750.344 0                        45.000  
                  25515474.429   102740282.756          49.000  
  25667422.093                   134883252.215 0                        46.000  
                  25667422.558   103352124.579          50.000  
 22  1 17 14  0 35.0010000  0 10G02G06G12G13G15G17G19G24G25G32
  24381732.364                   128127298.49810                        32.000  
                                                                
  23437681.182    23437680.806   123165435.531 0  95973071.916 0        42.000  
        42.000                                                  
  20744426.749    20744422.139   109012801.610 0  84945070.563 0        50.000  
        47.000                                                  
  25225435.223                   132561233.139 0                        26.000  
                                                                
  24015892.387    24015890.708   126204354.133 0  98341047.516 0        44.000  
        42.000                                                  
  23848918.930    23848914.016   125326592.722 0  97657210.986 0        42.000  
        39.000                                                  
  21660786.431                   113828180.715 0                        46.000  
                                                                
  20042326.373    20042323.799   105322583.774 0  82069562.126 0        50.000  
        50.000                                                  
  23180558.217    23180557.699   121814683.35210  94920541.455 0        43.000  
        43.000                                                  
  24449721.405    24449720.530   128484158.311 0 100117544.146 0        42.000  
        40.000                                                  
 22  1 17 14  0 34.0000000  0  0
 22  1 17 14  0 35.0010000  0  7E02E03E07E08E11E25E30
  23295145.561                   122416884.501 0                        49.000  
                  23295144.095    93799979.912          53.000  
  27438788.525                   144191400.040 0                        42.000  
                  27438791.438   110484305.962          45.000  
  26238663.844                   137885136.080 0                        44.000  
                  26238665.506   105652267.268          49.000  
  23263346.759                   122249742.489 0                        47.000  
                  23263346.258    93671885.658          51.000  
  24693368.196                   129764891.196 0                        39.000  
                  24693364.944    99430252.778          42.000  
  25515830.326                   134086622.099 0                        45.000  
                  25515830.648   102741716.954          49.000  
  25667060.210                   134881350.689 0                        46.000  
                  25667060.692   103350667.569          50.000  
 22  1 17 14  0 36.0010000  0 10G02G06G12G13G15G17G19G24G25G32
  24381174.243                   128124365.93910                        32.000  
                                                                
  23437295.550    23437295.050   123163408.772 0  95971492.623 0        41.000  
        42.000                                                  
  20744134.197    20744129.605   109011264.352 0  84943872.709 0        50.000  
        47.000                                                  
  25226173.160                   132565110.646 0                        26.000  
                                                                
  24016581.560    24016579.880   126207975.865 0  98343869.655 0        44.000  
        42.000                                                  
  23849500.781    23849495.992   125329650.511 0  97659593.684 0        42.000  
        39.000                                                  
  21661169.239                   113830192.212 0                        46.000  
                                                                
  20042399.296    20042396.616   105322966.309 0  82069860.205 0        50.000  
        50.000                                                  
  23179982.924    23179982.352   121811659.73110  94918185.384 0        43.000  
        43.000                                                  
  24449201.828    24449201.024   128481427.839 0 100115416.490 0        42.000  
        40.000                                                  
 22  1 17 14  0 35.0000000  0  0
 22  1 17 14  0 36.0010000  0  7E02E03E07E08E11E25E30
  23295144.560                   122416879.322 0                        49.000  
                  23295143.184    93799975.948          53.000  
  27439385.279                   144194536.837 0                        43.000  
                  27439388.227   110486709.477          45.000  
  26238492.659                   137884236.422 0                        44.000  
                  26238494.160   105651577.929          49.000  
  23263680.963                   122251498.427 0                        47.000  
                  23263680.373    93673231.125          51.000  
  24693306.816                   129764567.978 0                        39.000  
                  24693303.296    99430005.142          42.000  
  25516186.563                   134088493.678 0                        45.000  
                  25516186.813   102743151.028          49.000  
  25666698.380                   134879449.023 0                        46.000  
                  25666698.791   103349210.448          50.000  
 22  1 17 14  0 37.0010000  0 10G02G06G12G13G15G17G19G24G25G32
  24380616.140                   128121433.85310                        32.000  
                                                                
  23436910.151    23436909.597   123161382.867 0  95969913.996 0        41.000  
        42.000                                                  
  20743841.753    20743837.286   109009727.890 0  84942675.461 0        50.000  
        47.000                                                  
  25226911.008                   132568988.393 0                        26.000  
                                                                
  24017270.822    24017269.267   126211598.069 0  98346692.138 0        44.000  
        41.000                                                  
  23850082.811    23850077.932   125332708.952 0  97661976.877 0        42.000  
        38.000                                                  
  21661552.191                   113832204.686 0                        46.000  
                                                                
  20042472.273    20042469.593   105323349.797 0  82070159.025 0        50.000  
        50.000                                                  
  23179407.649    23179407.113   121808636.68010  94915829.767 0        43.000  
        43.000                                                  
  24448682.393    24448681.571   128478698.162 0 100113289.492 0        42.000  
        40.000                                                  
 22  1 17 14  0 36.0000000  0  0
 22  1 17 14  0 37.0010000  0  7E02E03E07E08E11E25E30
  23295143.720                   122416874.750 0                        49.000  
                  23295142.308    93799972.443          53.000  
  27439982.176                   144197674.073 0                        43.000  
                  27439985.321   110489113.329          45.000  
  26238321.616                   137883337.639 0                        44.000  
                  26238323.099   105650889.244          49.000  
  23264015.257                   122253255.182 0                        47.000  
                  23264014.721    93674577.202          51.000  
  24693245.328                   129764245.703 0                        39.000  
                  24693242.041    99429758.199          42.000  
  25516542.907                   134090365.760 0                        45.000  
                  25516543.014   102744585.477          49.000  
  25666336.532                   134877547.882 0                        46.000  
                  25666336.943   103347753.731          50.000  
 22  1 17 14  0 38.0010000  0 10G02G06G12G13G15G17G19G24G25G32
  24380058.144                   128118501.52910                        32.000  
                                                                
  23436524.573    23436524.216   123159356.997 0  95968335.396 0        41.000  
        42.000                                                  
  20743549.362    20743544.877   109008191.380 0  84941478.185 0        50.000  
        47.000                                                  
  25227648.891                   132572865.703 0                        26.000  
                                                                
  24017960.030    24017958.404   126215219.906 0  98349514.354 0        44.000  
        41.000                                                  
  23850664.823    23850659.962   125335767.199 0  97664359.925 0        42.000  
        39.000                                                  
  21661935.124                   113834217.286 0                        46.000  
                                                                
  20042545.215    20042542.624   105323733.379 0  82070457.925 0        51.000  
        50.000                                                  
  23178832.248    23178831.748   121805613.38610  94913473.957 0        43.000  
        43.000                                                  
  24448162.923    24448162.119   128475968.456 0 100111162.432 0        43.000  
        40.000                                                  
 22  1 17 14  0 37.0000000  0  0
 22  1 17 14  0 38.0010000  0  7E02E03E07E08E11E25E30
  23295142.791                   122416869.917 0                        49.000  
                  23295141.469    93799968.742          53.000  
  27440579.037                   144200810.872 0                        43.000  
                  27440582.289   110491516.846          45.000  
  26238150.663                   137882438.864 0                        44.000  
                  26238152.147   105650200.575          49.000  
  23264349.515                   122255011.875 0                        47.000  
                  23264348.961    93675923.238          51.000  
  24693183.931                   129763923.468 0                        39.000  
                  24693180.696    99429511.290          42.000  
  25516899.019                   134092237.483 0                        45.000  
                  25516899.180   102746019.659          49.000  
  25665974.827                   134875646.406 0                        46.000  
                  25665975.203   103346296.765          50.000  
 22  1 17 14  0 39.0010000  0 10G02G06G12G13G15G17G19G24G25G32
  24379500.023                   128115569.31710                        32.000  
                                                                
  23436139.139    23436138.745   123157331.732 0  95966757.262 0        41.000  
        42.000                                                  
  20743257.078    20743252.629   109006655.408 0  84940281.333 0        50.000  
        47.000                                                  
  25228386.828                   132576743.195 0                        26.000  
                                                                
  24018649.202    24018647.684   126218841.960 0  98352336.718 0        44.000  
        41.000                                                  
  23851246.835    23851241.938   125338825.830 0  97666743.269 0        42.000  
        39.000                                                  
  21662318.271                   113836230.617 0                        46.000  
                                                                
  20042618.299    20042615.690   105324117.663 0  82070757.365 0        51.000  
        50.000                                                  
  23178257.009    23178256.455   121802590.41710  94911118.395 0        43.000  
        43.000                                                  
  24447643.577    24447642.880   128473239.313 0 100109035.832 0        43.000  
        40.000                                                  
 22  1 17 14  0 38.0000000  0  0
 22  1 17 14  0 39.0010000  0  7E02E03E07E08E11E25E30
  23295141.862                   122416865.445 0                        49.000  
                  23295140.611    93799965.311          53.000  
  27441175.791                   144203947.850 0                        43.000  
                  27441179.275   110493920.507          45.000  
  26237979.782                   137881540.723 0                        44.000  
                  26237981.194   105649512.382          49.000  
  23264683.755                   122256769.116 0                        47.000  
                  23264683.415    93677269.700          51.000  
  24693122.658                   129763601.879 0                        39.000  
                  24693119.477    99429264.891          42.000  
  25517255.166                   134094109.464 0                        45.000  
                  25517255.488   102747454.021          49.000  
  25665612.855                   134873745.198 0                        46.000  
                  25665613.444   103344840.000          50.000  
 22  1 17 14  0 40.0010000  0 10G02G06G12G13G15G17G19G24G25G32
  24378942.044                   128112637.42710                        32.000  
                                                                
  23435753.882    23435753.507   123155307.091 0  95965179.625 0        41.000  
        42.000                                                  
  20742964.902    20742960.488   109005119.984 0  84939084.897 0        50.000  
        47.000                                                  
  25229124.837                   132580620.702 0                        26.000  
                                                                
  24019338.482    24019337.017   126222464.243 0  98355159.262 0        44.000  
        41.000                                                  
  23851828.900    23851824.093   125341884.858 0  97669126.922 0        42.000  
        39.000                                                  
  21662701.544                   113838244.673 0                        46.000  
                                                                
  20042691.562    20042688.989   105324502.645 0  82071057.348 0        51.000  
        51.000                                                  
  23177681.858    23177681.197   121799567.77610  94908763.107 0        43.000  
        43.000                                                  
  24447124.304    24447123.642   128470510.734 0 100106909.655 0        43.000  
        40.000                                                  
 22  1 17 14  0 39.0000000  0  0
 22  1 17 14  0 40.0010000  0  7E02E03E07E08E11E25E30
  23295141.147                   122416861.304 0                        49.000  
                  23295139.807    93799962.140          53.000  
  27441772.991                   144207085.002 0                        43.000  
                  27441776.208   110496324.293          45.000  
  26237808.883                   137880643.175 0                        44.000  
                  26237810.348   105648824.650          49.000  
  23265018.281                   122258526.901 0                        47.000  
                  23265017.834    93678616.571          51.000  
  24693061.546                   129763280.979 0                        39.000  
                  24693058.454    99429018.993          42.000  
  25517611.457                   134095981.672 0                        45.000  
                  25517611.671   102748888.570          49.000  
  25665251.096                   134871844.268 0                        46.000  
                  25665251.722   103343383.443          50.000  
 22  1 17 14  0 41.0010000  0 10G02G06G12G13G15G17G19G24G25G32
  24378384.156                   128109705.75710                        31.000  
                                                                
  23435368.662    23435368.269   123153282.921 0  95963602.349 0        41.000  
        42.000                                                  
  20742672.815    20742668.491   109003584.992 0  84937888.794 0        50.000  
        47.000                                                  
  25229862.667                   132584498.215 0                        26.000  
                                                                
  24020027.744    24020026.207   126226086.629 0  98357981.905 0        44.000  
        41.000                                                  
  23852411.055    23852406.213   125344944.158 0  97671510.795 0        42.000  
        39.000                                                  
  21663084.834                   113840259.348 0                        46.000  
                                                                
  20042764.968    20042762.252   105324888.208 0  82071357.789 0        50.000  
        51.000                                                  
  23177106.619    23177105.976   121796545.37410  94906407.986 0        43.000  
        43.000                                                  
  24446605.208    24446604.529   128467782.583 0 100104783.828 0        42.000  
        40.000                                                  
 22  1 17 14  0 40.0000000  0  0
 22  1 17 14  0 41.0010000  0  7E02E03E07E08E11E25E30
  23295140.432                   122416857.398 0                        49.000  
                  23295139.038    93799959.152          53.000  
  27442369.995                   144210222.209 0                        43.000  
                  27442373.140   110498728.123          45.000  
  26237638.126                   137879746.138 0                        44.000  
                  26237639.681   105648137.319          49.000  
  23265352.771                   122260285.123 0                        47.000  
                  23265352.431    93679963.783          51.000  
  24693000.505                   129762960.605 0                        39.000  
                  24692997.557    99428773.512          42.000  
  25517967.837                   134097854.006 0                        45.000  
                  25517967.944   102750323.226          49.000  
  25664889.534                   134869943.491 0                        46.000  
                  25664889.910   103341927.010          50.000  
 22  1 17 14  0 42.0010000  0 10G02G06G12G13G15G17G19G24G25G32
  24377826.356                   128106773.95910                        32.000  
                                                                
  23434983.567    23434983.191   123151259.090 0  95962025.334 0        41.000  
        42.000                                                  
  20742380.764    20742376.332   109002050.255 0  84936692.904 0        50.000  
        47.000                                                  
  25230600.479                   132588375.572 0                        26.000  
                                                                
  24020717.006    24020715.398   126229708.950 0  98360804.495 0        44.000  
        41.000                                                  
  23852993.299    23852988.367   125348003.582 0  97673894.757 0        42.000  
        38.000                                                  
  21663468.268                   113842274.468 0                        46.000  
                                                                
  20042838.517    20042835.747   105325274.191 0  82071658.564 0        50.000  
        51.000                                                  
  23176531.469    23176530.843   121793523.03310  94904052.908 0        43.000  
        43.000                                                  
  24446086.113    24446085.470   128465054.711 0 100102658.215 0        42.000  
        40.000                                                  
 22  1 17 14  0 41.0000000  0  0
 22  1 17 14  0 42.0010000  0  7E02E03E07E08E11E25E30
  23295139.735                   122416853.554 0                        49.000  
                  23295138.306    93799956.207          53.000  
  27442967.125                   144213359.307 0                        43.000  
                  27442970.162   110501131.872          45.000  
  26237467.459                   137878849.426 0                        44.000  
                  26237469.050   105647450.231          49.000  
  23265687.458                   122262043.600 0                        47.000  
                  23265687.100    93681311.187          51.000  
  24692939.875                   129762640.612 0                        39.000  
                  24692936.552    99428528.338          42.000  
  25518324.270                   134099726.313 0                        45.000  
                  25518324.216   102751757.847          49.000  
  25664527.883                   134868042.684 0                        46.000  
                  25664528.223   103340470.559          50.000  
 22  1 17 14  0 43.0010000  0 10G02G06G12G13G15G17G19G24G25G32
  24377268.468                   128103842.34510                        32.000  
                                                                
  23434598.561    23434598.060   123149235.729 0  95960448.705 0        41.000  
        42.000                                                  
  20742088.766    20742084.388   109000515.937 0  84935497.334 0        50.000  
        47.000                                                  
  25231338.433                   132592252.905 0                        26.000  
                                                                
  24021406.357    24021404.820   126233331.363 0  98363627.159 0        44.000  
        41.000                                                  
  23853575.401    23853570.630   125351063.255 0  97676278.927 0        42.000  
        39.000                                                  
  21663851.880                   113844290.162 0                        46.000  
                                                                
  20042912.066    20042909.278   105325660.728 0  82071959.764 0        51.000  
        51.000                                                  
  23175956.426    23175955.782   121790500.89110  94901697.997 0        43.000  
        43.000                                                  
  24445567.179    24445566.375   128462327.247 0 100100532.912 0        42.000  
        40.000                                                  
 22  1 17 14  0 42.0000000  0  0
 22  1 17 14  0 43.0010000  0  7E02E03E07E08E11E25E30
  23295139.074                   122416849.921 0                        49.000  
                  23295137.662    93799953.418          53.000  
  27443563.914                   144216496.456 0                        43.000  
                  27443567.023   110503535.647          45.000  
  26237296.810                   137877953.207 0                        44.000  
                  26237298.525   105646763.515          49.000  
  23266022.234                   122263802.493 0                        47.000  
                  23266021.823    93682658.911          51.000  
  24692878.942                   129762321.151 0                        39.000  
                  24692875.779    99428283.551          42.000  
  25518680.453                   134101598.723 0                        45.000  
                  25518680.596   102753192.537          49.000  
  25664166.071                   134866142.030 0                        46.000  
                  25664166.554   103339014.207          50.000  
 22  1 17 14  0 44.0010000  0 10G02G06G12G13G15G17G19G24G25G32
  24376710.650                   128100910.94310                        31.000  
                                                                
  23434213.591    23434213.126   123147212.961 0  95958872.511 0        41.000  
        42.000                                                  
  20741796.893    20741792.462   108998982.130 0  84934302.151 0        50.000  
        47.000                                                  
  25232076.192                   132596130.292 0                        26.000  
                                                                
  24022095.672    24022094.154   126236953.977 0  98366449.943 0        44.000  
        41.000                                                  
  23854157.645    23854152.838   125354123.286 0  97678663.374 0        42.000  
        39.000                                                  
  21664235.546                   113846306.571 0                        46.000  
                                                                
  20042985.793    20042982.970   105326047.949 0  82072261.488 0        51.000  
        51.000                                                  
  23175381.436    23175380.721   121787479.06110  94899343.319 0        43.000  
        43.000                                                  
  24445048.352    24445047.369   128459600.323 0 100098408.045 0        42.000  
        40.000                                                  
 22  1 17 14  0 43.0000000  0  0
 22  1 17 14  0 44.0010000  0  7E02E03E07E08E11E25E30
  23295138.145                   122416846.605 0                        49.000  
                  23295136.930    93799950.880          53.000  
  27444161.008                   144219633.751 0                        43.000  
                  27444164.135   110505939.535          45.000  
  26237126.375                   137877057.576 0                        44.000  
                  26237127.983   105646077.241          49.000  
  23266356.903                   122265561.918 0                        47.000  
                  23266356.742    93684007.033          51.000  
  24692818.080                   129762002.308 0                        39.000  
                  24692815.078    99428039.243          42.000  
  25519036.904                   134103471.332 0                        45.000  
                  25519036.940   102754627.398          49.000  
  25663804.527                   134864241.599 0                        46.000  
                  25663804.813   103337558.042          50.000  
 22  1 17 14  0 45.0010000  0 10G02G06G12G13G15G17G19G24G25G32
  24376152.904                   128097979.50510                        31.000  
                                                                
  23433828.656    23433828.209   123145190.554 0  95957296.605 0        41.000  
        42.000                                                  
  20741505.146    20741500.661   108997448.605 0  84933107.208 0        50.000  
        47.000                                                  
  25232813.914                   132600007.517 0                        26.000  
                                                                
  24022785.006    24022783.505   126240576.542 0  98369272.755 0        44.000  
        41.000                                                  
  23854739.978    23854735.190   125357183.455 0  97681047.912 0        42.000  
        38.000                                                  
  21664619.247                   113848323.441 0                        46.000  
                                                                
  20043059.521    20043056.751   105326435.598 0  82072563.553 0        50.000  
        51.000                                                  
  23174806.482    23174805.678   121784457.29210  94896988.706 0        43.000  
        43.000                                                  
  24444529.543    24444528.417   128456873.683 0 100096283.384 0        42.000  
        40.000                                                  
 22  1 17 14  0 44.0000000  0  0
 22  1 17 14  0 45.0010000  0  7E02E03E07E08E11E25E30
  23295137.609                   122416843.377 0                        49.000  
                  23295136.376    93799948.409          53.000  
  27444758.047                   144222770.955 0                        43.000  
                  27444761.139   110508343.371          45.000  
  26236956.030                   137876162.290 0                        44.000  
                  26236957.638   105645391.256          49.000  
  23266691.983                   122267321.622 0                        47.000  
                  23266691.447    93685355.375          51.000  
  24692757.415                   129761683.868 0                        39.000  
                  24692754.466    99427795.255          42.000  
  25519393.248                   134105343.942 0                        45.000  
                  25519393.284   102756062.261          49.000  
  25663442.912                   134862341.189 0                        46.000  
                  25663443.180   103336101.892          50.000  
 22  1 17 14  0 46.0010000  0 10G02G06G12G13G15G17G19G24G25G32
  24375595.212                   128095048.24310                        31.000  
                                                                
  23433443.954    23433443.436   123143168.610 0  95955721.064 0        41.000  
        42.000                                                  
  20741213.470    20741208.824   108995915.497 0  84931912.580 0        50.000  
        47.000                                                  
  25233551.512                   132603884.710 0                        26.000  
                                                                
  24023474.464    24023472.909   126244199.198 0  98372095.593 0        44.000  
        41.000                                                  
  23855322.348    23855317.577   125360243.891 0  97683432.660 0        42.000  
        38.000                                                  
  21665003.181                   113850340.906 0                        46.000  
                                                                
  20043133.409    20043130.657   105326823.811 0  82072866.061 0        51.000  
        51.000                                                  
  23174231.493    23174230.653   121781435.73710  94894634.254 0        43.000  
        43.000                                                  
  24444010.948    24444009.697   128454147.484 0 100094159.079 0        42.000  
        40.000                                                  
 22  1 17 14  0 45.0000000  0  0
 22  1 17 14  0 46.0010000  0  7E02E03E07E08E11E25E30
  23295137.144                   122416840.367 0                        49.000  
                  23295135.858    93799946.102          53.000  
  27445355.087                   144225908.200 0                        43.000  
                  27445358.018   110510747.225          45.000  
  26236785.720                   137875267.492 0                        44.000  
                  26236787.400   105644705.634          49.000  
  23267026.955                   122269081.733 0                        47.000  
                  23267026.401    93686704.036          51.000  
  24692696.875                   129761365.958 0                        40.000  
                  24692694.069    99427551.653          42.000  
  25519749.539                   134107216.651 0                        45.000  
                  25519749.646   102757497.190          49.000  
  25663081.386                   134860440.922 0                        46.000  
                  25663081.618   103334645.841          50.000  
 22  1 17 14  0 47.0010000  0 10G02G06G12G13G15G17G19G24G25G32
  24375037.359                   128092116.93210                        32.000  
                                                                
  23433059.216    23433058.698   123141146.984 0  95954145.755 0        41.000  
        42.000                                                  
  20740921.722    20740917.130   108994382.606 0  84930718.124 0        50.000  
        47.000                                                  
  25234289.324                   132607761.724 0                        26.000  
                                                                
  24024163.815    24024162.207   126247821.772 0  98374918.352 0        44.000  
        41.000                                                  
  23855904.842    23855899.982   125363304.409 0  97685817.484 0        42.000  
        38.000                                                  
  21665387.115                   113852358.759 0                        46.000  
                                                                
  20043207.280    20043204.635   105327212.397 0  82073168.855 0        51.000  
        51.000                                                  
  23173656.504    23173655.628   121778414.20010  94892279.817 0        43.000  
        43.000                                                  
  24443492.228    24443491.013   128451421.510 0 100092034.930 0        42.000  
        40.000                                                  
 22  1 17 14  0 46.0000000  0  0
 22  1 17 14  0 47.0010000  0  7E02E03E07E08E11E25E30
  23295136.537                   122416837.368 0                        49.000  
                  23295135.304    93799943.806          53.000  
  27445951.930                   144229045.293 0                        43.000  
                  27445955.022   110513150.969          45.000  
  26236615.589                   137874372.990 0                        44.000  
                  26236617.090   105644020.229          49.000  
  23267361.892                   122270842.071 0                        47.000  
                  23267361.392    93688052.855          51.000  
  24692636.424                   129761048.375 0                        39.000  
                  24692633.618    99427308.298          42.000  
  25520105.704                   134109089.287 0                        45.000  
                  25520105.937   102758932.067          49.000  
  25662719.627                   134858540.591 0                        46.000  
                  25662720.110   103333189.739          50.000  
 22  1 17 14  0 48.0000000  0 10G02G06G12G13G15G17G19G24G25G32
  24374479.881                   128089186.56810                        31.000  
                                                                
  23432674.496    23432674.121   123139125.762 0  95952570.797 0        41.000  
        42.000                                                  
  20740629.921    20740625.418   108992849.609 0  84929523.574 0        50.000  
        47.000                                                  
  25235026.046                   132611632.713 0                        26.000  
                                                                
  24024852.112    24024850.540   126251438.737 0  98377736.783 0        44.000  
        41.000                                                  
  23856486.390    23856481.404   125366360.047 0  97688198.499 0        42.000  
        38.000                                                  
  21665770.549                   113854373.149 0                        46.000  
                                                                
  20043280.882    20043278.220   105327599.098 0  82073470.183 0        51.000  
        51.000                                                  
  23173081.711    23173080.799   121775393.83710  94889926.292 0        43.000  
        43.000                                                  
  24442973.651    24442972.436   128448696.631 0 100089911.673 0        42.000  
        40.000                                                  
 22  1 17 14  0 47.0000000  0  0
 22  1 17 14  0 48.0000000  0  7E02E03E07E08E11E25E30
  23295135.733                   122416832.529 0                        49.000  
                  23295134.249    93799940.101          53.000  
  27446547.916                   144232177.230 0                        43.000  
                  27446551.061   110515550.761          45.000  
  26236445.190                   137873477.807 0                        44.000  
                  26236446.781   105643334.308          49.000  
  23267696.275                   122272598.995 0                        47.000  
                  23267695.704    93689399.077          51.000  
  24692575.919                   129760729.570 0                        39.000  
                  24692572.935    99427064.031          42.000  
  25520461.637                   134110958.093 0                        45.000  
                  25520461.530   102760364.009          49.000  
  25662358.119                   134856640.227 0                        46.000  
                  25662358.387   103331733.637          50.000  
 22  1 17 14  0 49.0000000  0 10G02G06G12G13G15G17G19G24G25G32
  24373922.243                   128086255.91410                        31.000  
                                                                
  23432290.044    23432289.722   123137105.529 0  95950996.583 0        41.000  
        42.000                                                  
  20740338.531    20740333.921   108991318.000 0  84928330.120 0        50.000  
        47.000                                                  
  25235763.786                   132615510.123 0                        27.000  
                                                                
  24025541.606    24025540.052   126255061.942 0  98380560.053 0        44.000  
        41.000                                                  
  23857069.080    23857064.024   125369421.551 0  97690584.082 0        42.000  
        38.000                                                  
  21666154.840                   113856392.643 0                        46.000  
                                                                
  20043355.253    20043352.430   105327989.274 0  82073774.212 0        51.000  
        51.000                                                  
  23172506.775    23172506.024   121772373.16610  94887572.517 0        43.000  
        43.000                                                  
  24442455.110    24442453.984   128445971.967 0 100087788.549 0        42.000  
        40.000                                                  
 22  1 17 14  0 48.0000000  0  0
 22  1 17 14  0 49.0000000  0  7E02E03E07E08E11E25E30
  23295135.143                   122416830.422 0                        49.000  
                  23295134.017    93799938.480          53.000  
  27447144.831                   144235314.871 0                        43.000  
                  27447148.154   110517954.918          45.000  
  26236275.238                   137872584.716 0                        44.000  
                  26236276.810   105642650.001          49.000  
  23268031.373                   122274360.609 0                        47.000  
                  23268030.944    93690748.889          51.000  
  24692515.843                   129760413.501 0                        39.000  
                  24692512.788    99426821.844          42.000  
  25520818.106                   134112831.401 0                        45.000  
                  25520818.053   102761799.397          49.000  
  25661996.432                   134854740.636 0                        46.000  
                  25661996.933   103330278.099          50.000  
 22  1 17 14  0 50.0000000  0 10G02G06G12G13G15G17G19G24G25G32
  24373364.336                   128083325.02510                        31.000  
                                                                
  23431905.681    23431905.342   123135085.405 0  95949422.458 0        41.000  
        42.000                                                  
  20740047.212    20740042.513   108989786.423 0  84927136.683 0        50.000  
        47.000                                                  
  25236501.366                   132619387.078 0                        27.000  
                                                                
  24026230.993    24026229.403   126258684.838 0  98383383.077 0        44.000  
        41.000                                                  
  23857651.557    23857646.625   125372482.915 0  97692969.548 0        42.000  
        38.000                                                  
  21666539.220                   113858412.359 0                        46.000  
                                                                
  20043429.481    20043426.729   105328379.629 0  82074078.389 0        51.000  
        51.000                                                  
  23171931.964    23171931.124   121769352.32410  94885218.612 0        43.000  
        43.000                                                  
  24441936.622    24441935.425   128443247.340 0 100085665.477 0        42.000  
        40.000                                                  
 22  1 17 14  0 49.0000000  0  0
 22  1 17 14  0 50.0000000  0  7E02E03E07E08E11E25E30
  23295134.786                   122416828.133 0                        49.000  
                  23295133.445    93799936.728          53.000  
  27447741.745                   144238452.146 0                        43.000  
                  27447745.087   110520358.806          45.000  
  26236105.196                   137871691.737 0                        44.000  
                  26236106.894   105641965.761          49.000  
  23268366.793                   122276122.264 0                        47.000  
                  23268366.149    93692098.720          51.000  
  24692455.589                   129760097.555 0                        40.000  
                  24692452.587    99426579.766          42.000  
  25521174.593                   134114704.439 0                        45.000  
                  25521174.486   102763234.582          49.000  
  25661635.031                   134852840.783 0                        46.000  
                  25661635.246   103328822.372          50.000  
 22  1 17 14  0 51.0000000  0 10G02G06G12G13G15G17G19G24G25G32
  24372806.501                   128080393.95110                        31.000  
                                                                
  23431521.283    23431520.925   123133065.469 0  95947848.484 0        41.000  
        42.000                                                  
  20739755.697    20739751.194   108988254.984 0  84925943.350 0        50.000  
        47.000                                                  
  25237239.124                   132623263.784 0                        26.000  
                                                                
  24026920.380    24026918.665   126262307.559 0  98386205.972 0        44.000  
        41.000                                                  
  23858234.105    23858229.173   125375544.278 0  97695355.017 0        42.000  
        38.000                                                  
  21666923.565                   113860432.401 0                        46.000  
                                                                
  20043503.816    20043501.064   105328770.281 0  82074382.786 0        51.000  
        50.000                                                  
  23171357.064    23171356.314   121766331.39510  94882864.664 0        43.000  
        43.000                                                  
  24441418.135    24441416.938   128440522.863 0 100083542.501 0        43.000  
        40.000                                                  
 22  1 17 14  0 50.0000000  0  0
 22  1 17 14  0 51.0000000  0  7E02E03E07E08E11E25E30
  23295134.303                   122416825.791 0                        49.000  
                  23295133.017    93799934.934          53.000  
  27448338.892                   144241589.221 0                        43.000  
                  27448342.109   110522762.526          45.000  
  26235935.280                   137870798.955 0                        44.000  
                  26235936.995   105641281.690          49.000  
  23268702.051                   122277884.051 0                        47.000  
                  23268701.390    93693448.663          51.000  
  24692395.853                   129759781.899 0                        40.000  
                  24692392.637    99426337.884          42.000  
  25521530.848                   134116577.309 0                        45.000  
                  25521530.741   102764669.636          49.000  
  25661273.612                   134850940.798 0                        46.000  
                  25661273.738   103327366.544          50.000  
 22  1 17 14  0 52.0000000  0 10G02G06G12G13G15G17G19G24G25G32
  24372248.737                   128077463.05910                        31.000  
                                                                
  23431136.974    23431136.509   123131045.990 0  95946274.880 0        41.000  
        42.000                                                  
  20739464.378    20739459.732   108986723.933 0  84924750.332 0        50.000  
        47.000                                                  
  25237976.668                   132627140.357 0                        26.000  
                                                                
  24027609.749    24027608.034   126265930.361 0  98389028.937 0        44.000  
        41.000                                                  
  23858816.582    23858811.757   125378605.873 0  97697740.699 0        42.000  
        38.000                                                  
  21667308.142                   113862453.009 0                        46.000  
                                                                
  20043578.348    20043575.417   105329161.475 0  82074687.617 0        51.000  
        50.000                                                  
  23170782.289    23170781.503   121763310.67310  94880510.844 0        44.000  
        43.000                                                  
  24440899.772    24440898.468   128437798.803 0 100081419.850 0        43.000  
        40.000                                                  
 22  1 17 14  0 51.0000000  0  0
 22  1 17 14  0 52.0000000  0  7E02E03E07E08E11E25E30
  23295133.946                   122416823.640 0                        49.000  
                  23295132.641    93799933.288          53.000  
  27448935.646                   144244726.301 0                        43.000  
                  27448939.184   110525166.254          45.000  
  26235765.631                   137869906.654 0                        44.000  
                  26235767.186   105640597.981          49.000  
  23269037.506                   122279646.243 0                        47.000  
                  23269036.702    93694798.914          51.000  
  24692335.724                   129759466.710 0                        40.000  
                  24692332.579    99426096.383          42.000  
  25521887.246                   134118450.271 0                        45.000  
                  25521887.246   102766104.765          49.000  
  25660912.122                   134849040.930 0                        46.000  
                  25660912.176   103325910.799          50.000  
 22  1 17 14  0 53.0000000  0 10G02G06G12G13G15G17G19G24G25G32
  24371691.045                   128074532.69010                        31.000  
                                                                
  23430752.897    23430752.539   123129027.515 0  95944702.045 0        41.000  
        42.000                                                  
  20739173.238    20739168.646   108985193.815 0  84923558.036 0        50.000  
        47.000                                                  
  25238714.516                   132631017.486 0                        26.000  
                                                                
  24028299.225    24028297.528   126269553.760 0  98391852.355 0        44.000  
        41.000                                                  
  23859399.326    23859394.466   125381668.272 0  97700126.970 0        42.000  
        38.000                                                  
  21667692.880                   113864474.721 0                        46.000  
                                                                
  20043653.005    20043650.146   105329553.764 0  82074993.294 0        51.000  
        50.000                                                  
  23170207.586    23170206.978   121760290.67410  94878157.593 0        44.000  
        43.000                                                  
  24440381.606    24440380.195   128435075.699 0 100079297.933 0        43.000  
        40.000                                                  
 22  1 17 14  0 52.0000000  0  0
 22  1 17 14  0 53.0000000  0  7E02E03E07E08E11E25E30
  23295133.588                   122416822.229 0                        49.000  
                  23295132.355    93799932.204          53.000  
  27449532.668                   144247863.940 0                        42.000  
                  27449536.296   110527570.412          45.000  
  26235596.036                   137869015.347 0                        44.000  
                  26235597.555   105639915.032          49.000  
  23269372.801                   122281409.354 0                        47.000  
                  23269372.283    93696149.866          51.000  
  24692276.059                   129759152.580 0                        40.000  
                  24692272.771    99425855.683          42.000  
  25522243.769                   134120323.861 0                        45.000  
                  25522243.715   102767540.370          49.000  
  25660550.721                   134847141.723 0                        46.000  
                  25660550.828   103324455.569          50.000  
 22  1 17 14  0 54.0000000  0 10G02G06G12G13G15G17G19G24G25G32
  24371133.424                   128071602.37310                        31.000  
                                                                
  23430368.784    23430368.463   123127009.296 0  95943129.402 0        41.000  
        42.000                                                  
  20738882.134    20738877.417   108983663.872 0  84922365.878 0        50.000  
        47.000                                                  
  25239452.185                   132634894.367 0                        26.000  
                                                                
  24028988.862    24028986.933   126273177.011 0  98394675.679 0        44.000  
        41.000                                                  
  23859982.053    23859977.335   125384730.683 0  97702513.262 0        42.000  
        38.000                                                  
  21668077.690                   113866496.805 0                        46.000  
                                                                
  20043727.626    20043724.820   105329946.370 0  82075299.225 0        51.000  
        50.000                                                  
  23169632.828    23169632.239   121757270.64510  94875804.331 0        44.000  
        43.000                                                  
  24439863.476    24439861.957   128432352.748 0 100077176.171 0        43.000  
        40.000                                                  
 22  1 17 14  0 53.0000000  0  0
 22  1 17 14  0 54.0000000  0  7E02E03E07E08E11E25E30
  23295133.445                   122416820.782 0                        49.000  
                  23295132.052    93799931.100          53.000  
  27450129.690                   144251001.379 0                        43.000  
                  27450133.228   110529974.430          45.000  
  26235426.459                   137868124.287 0                        44.000  
                  26235428.014   105639232.269          49.000  
  23269708.488                   122283172.646 0                        47.000  
                  23269707.773    93697500.965          51.000  
  24692216.216                   129758838.714 0                        40.000  
                  24692213.071    99425615.200          42.000  
  25522600.184                   134122197.315 0                        45.000  
                  25522600.309   102768975.879          49.000  
  25660189.124                   134845242.407 0                        46.000  
                  25660189.320   103323000.253          50.000  
 22  1 17 14  0 55.0000000  0 10G02G06G12G13G15G17G19G24G25G32
  24370575.714                   128068672.19710                        31.000  
                                                                
  23429984.904    23429984.565   123124991.716 0  95941557.248 0        41.000  
        42.000                                                  
  20738591.012    20738586.402   108982134.500 0  84921174.161 0        50.000  
        47.000                                                  
  25240189.693                   132638771.331 0                        26.000  
                                                                
  24029678.321    24029676.570   126276800.524 0  98397499.168 0        43.000  
        41.000                                                  
  23860564.923    23860560.259   125387793.508 0  97704899.865 0        42.000  
        38.000                                                  
  21668462.535                   113868519.621 0                        46.000  
                                                                
  20043802.479    20043799.602   105330339.697 0  82075605.721 0        51.000  
        50.000                                                  
  23169058.143    23169057.625   121754250.96610  94873451.339 0        44.000  
        43.000                                                  
  24439345.507    24439343.952   128429630.396 0 100075054.857 0        43.000  
        40.000                                                  
 22  1 17 14  0 54.0000000  0  0
 22  1 17 14  0 55.0000000  0  7E02E03E07E08E11E25E30
  23295133.124                   122416819.711 0                        49.000  
                  23295131.837    93799930.284          53.000  
  27450726.783                   144254139.026 0                        43.000  
                  27450730.393   110532378.592          45.000  
  26235257.115                   137867233.870 0                        44.000  
                  26235258.544   105638549.999          48.000  
  23270044.211                   122284936.505 0                        47.000  
                  23270043.389    93698852.495          51.000  
  24692156.533                   129758525.574 0                        40.000  
                  24692153.460    99425375.245          42.000  
  25522956.939                   134124071.054 0                        45.000  
                  25522956.868   102770411.599          49.000  
  25659827.758                   134843343.382 0                        46.000  
                  25659828.044   103321545.158          50.000  
 22  1 17 14  0 56.0000000  0 10G02G06G12G13G15G17G19G24G25G32
  24370018.183                   128065741.97410                        30.000  
                                                                
  23429600.970    23429600.738   123122974.408 0  95939985.341 0        41.000  
        42.000                                                  
  20738300.086    20738295.458   108980605.361 0  84919982.623 0        50.000  
        47.000                                                  
  25240927.469                   132642648.084 0                        27.000  
                                                                
  24030367.833    24030366.010   126280423.913 0  98400322.589 0        43.000  
        41.000                                                  
  23861147.774    23861143.236   125390856.418 0  97707286.559 0        42.000  
        38.000                                                  
  21668847.434                   113870542.870 0                        46.000  
                                                                
  20043877.350    20043874.563   105330733.418 0  82075912.514 0        50.000  
        50.000                                                  
  23168483.529    23168482.921   121751231.31010  94871098.360 0        44.000  
        43.000                                                  
  24438827.609    24438825.911   128426908.287 0 100072933.747 0        43.000  
        40.000                                                  
 22  1 17 14  0 55.0000000  0  0
 22  1 17 14  0 56.0000000  0  7E02E03E07E08E11E25E30
  23295132.945                   122416818.675 0                        49.000  
                  23295131.605    93799929.486          53.000  
  27451323.895                   144257276.515 0                        43.000  
                  27451327.469   110534782.645          45.000  
  26235087.788                   137866343.761 0                        44.000  
                  26235089.146   105637867.961          48.000  
  23270379.988                   122286700.599 0                        47.000  
                  23270379.166    93700204.201          51.000  
  24692096.958                   129758212.747 0                        39.000  
                  24692093.884    99425135.556          42.000  
  25523313.516                   134125944.720 0                        45.000  
                  25523313.390   102771847.256          49.000  
  25659466.429                   134841444.324 0                        46.000  
                  25659466.608   103320090.043          50.000  
 22  1 17 14  0 57.0000000  0 10G02G06G12G13G15G17G19G24G25G32
  24369460.348                   128062811.50210                        30.000  
                                                                
  23429217.197    23429217.001   123120957.160 0  95938413.450 0        41.000  
        42.000                                                  
  20738009.089    20738004.372   108979076.173 0  84918791.052 0        50.000  
        47.000                                                  
  25241665.067                   132646524.314 0                        27.000  
                                                                
  24031057.309    24031055.469   126284046.962 0  98403145.732 0        44.000  
        41.000                                                  
  23861730.501    23861726.105   125393919.131 0  97709673.112 0        42.000  
        38.000                                                  
  21669232.493                   113872566.245 0                        46.000  
                                                                
  20043952.275    20043949.398   105331127.239 0  82076219.388 0        51.000  
        50.000                                                  
  23167908.879    23167908.253   121748211.41010  94868745.203 0        44.000  
        43.000                                                  
  24438309.532    24438307.817   128424186.146 0 100070812.589 0        43.000  
        39.000                                                  
 22  1 17 14  0 56.0000000  0  0
 22  1 17 14  0 57.0000000  0  7E02E03E07E08E11E25E30
  23295132.695                   122416817.393 0                        49.000  
                  23295131.480    93799928.508          53.000  
  27451920.935                   144260413.616 0                        43.000  
                  27451924.330   110537186.382          45.000  
  26234918.264                   137865453.663 0                        44.000  
                  26234919.819   105637185.949          48.000  
  23270715.515                   122288464.645 0                        47.000  
                  23270714.907    93701555.871          51.000  
  24692037.543                   129757900.014 0                        40.000  
                  24692034.416    99424895.909          42.000  
  25523669.895                   134127818.028 0                        45.000  
                  25523669.985   102773282.650          49.000  
  25659105.010                   134839544.932 0                        46.000  
                  25659105.224   103318634.671          50.000  
 22  1 17 14  0 58.0000000  0 10G02G06G12G13G15G17G19G24G25G32
  24368902.727                   128059881.14110                        30.000  
                                                                
  23428833.389    23428833.246   123118940.466 0  95936842.000 0        41.000  
        42.000                                                  
  20737718.200    20737713.375   108977547.514 0  84917599.889 0        50.000  
        47.000                                                  
  25242402.664                   132650400.726 0                        27.000  
                                                                
  24031746.785    24031744.998   126287670.184 0  98405969.025 0        43.000  
        41.000                                                  
  23862313.424    23862308.903   125396982.208 0  97712059.902 0        42.000  
        38.000                                                  
  21669617.642                   113874590.311 0                        46.000  
                                                                
  20044027.343    20044024.377   105331521.728 0  82076526.782 0        50.000  
        50.000                                                  
  23167334.300    23167333.568   121745191.82510  94866392.265 0        44.000  
        43.000                                                  
  24437791.688    24437789.901   128421464.542 0 100068691.841 0        43.000  
        39.000                                                  
 22  1 17 14  0 57.0000000  0  0
 22  1 17 14  0 58.0000000  0  7E02E03E07E08E11E25E30
  23295132.463                   122416816.427 0                        49.000  
                  23295131.355    93799927.766          53.000  
  27452517.742                   144263550.841 0                        43.000  
                  27452521.387   110539590.225          45.000  
  26234749.098                   137864564.170 0                        44.000  
                  26234750.617   105636504.378          49.000  
  23271051.417                   122290229.208 0                        47.000  
                  23271050.630    93702907.941          51.000  
  24691978.254                   129757587.894 0                        39.000  
                  24691975.145    99424656.764          42.000  
  25524026.418                   134129691.547 0                        45.000  
                  25524026.418   102774718.203          49.000  
  25658743.698                   134837645.789 0                        46.000  
                  25658743.913   103317179.484          50.000  
 22  1 17 14  0 59.0000000  0 10G02G06G12G13G15G17G19G24G25G32
  24368345.178                   128056951.44710                        30.000  
                                                                
  23428449.919    23428449.616   123116924.662 0  95935271.257 0        41.000  
        42.000                                                  
  20737427.471    20737422.574   108976019.646 0  84916409.347 0        50.000  
        47.000                                                  
  25243140.405                   132654277.432 0                        27.000  
                                                                
  24032436.458    24032434.600   126291293.899 0  98408792.699 0        43.000  
        41.000                                                  
  23862896.455    23862891.934   125400045.939 0  97714447.228 0        42.000  
        38.000                                                  
  21670003.059                   113876615.376 0                        46.000  
                                                                
  20044102.661    20044099.694   105331917.186 0  82076834.933 0        51.000  
        50.000                                                  
  23166759.847    23166759.132   121742172.83810  94864039.824 0        44.000  
        43.000                                                  
  24437273.951    24437272.021   128418743.742 0 100066571.764 0        43.000  
        39.000                                                  
 22  1 17 14  0 58.0000000  0  0
 22  1 17 14  0 59.0000000  0  7E02E03E07E08E11E25E30
  23295132.516                   122416816.064 0                        49.000  
                  23295131.140    93799927.494          53.000  
  27453114.978                   144266688.515 0                        43.000  
                  27453118.516   110541994.405          45.000  
  26234579.986                   137863675.540 0                        44.000  
                  26234581.433   105635823.484          49.000  
  23271387.390                   122291994.596 0                        47.000  
                  23271386.515    93704260.638          51.000  
  24691918.893                   129757276.710 0                        39.000  
                  24691915.873    99424418.320          42.000  
  25524382.941                   134131565.580 0                        45.000  
                  25524382.959   102776154.150          49.000  
  25658382.369                   134835747.178 0                        46.000  
                  25658382.530   103315724.703          50.000  
 22  1 17 14  1  0.0000000  0 10G02G06G12G13G15G17G19G24G25G32
  24367787.736                   128054021.87510                        30.000  
                                                                
  23428066.450    23428066.128   123114909.376 0  95933700.882 0        41.000  
        42.000                                                  
  20737136.688    20737132.024   108974492.210 0  84915219.144 0        50.000  
        47.000                                                  
  25243878.074                   132658154.135 0                        27.000  
                                                                
  24033126.113    24033124.147   126294917.729 0  98411616.457 0        43.000  
        41.000                                                  
  23863479.557    23863475.018   125403109.955 0  97716834.761 0        42.000  
        38.000                                                  
  21670388.512                   113878641.035 0                        46.000  
                                                                
  20044178.014    20044175.066   105332313.225 0  82077143.535 0        51.000  
        50.000                                                  
  23166185.340    23166184.661   121739154.05610  94861687.536 0        44.000  
        43.000                                                  
  24436756.232    24436754.373   128416023.394 0 100064452.015 0        43.000  
        39.000                                                  
 22  1 17 14  0 59.0000000  0  0
 22  1 17 14  1  0.0000000  0  7E02E03E07E08E11E25E30
  23295132.463                   122416815.934 0                        49.000  
                  23295131.194    93799927.395          53.000  
  27453712.036                   144269826.241 0                        43.000  
                  27453715.521   110544398.626          45.000  
  26234410.963                   137862787.418 0                        44.000  
                  26234412.517   105635142.977          48.000  
  23271723.363                   122293760.392 0                        47.000  
                  23271722.613    93705613.651          51.000  
  24691859.639                   129756966.032 0                        39.000  
                  24691856.691    99424180.283          42.000  
  25524739.553                   134133439.730 0                        45.000  
                  25524739.696   102777590.187          49.000  
  25658021.004                   134833848.716 0                        46.000  
                  25658021.254   103314270.047          50.000  
 22  1 17 14  1  1.0000000  0 10G02G06G12G13G15G17G19G24G25G32
  24367230.222                   128051092.21310                        30.000  
                                                                
  23427683.052    23427682.677   123112894.408 0  95932130.765 0        42.000  
        42.000                                                  
  20736845.977    20736841.420   108972965.038 0  84914029.131 0        50.000  
        47.000                                                  
  25244615.671                   132662030.694 0                        27.000  
                                                                
  24033815.697    24033813.624   126298541.476 0  98414440.161 0        43.000  
        41.000                                                  
  23864062.659    23864058.031   125406174.074 0  97719222.402 0        42.000  
        38.000                                                  
  21670774.089                   113880667.139 0                        46.000  
                                                                
  20044253.368    20044250.527   105332709.675 0  82077452.455 0        50.000  
        50.000                                                  
  23165610.797    23165610.154   121736135.35110  94859335.305 0        44.000  
        43.000                                                  
  24436238.638    24436236.761   128413303.327 0 100062332.462 0        43.000  
        39.000                                                  
 22  1 17 14  1  0.0000000  0  0
 22  1 17 14  1  1.0000000  0  7E02E03E07E08E11E25E30
  23295132.212                   122416815.864 0                        49.000  
                  23295131.105    93799927.336          53.000  
  27454309.022                   144272963.850 0                        43.000  
                  27454312.560   110546802.761          45.000  
  26234242.065                   137861899.630 0                        44.000  
                  26234243.530   105634462.717          48.000  
  23272059.337                   122295526.463 0                        47.000  
                  23272058.658    93706966.870          51.000  
  24691800.654                   129756655.746 0                        39.000  
                  24691797.670    99423942.523          42.000  
  25525096.236                   134135313.854 0                        45.000  
                  25525096.308   102779026.200          49.000  
  25657659.817                   134831950.233 0                        46.000  
                  25657660.031   103312815.372          50.000  
 22  1 17 14  1  2.0000000  0 10G02G06G12G13G15G17G19G24G25G32
  24366672.744                   128048162.35710                        29.000  
                                                                
  23427299.619    23427299.261   123110879.616 0  95930560.822 0        41.000  
        42.000                                                  
  20736555.426    20736550.852   108971437.974 0  84912839.223 0        50.000  
        47.000                                                  
  25245353.180                   132665906.877 0                        27.000  
                                                                
  24034505.280    24034503.136   126302165.013 0  98417263.698 0        43.000  
        41.000                                                  
  23864645.761    23864641.115   125409238.181 0  97721610.007 0        42.000  
        38.000                                                  
  21671159.757                   113882693.555 0                        46.000  
                                                                
  20044328.918    20044326.024   105333106.415 0  82077761.603 0        50.000  
        50.000                                                  
  23165036.398    23165035.790   121733116.56410  94856982.998 0        44.000  
        43.000                                                  
  24435721.008    24435719.114   128410583.390 0 100060213.044 0        43.000  
        39.000                                                  
 22  1 17 14  1  1.0000000  0  0
 22  1 17 14  1  2.0000000  0  7E02E03E07E08E11E25E30
  23295132.373                   122416815.726 0                        49.000  
                  23295131.122    93799927.239          53.000  
  27454906.080                   144276101.213 0                        43.000  
                  27454909.636   110549206.714          45.000  
  26234073.292                   137861012.038 0                        44.000  
                  26234074.578   105633782.622          48.000  
  23272395.543                   122297292.655 0                        47.000  
                  23272394.703    93708320.185          51.000  
  24691741.543                   129756345.716 0                        39.000  
                  24691738.773    99423704.965          42.000  
  25525452.956                   134137187.798 0                        45.000  
                  25525452.974   102780462.077          49.000  
  25657298.684                   134830051.616 0                        46.000  
                  25657298.738   103311360.587          50.000  
 22  1 17 14  1  3.0000000  0 10G02G06G12G13G15G17G19G24G25G32
  24366115.034                   128045232.56910                        29.000  
                                                                
  23426916.275    23426915.899   123108865.149 0  95928991.108 0        41.000  
        42.000                                                  
  20736264.697    20736260.284   108969911.175 0  84911649.509 0        50.000  
        47.000                                                  
  25246090.849                   132669782.890 0                        27.000  
                                                                
  24035194.756    24035192.505   126305788.499 0  98420087.178 0        43.000  
        41.000                                                  
  23865228.845    23865224.252   125412302.385 0  97723997.712 0        42.000  
        38.000                                                  
  21671545.477                   113884720.402 0                        46.000  
                                                                
  20044404.433    20044401.520   105333503.549 0  82078071.063 0        50.000  
        50.000                                                  
  23164461.962    23164461.408   121730097.81510  94854630.740 0        44.000  
        43.000                                                  
  24435203.485    24435201.555   128407863.735 0 100058093.825 0        43.000  
        39.000                                                  
 22  1 17 14  1  2.0000000  0  0
 22  1 17 14  1  3.0000000  0  7E02E03E07E08E11E25E30
  23295132.248                   122416815.647 0                        49.000  
                  23295131.176    93799927.172          53.000  
  27455502.923                   144279238.464 0                        42.000  
                  27455506.586   110551610.568          45.000  
  26233904.340                   137860124.772 0                        44.000  
                  26233905.680   105633102.764          48.000  
  23272731.444                   122299059.102 0                        47.000  
                  23272731.016    93709673.694          51.000  
  24691682.790                   129756036.040 0                        39.000  
                  24691679.770    99423467.661          42.000  
  25525809.300                   134139061.684 0                        45.000  
                  25525809.568   102781897.914          48.000  
  25656937.051                   134828152.969 0                        46.000  
                  25656937.408   103309905.780          50.000  
 22  1 17 14  1  4.0000000  0 10G02G06G12G13G15G17G19G24G25G32
  24365557.396                   128042303.03810                        29.000  
                                                                
  23426533.073    23426532.752   123106851.413 0  95927421.936 0        41.000  
        42.000                                                  
  20735974.326    20735969.912   108968384.998 0  84910460.282 0        50.000  
        47.000                                                  
  25246828.393                   132673659.079 0                        27.000  
                                                                
  24035884.322    24035882.142   126309412.279 0  98422910.900 0        43.000  
        41.000                                                  
  23865812.090    23865807.426   125415367.053 0  97726385.762 0        42.000  
        38.000                                                  
  21671931.305                   113886748.041 0                        46.000  
                                                                
  20044480.019    20044477.285   105333901.472 0  82078381.123 0        50.000  
        50.000                                                  
  23163887.705    23163887.080   121727079.50010  94852278.797 0        43.000  
        43.000                                                  
  24434686.070    24434684.229   128405144.707 0 100055975.118 0        43.000  
        39.000                                                  
 22  1 17 14  1  3.0000000  0  0
 22  1 17 14  1  4.0000000  0  7E02E03E07E08E11E25E30
  23295132.534                   122416815.981 0                        49.000  
                  23295131.212    93799927.426          53.000  
  27456100.070                   144282375.953 0                        42.000  
                  27456103.608   110554014.625          45.000  
  26233735.639                   137859238.190 0                        44.000  
                  26233737.033   105632423.435          48.000  
  23273067.954                   122300826.162 0                        47.000  
                  23273067.132    93711027.680          51.000  
  24691624.072                   129755727.093 0                        39.000  
                  24691620.873    99423230.957          42.000  
  25526166.073                   134140935.899 0                        45.000  
                  25526166.144   102783333.996          48.000  
  25656576.061                   134826254.674 0                        46.000  
                  25656576.132   103308451.240          50.000  
 22  1 17 14  1  5.0000000  0 10G02G06G12G13G15G17G19G24G25G32
  24364999.829                   128039373.87210                        29.000  
                                                                
  23426149.979    23426149.765   123104838.279 0  95925853.282 0        41.000  
        42.000                                                  
  20735684.061    20735679.630   108966859.410 0  84909271.508 0        50.000  
        47.000                                                  
  25247566.044                   132677535.480 0                        27.000  
                                                                
  24036573.941    24036571.761   126313036.334 0  98425734.830 0        43.000  
        41.000                                                  
  23866395.352    23866390.778   125418432.166 0  97728774.157 0        42.000  
        38.000                                                  
  21672317.294                   113888776.447 0                        46.000  
                                                                
  20044555.962    20044553.121   105334300.120 0  82078691.767 0        50.000  
        50.000                                                  
  23163313.359    23163312.662   121724061.53410  94849927.156 0        43.000  
        43.000                                                  
  24434168.726    24434166.975   128402426.278 0 100053856.841 0        43.000  
        39.000                                                  
 22  1 17 14  1  4.0000000  0  0
 22  1 17 14  1  5.0000000  0  7E02E03E07E08E11E25E30
  23295132.463                   122416816.703 0                        49.000  
                  23295131.337    93799927.984          53.000  
  27456697.271                   144285513.661 0                        43.000  
                  27456700.773   110556418.832          45.000  
  26233566.991                   137858352.278 0                        44.000  
                  26233568.528   105631744.619          48.000  
  23273404.231                   122302593.821 0                        47.000  
                  23273403.606    93712382.118          51.000  
  24691565.533                   129755418.852 0                        39.000  
                  24691562.281    99422994.778          42.000  
  25526522.685                   134142810.386 0                        45.000  
                  25526522.881   102784770.298          48.000  
  25656214.785                   134824356.676 0                        46.000  
                  25656214.999   103306996.939          50.000  
 22  1 17 14  1  6.0000000  0 10G02G06G12G13G15G17G19G24G25G32
  24364442.297                   128036444.51210                        28.000  
                                                                
  23425766.814    23425766.832   123102825.403 0  95924284.796 0        41.000  
        42.000                                                  
  20735393.708    20735389.455   108965333.975 0  84908082.867 0        50.000  
        47.000                                                  
  25248303.677                   132681411.499 0                        27.000  
                                                                
  24037263.560    24037261.452   126316660.225 0  98428558.640 0        43.000  
        41.000                                                  
  23866978.651    23866974.112   125421497.286 0  97731162.558 0        42.000  
        38.000                                                  
  21672703.372                   113890805.198 0                        46.000  
                                                                
  20044631.870    20044629.046   105334699.084 0  82079002.658 0        51.000  
        50.000                                                  
  23162738.959    23162738.370   121721043.55910  94847575.485 0        43.000  
        43.000                                                  
  24433651.489    24433649.720   128399708.037 0 100051738.754 0        43.000  
        39.000                                                  
 22  1 17 14  1  5.0000000  0  0
 22  1 17 14  1  6.0000000  0  7E02E03E07E08E11E25E30
  23295132.802                   122416817.387 0                        49.000  
                  23295131.462    93799928.517          53.000  
  27457294.221                   144288651.165 0                        43.000  
                  27457297.849   110558822.889          45.000  
  26233398.540                   137857466.596 0                        44.000  
                  26233399.880   105631065.982          48.000  
  23273740.740                   122304361.641 0                        47.000  
                  23273740.044    93713736.679          51.000  
  24691506.744                   129755110.891 0                        39.000  
                  24691503.742    99422758.814          42.000  
  25526879.386                   134144684.736 0                        45.000  
                  25526879.529   102786206.491          48.000  
  25655853.598                   134822458.569 0                        46.000  
                  25655853.759   103305542.563          50.000  
 22  1 17 14  1  7.0000000  0 10G02G06G12G13G15G17G19G24G25G32
  24363884.748                   128033515.57110                        28.000  
                                                                
  23425383.899    23425384.024   123100813.240 0  95922716.884 0        41.000  
        42.000                                                  
  20735103.586    20735099.333   108963809.210 0  84906894.740 0        50.000  
        47.000                                                  
  25249041.364                   132685287.744 0                        27.000  
                                                                
  24037953.144    24037951.089   126320284.454 0  98431382.700 0        43.000  
        41.000                                                  
  23867562.057    23867557.411   125424562.924 0  97733551.367 0        42.000  
        38.000                                                  
  21673089.700                   113892834.786 0                        46.000  
                                                                
  20044707.938    20044705.133   105335098.877 0  82079314.173 0        50.000  
        50.000                                                  
  23162164.613    23162164.131   121718026.00710  94845224.132 0        43.000  
        43.000                                                  
  24433134.431    24433132.555   128396990.468 0 100049621.119 0        43.000  
        39.000                                                  
 22  1 17 14  1  6.0000000  0  0
 22  1 17 14  1  7.0000000  0  7E02E03E07E08E11E25E30
  23295132.981                   122416818.537 0                        49.000  
                  23295131.730    93799929.389          53.000  
  27457891.440                   144291788.950 0                        43.000  
                  27457894.853   110561227.164          45.000  
  26233230.071                   137856581.646 0                        44.000  
                  26233231.554   105630387.899          48.000  
  23274077.357                   122306130.119 0                        47.000  
                  23274076.499    93715091.749          51.000  
  24691448.044                   129754803.704 0                        39.000  
                  24691445.310    99422523.426          42.000  
  25527236.177                   134146559.455 0                        44.000  
                  25527236.177   102787642.955          48.000  
  25655492.340                   134820560.849 0                        46.000  
                  25655492.590   103304088.460          50.000  
 22  1 17 14  1  8.0000000  0 10G02G06G12G13G15G17G19G24G25G32
  24363327.270                   128030586.90410                        27.000  
                                                                
  23425001.091    23425001.251   123098801.755 0  95921149.493 0        42.000  
        42.000                                                  
  20734813.572    20734809.230   108962285.022 0  84905707.063 0        50.000  
        47.000                                                  
  25249778.926                   132689164.203 0                        28.000  
                                                                
  24038642.852    24038640.833   126323908.912 0  98434206.973 0        43.000  
        41.000                                                  
  23868145.516    23868140.816   125427628.989 0  97735940.485 0        42.000  
        38.000                                                  
  21673476.029                   113894865.134 0                        46.000  
                                                                
  20044784.221    20044781.344   105335499.394 0  82079626.266 0        51.000  
        50.000                                                  
  23161590.499    23161589.999   121715008.84310  94842873.109 0        43.000  
        43.000                                                  
  24432617.337    24432615.568   128394273.473 0 100047504.004 0        42.000  
        39.000                                                  
 22  1 17 14  1  7.0000000  0  0
 22  1 17 14  1  8.0000000  0  7E02E03E07E08E11E25E30
  23295133.249                   122416820.060 0                        49.000  
                  23295132.016    93799930.560          53.000  
  27458488.676                   144294926.961 0                        43.000  
                  27458492.053   110563631.598          45.000  
  26233061.852                   137855697.347 0                        44.000  
                  26233063.317   105629710.317          48.000  
  23274413.867                   122307899.177 0                        47.000  
                  23274413.045    93716447.259          51.000  
  24691390.095                   129754497.180 0                        39.000  
                  24691386.986    99422288.559          42.000  
  25527593.057                   134148434.436 0                        44.000  
                  25527593.075   102789079.631          48.000  
  25655131.350                   134818663.438 0                        46.000  
                  25655131.565   103302634.599          50.000  
 22  1 17 14  1  9.0000000  0 10G02G06G12G13G15G17G19G24G25G32
  24362769.775                   128027657.91610                        27.000  
                                                                
  23424618.354    23424618.443   123096790.205 0  95919582.070 0        42.000  
        42.000                                                  
  20734523.522    20734519.126   108960760.728 0  84904519.309 0        50.000  
        47.000                                                  
  25250516.470                   132693040.070 0                        28.000  
                                                                
  24039332.400    24039330.470   126327532.964 0  98437030.899 0        43.000  
        41.000                                                  
  23868728.868    23868724.294   125430694.786 0  97738329.430 0        42.000  
        38.000                                                  
  21673862.464                   113896895.561 0                        46.000  
                                                                
  20044860.343    20044857.484   105335899.960 0  82079938.401 0        51.000  
        50.000                                                  
  23161016.350    23161015.832   121711991.36710  94840521.840 0        43.000  
        43.000                                                  
  24432100.279    24432098.635   128391556.397 0 100045386.813 0        43.000  
        39.000                                                  
 22  1 17 14  1  8.0000000  0  0
 22  1 17 14  1  9.0000000  0  7E02E03E07E08E11E25E30
  23295133.481                   122416821.287 0                        49.000  
                  23295132.212    93799931.503          53.000  
  27459085.734                   144298064.482 0                        43.000  
                  27459089.165   110566035.668          45.000  
  26232893.865                   137854813.019 0                        44.000  
                  26232895.080   105629032.719          48.000  
  23274750.394                   122309668.127 0                        47.000  
                  23274749.786    93717802.690          51.000  
  24691331.574                   129754190.680 0                        39.000  
                  24691328.572    99422053.713          42.000  
  25527949.669                   134150309.017 0                        45.000  
                  25527949.812   102790516.000          49.000  
  25654770.360                   134816765.639 0                        46.000  
                  25654770.521   103301180.453          50.000  
 22  1 17 14  1 10.0000000  0 10G02G06G12G13G15G17G19G24G25G32
  24362212.333                   128024728.88210                        27.000  
                                                                
  23424235.600    23424235.743   123094779.019 0  95918014.907 0        42.000  
        42.000                                                  
  20734233.543    20734229.166   108959236.720 0  84903331.768 0        50.000  
        47.000                                                  
  25251253.888                   132696915.780 0                        28.000  
                                                                
  24040022.037    24040020.179   126331156.970 0  98439854.788 0        43.000  
        41.000                                                  
  23869312.202    23869307.699   125433760.730 0  97740718.468 0        42.000  
        38.000                                                  
  21674248.971                   113898926.451 0                        46.000  
                                                                
  20044936.590    20044933.803   105336300.965 0  82080250.869 0        50.000  
        50.000                                                  
  23160442.218    23160441.575   121708973.97010  94838170.622 0        43.000  
        43.000                                                  
  24431583.275    24431581.667   128388839.620 0 100043269.844 0        43.000  
        39.000                                                  
 22  1 17 14  1  9.0000000  0  0
 22  1 17 14  1 10.0000000  0  7E02E03E07E08E11E25E30
  23295133.713                   122416822.587 0                        49.000  
                  23295132.516    93799932.499          53.000  
  27459682.952                   144301201.909 0                        43.000  
                  27459686.044   110568439.668          45.000  
  26232725.521                   137853929.031 0                        44.000  
                  26232726.790   105628355.382          48.000  
  23275087.100                   122311437.362 0                        47.000  
                  23275086.421    93719158.338          51.000  
  24691273.321                   129753884.579 0                        39.000  
                  24691270.426    99421819.170          42.000  
  25528306.317                   134152183.587 0                        45.000  
                  25528306.621   102791952.352          49.000  
  25654409.066                   134814867.846 0                        46.000  
                  25654409.352   103299726.304          50.000  
 22  1 17 14  1 11.0000000  0 10G02G06G12G13G15G17G19G24G25G32
  24361655.016                   128021799.87710                        27.000  
                                                                
  23423853.006    23423853.113   123092768.273 0  95916448.086 0        41.000  
        42.000                                                  
  20733943.619    20733939.205   108957713.063 0  84902144.512 0        50.000  
        47.000                                                  
  25251991.397                   132700791.403 0                        28.000  
                                                                
  24040711.728    24040709.744   126334781.017 0  98442678.707 0        43.000  
        41.000                                                  
  23869895.662    23869891.230   125436826.868 0  97743107.682 0        42.000  
        38.000                                                  
  21674635.585                   113900957.867 0                        46.000  
                                                                
  20045013.123    20045010.318   105336702.465 0  82080563.729 0        51.000  
        50.000                                                  
  23159868.033    23159867.390   121705956.72110  94835819.514 0        43.000  
        43.000                                                  
  24431066.378    24431064.841   128386123.219 0 100041153.179 0        43.000  
        39.000                                                  
 22  1 17 14  1 10.0000000  0  0
 22  1 17 14  1 11.0000000  0  7E02E03E07E08E11E25E30
  23295133.892                   122416824.057 0                        49.000  
                  23295132.748    93799933.623          53.000  
  27460279.849                   144304339.310 0                        43.000  
                  27460283.083   110570843.655          45.000  
  26232557.570                   137853045.498 0                        44.000  
                  26232558.624   105627678.380          48.000  
  23275423.788                   122313206.952 0                        47.000  
                  23275423.109    93720514.260          51.000  
  24691215.247                   129753578.962 0                        39.000  
                  24691212.245    99421584.991          42.000  
  25528663.001                   134154058.192 0                        45.000  
                  25528663.322   102793388.742          49.000  
  25654048.130                   134812970.139 0                        46.000  
                  25654048.148   103298272.219          50.000  
 22  1 17 14  1 12.0000000  0  9G06G12G13G15G17G19G24G25G32
  23423470.484    23423470.627   123090758.203 0  95914881.806 0        41.000  
        42.000                                                  
  20733653.819    20733649.405   108956190.049 0  84900957.745 0        50.000  
        47.000                                                  
  25252728.994                   132704667.267 0                        28.000  
                                                                
  24041401.454    24041399.381   126338405.357 0  98445502.877 0        43.000  
        41.000                                                  
  23870479.246    23870474.886   125439893.486 0  97745497.251 0        42.000  
        38.000                                                  
  21675022.325                   113902990.117 0                        46.000  
                                                                
  20045089.746    20045086.779   105337104.766 0  82080877.208 0        51.000  
        50.000                                                  
  23159293.901    23159293.258   121702939.89910  94833468.746 0        43.000  
        43.000                                                  
  24430549.605    24430548.069   128383407.466 0 100039037.004 0        43.000  
        39.000                                                  
 22  1 17 14  1 11.0000000  0  0
 22  1 17 14  1 12.0000000  0  7E02E03E07E08E11E25E30
  23295134.392                   122416825.956 0                        49.000  
                  23295133.106    93799935.080          53.000  
  27460876.942                   144307477.004 0                        43.000  
                  27460880.159   110573247.849          45.000  
  26232389.655                   137852162.654 0                        44.000  
                  26232390.691   105627001.914          49.000  
  23275760.744                   122314977.184 0                        47.000  
                  23275759.994    93721870.669          51.000  
  24691157.172                   129753274.093 0                        39.000  
                  24691154.206    99421351.395          42.000  
  25529019.774                   134155933.152 0                        45.000  
                  25529020.060   102794825.393          49.000  
  25653687.069                   134811072.792 0                        46.000  
                  25653687.140   103296818.412          50.000  
 22  1 17 14  1 13.0000000  0  9G06G12G13G15G17G19G24G25G32
  23423088.051    23423088.265   123088748.710 0  95913315.967 0        42.000  
        42.000                                                  
  20733364.108    20733359.623   108954667.502 0  84899771.347 0        49.000  
        47.000                                                  
  25253466.484                   132708543.089 0                        28.000  
                                                                
  24042091.288    24042089.108   126342029.867 0  98448327.155 0        43.000  
        41.000                                                  
  23871062.884    23871058.488   125442960.428 0  97747887.084 0        42.000  
        38.000                                                  
  21675409.243                   113905022.997 0                        46.000  
                                                                
  20045166.422    20045163.420   105337507.695 0  82081191.179 0        51.000  
        50.000                                                  
  23158719.841    23158719.180   121699923.35710  94831118.203 0        43.000  
        43.000                                                  
  24430032.905    24430031.457   128380692.204 0 100036921.219 0        43.000  
        39.000                                                  
 22  1 17 14  1 12.0000000  0  0
 22  1 17 14  1 13.0000000  0  7E02E03E07E08E11E25E30
  23295134.768                   122416828.127 0                        49.000  
                  23295133.588    93799936.744          53.000  
  27461473.982                   144310614.775 0                        43.000  
                  27461477.324   110575652.110          45.000  
  26232221.686                   137851280.354 0                        44.000  
                  26232222.722   105626325.870          49.000  
  23276097.647                   122316747.889 0                        47.000  
                  23276096.950    93723227.443          51.000  
  24691099.169                   129752969.815 0                        39.000  
                  24691096.203    99421118.244          42.000  
  25529376.689                   134157808.270 0                        44.000  
                  25529376.868   102796262.174          49.000  
  25653325.882                   134809175.647 0                        46.000  
                  25653326.114   103295364.758          50.000  
 22  1 17 14  1 14.0000000  0  9G06G12G13G15G17G19G24G25G32
  23422705.707    23422705.993   123086739.622 0  95911750.440 0        42.000  
        42.000                                                  
  20733074.434    20733069.966   108953145.298 0  84898585.214 0        49.000  
        47.000                                                  
  25254204.100                   132712418.832 0                        28.000  
                                                                
  24042780.996    24042778.888   126345654.377 0  98451151.462 0        43.000  
        41.000                                                  
  23871646.612    23871642.055   125446027.564 0  97750277.058 0        42.000  
        38.000                                                  
  21675796.268                   113907056.420 0                        46.000  
                                                                
  20045243.115    20045240.203   105337911.114 0  82081505.536 0        50.000  
        50.000                                                  
  23158145.816    23158145.137   121696906.94910  94828767.753 0        43.000  
        43.000                                                  
  24429516.222    24429514.828   128377977.293 0 100034805.704 0        43.000  
        39.000                                                  
 22  1 17 14  1 13.0000000  0  0
