     2.11           OBSERVATION DATA    M (Mixed)           RINEX VERSION / TYPE
RTCM3TORINEX on                         2022-01-19 00:59    PGM / RUN BY / DATE
RTCM3TORINEX                                                MARKER NAME
                                                            OBSERVER / AGENCY
                                                            REC # / TYPE / VERS
                                                            ANT # / TYPE
         .0000         .0000         .0000                  APPROX POSITION XYZ
         .0000         .0000         .0000                  ANTENNA: DELTA H/E/N
     1     1                                                WAVELENGTH FACT L1/2
     9    C1    C2    L1    L2    S1    S2    C7    L7    S7# / TYPES OF OBSERV
  2022     1    19     0    59   21.0010000     GPS         TIME OF FIRST OBS
                                                            END OF HEADER
 22  1 19  0 59 21.0010000  0  8E03E05E08E09E13E15E21E27
  24543187.635                   128975829.202 0                        47.000  
                  24543186.867    98825639.291          52.000  
  24150705.410                   126913099.919 0                        47.000  
                  24150703.677    97245203.739          51.000  
  26551469.686                   139528545.97310                        43.000  
                  26551466.666   106911484.214          41.000  
  25906442.987                   136139640.931 0                        37.000  
                  25906441.915   104314792.801          43.000  
  27806218.255                   146122532.819 0                        40.000  
                  27806216.593   111964018.075          43.000  
  23694992.432                   124518373.126 0                        48.000  
                  23694991.967    95410185.405          52.000  
  28474537.886                   149634690.86610                        35.000  
                  28474536.350   114655360.233          40.000  
  28378835.885                   149130991.88510                        38.000  
                  28378834.973   114269220.493          40.000  
 22  1 19  0 59 22.0010000  0  9G01G03G08G10G14G17G21G27G32
  20860315.064    20860311.759   109621450.989 0  85419315.674 0        49.000  
        48.000                                                  
  22916224.226    22916221.921   120425370.95110  93837997.577 0        44.000  
        46.000                                                  
  21857013.749    21857011.230   114858764.819 0  89500335.400 0        47.000  
        48.000                                                  
  24159920.983    24159919.464   126961599.996 0  98931119.105 0        39.000  
        40.000                                                  
  24591160.529    24591155.383   129227024.073 0 100696162.320 0        41.000  
        41.000                                                  
  25253148.916    25253142.823   132705457.200 0 103407894.581 0        39.000  
        37.000                                                  
  20845265.166                   109542607.402 0                        47.000  
                                                                
  23969791.756    23969788.253   125962086.700 0  98151794.996 0        42.000  
        40.000                                                  
  21559146.339    21559142.604   113293706.442 0  88280524.334 0        49.000  
        46.000                                                  
 22  1 19  0 59 21.0000000  0  0
 22  1 19  0 59 22.0010000  0  8E03E05E08E09E13E15E21E27
  24542784.921                   128973712.755 0                        47.000  
                  24542784.170    98824017.599          52.000  
  24150838.248                   126913798.770 0                        47.000  
                  24150836.658    97245739.220          51.000  
  26550867.464                   139525381.17910                        43.000  
                  26550864.301   106909059.242          41.000  
  25906957.704                   136142346.422 0                        37.000  
                  25906956.685   104316865.831          43.000  
  27805714.438                   146119884.391 0                        40.000  
                  27805712.669   111961988.761          43.000  
  23694727.738                   124516982.402 0                        48.000  
                  23694727.381    95409119.790          52.000  
  28474663.023                   149635348.75710                        35.000  
                  28474661.469   114655864.336          40.000  
  28379279.019                   149133321.20910                        38.000  
                  28379278.268   114271005.297          40.000  
 22  1 19  0 59 23.0010000  0  9G01G03G08G10G14G17G21G27G32
  20859935.401    20859932.060   109619455.547 0  85417760.791 0        49.000  
        48.000                                                  
  22915676.398    22915674.021   120422492.05110  93835754.279 0        44.000  
        46.000                                                  
  21857528.913    21857526.447   114861472.470 0  89502445.257 0        47.000  
        48.000                                                  
  24160498.171    24160496.634   126964632.824 0  98933482.357 0        39.000  
        40.000                                                  
  24591304.018    24591298.889   129227777.971 0 100696749.789 0        41.000  
        41.000                                                  
  25252527.092    25252521.177   132702189.961 0 103405348.681 0        39.000  
        37.000                                                  
  20845193.600                   109542231.185 0                        47.000  
                                                                
  23970510.537    23970507.142   125965864.244 0  98154738.545 0        42.000  
        40.000                                                  
  21559330.425    21559326.780   113294673.794 0  88281278.113 0        49.000  
        46.000                                                  
 22  1 19  0 59 22.0000000  0  0
 22  1 19  0 59 23.0010000  0  8E03E05E08E09E13E15E21E27
  24542382.332                   128971596.568 0                        47.000  
                  24542381.385    98822396.104          52.000  
  24150971.176                   126914497.958 0                        47.000  
                  24150969.711    97246274.964          51.000  
  26550265.260                   139522216.31810                        43.000  
                  26550262.097   106906634.223          41.000  
  25907472.600                   136145051.980 0                        37.000  
                  25907471.438   104318938.935          43.000  
  27805210.299                   146117235.849 0                        40.000  
                  27805208.584   111959959.360          43.000  
  23694463.009                   124515591.800 0                        48.000  
                  23694462.633    95408054.270          52.000  
  28474788.178                   149636006.96010                        35.000  
                  28474786.570   114656368.696          40.000  
  28379722.474                   149135650.60310                        38.000  
                  28379721.634   114272790.169          40.000  
 22  1 19  0 59 24.0010000  0  9G01G03G08G10G14G17G21G27G32
  20859555.738    20859552.468   109617460.544 0  85416206.243 0        49.000  
        48.000                                                  
  22915128.677    22915126.211   120419613.49210  93833511.255 0        44.000  
        46.000                                                  
  21858044.202    21858041.861   114864180.643 0  89504555.529 0        47.000  
        48.000                                                  
  24161075.411    24161073.803   126967665.847 0  98935845.730 0        39.000  
        40.000                                                  
  24591447.613    24591442.628   129228532.532 0 100697337.761 0        41.000  
        41.000                                                  
  25251905.429    25251899.389   132698922.987 0 103402803.003 0        39.000  
        37.000                                                  
  20845122.142                   109541855.399 0                        47.000  
                                                                
  23971229.408    23971226.209   125969642.036 0  98157682.283 0        42.000  
        40.000                                                  
  21559514.548    21559510.992   113295641.845 0  88282032.439 0        49.000  
        46.000                                                  
 22  1 19  0 59 23.0000000  0  0
 22  1 19  0 59 24.0010000  0  8E03E05E08E09E13E15E21E27
  24541979.635                   128969480.807 0                        47.000  
                  24541978.831    98820774.941          52.000  
  24151104.354                   126915197.686 0                        47.000  
                  24151102.853    97246811.119          51.000  
  26549662.806                   139519051.56310                        43.000  
                  26549659.947   106904209.280          42.000  
  25907987.478                   136147757.832 0                        37.000  
                  25907986.334   104321012.243          43.000  
  27804706.357                   146114587.380 0                        40.000  
                  27804704.516   111957930.005          43.000  
  23694198.529                   124514201.517 0                        48.000  
                  23694198.172    95406988.984          52.000  
  28474913.493                   149636665.76710                        35.000  
                  28474911.939   114656873.476          40.000  
  28380165.947                   149137980.31210                        38.000  
                  28380164.965   114274575.257          40.000  
 22  1 19  0 59 25.0010000  0  9G01G03G08G10G14G17G21G27G32
  20859176.236    20859172.912   109615465.836 0  85414651.929 0        49.000  
        48.000                                                  
  22914580.866    22914578.471   120416735.13010  93831268.375 0        43.000  
        46.000                                                  
  21858559.670    21858557.222   114866889.189 0  89506666.079 0        47.000  
        48.000                                                  
  24161652.581    24161651.026   126970698.860 0  98938209.108 0        39.000  
        40.000                                                  
  24591591.387    24591586.259   129229287.607 0 100697926.119 0        41.000  
        41.000                                                  
  25251283.694    25251277.851   132695656.151 0 103400257.421 0        39.000  
        37.000                                                  
  20845050.702                   109541479.884 0                        47.000  
                                                                
  23971948.296    23971945.187   125973419.853 0  98160626.023 0        42.000  
        40.000                                                  
  21559698.849    21559695.311   113296610.472 0  88282787.217 0        49.000  
        46.000                                                  
 22  1 19  0 59 24.0000000  0  0
 22  1 19  0 59 25.0010000  0  8E03E05E08E09E13E15E21E27
  24541577.082                   128967365.352 0                        47.000  
                  24541576.242    98819154.005          52.000  
  24151237.514                   126915897.793 0                        47.000  
                  24151236.048    97247347.562          51.000  
  26549060.477                   139515886.78610                        43.000  
                  26549057.636   106901784.322          42.000  
  25908502.356                   136150463.784 0                        37.000  
                  25908501.141   104323085.630          43.000  
  27804202.415                   146111938.855 0                        40.000  
                  27804200.485   111955900.610          43.000  
  23693933.978                   124512811.398 0                        48.000  
                  23693933.639    95405923.826          52.000  
  28475038.880                   149637324.94110                        34.000  
                  28475037.361   114657378.575          40.000  
  28380609.296                   149140310.10510                        38.000  
                  28380608.349   114276360.437          40.000  
 22  1 19  0 59 26.0010000  0  9G01G03G08G10G14G17G21G27G32
  20858796.698    20858793.446   109613471.461 0  85413097.867 0        49.000  
        48.000                                                  
  22914033.252    22914030.911   120413857.03210  93829025.697 0        43.000  
        46.000                                                  
  21859075.191    21859072.832   114869598.157 0  89508776.962 0        47.000  
        48.000                                                  
  24162229.715    24162228.196   126973731.892 0  98940572.551 0        39.000  
        40.000                                                  
  24591735.144    24591730.051   129230043.230 0 100698514.919 0        41.000  
        41.000                                                  
  25250662.013    25250656.241   132692389.450 0 103397711.937 0        38.000  
        37.000                                                  
  20844979.244                   109541104.688 0                        47.000  
                                                                
  23972667.149    23972664.183   125977197.789 0  98163569.869 0        42.000  
        40.000                                                  
  21559883.275    21559879.683   113297579.708 0  88283542.466 0        49.000  
        46.000                                                  
 22  1 19  0 59 25.0000000  0  0
 22  1 19  0 59 26.0010000  0  8E03E05E08E09E13E15E21E27
  24541174.636                   128965250.245 0                        47.000  
                  24541173.850    98817533.339          52.000  
  24151370.942                   126916598.342 0                        47.000  
                  24151369.369    97247884.351          51.000  
  26548458.255                   139512722.02210                        43.000  
                  26548455.628   106899359.365          42.000  
  25909017.448                   136153169.903 0                        37.000  
                  25909016.287   104325159.143          43.000  
  27803698.419                   146109290.290 0                        40.000  
                  27803696.507   111953871.196          43.000  
  23693669.374                   124511421.497 0                        48.000  
                  23693669.088    95404858.834          52.000  
  28475164.124                   149637984.58510                        34.000  
                  28475162.802   114657884.012          39.000  
  28381052.412                   149142640.09610                        38.000  
                  28381051.643   114278145.743          40.000  
 22  1 19  0 59 27.0010000  0  9G01G03G08G10G14G17G21G27G32
  20858417.160    20858413.997   109611477.374 0  85411544.031 0        49.000  
        48.000                                                  
  22913485.602    22913483.118   120410979.10110  93826783.160 0        44.000  
        46.000                                                  
  21859590.802    21859588.354   114872307.510 0  89510888.146 0        47.000  
        48.000                                                  
  24162806.884    24162805.329   126976764.973 0  98942935.961 0        39.000  
        40.000                                                  
  24591879.061    24591874.075   129230799.352 0 100699104.105 0        41.000  
        41.000                                                  
  25250040.367    25250034.703   132689122.866 0 103395166.556 0        38.000  
        37.000                                                  
  20844907.982                   109540729.757 0                        47.000  
                                                                
  23973386.020    23973383.197   125980975.791 0  98166513.767 0        42.000  
        40.000                                                  
  21560067.791    21560064.217   113298549.514 0  88284298.150 0        49.000  
        46.000                                                  
 22  1 19  0 59 26.0000000  0  0
 22  1 19  0 59 27.0010000  0  8E03E05E08E09E13E15E21E27
  24540772.333                   128963135.415 0                        47.000  
                  24540771.368    98815912.887          52.000  
  24151504.173                   126917299.273 0                        47.000  
                  24151502.761    97248421.431          51.000  
  26547856.105                   139509557.24010                        43.000  
                  26547853.478   106896934.398          42.000  
  25909532.416                   136155876.119 0                        37.000  
                  25909531.308   104327232.733          43.000  
  27803194.405                   146106641.662 0                        40.000  
                  27803192.440   111951841.721          43.000  
  23693405.055                   124510031.762 0                        49.000  
                  23693404.608    95403793.971          52.000  
  28475289.422                   149638644.61810                        34.000  
                  28475288.296   114658389.740          39.000  
  28381495.867                   149144970.20610                        38.000  
                  28381495.153   114279931.148          41.000  
 22  1 19  0 59 28.0010000  0  9G01G03G08G10G14G17G21G27G32
  20858037.800    20858034.548   109609483.584 0  85409990.435 0        49.000  
        48.000                                                  
  22912938.006    22912935.576   120408101.39610  93824540.783 0        44.000  
        46.000                                                  
  21860106.412    21860103.946   114875017.262 0  89512999.638 0        47.000  
        48.000                                                  
  24163384.000    24163382.499   126979798.054 0  98945299.407 0        39.000  
        40.000                                                  
  24592023.067    24592018.046   129231556.012 0 100699693.714 0        41.000  
        41.000                                                  
  25249418.811    25249413.147   132685856.402 0 103392621.285 0        38.000  
        37.000                                                  
  20844836.702                   109540355.113 0                        47.000  
                                                                
  23974104.891    23974102.103   125984753.870 0  98169457.717 0        42.000  
        40.000                                                  
  21560252.431    21560248.768   113299519.898 0  88285054.305 0        49.000  
        46.000                                                  
 22  1 19  0 59 27.0000000  0  0
 22  1 19  0 59 28.0010000  0  8E03E05E08E09E13E15E21E27
  24540370.012                   128961020.907 0                        47.000  
                  24540369.065    98814292.677          52.000  
  24151637.619                   126918000.610 0                        47.000  
                  24151636.207    97248958.811          51.000  
  26547253.883                   139506392.44310                        43.000  
                  26547251.167   106894509.431          42.000  
  25910047.312                   136158582.467 0                        37.000  
                  25910046.275   104329306.439          43.000  
  27802690.374                   146103992.977 0                        40.000  
                  27802688.390   111949812.209          43.000  
  23693140.629                   124508642.207 0                        49.000  
                  23693140.183    95402729.251          52.000  
  28475415.005                   149639305.04810                        34.000  
                  28475413.826   114658895.811          39.000  
  28381939.377                   149147300.44610                        38.000  
                  28381938.519   114281716.654          41.000  
 22  1 19  0 59 29.0010000  0  9G01G03G08G10G14G17G21G27G32
  20857658.441    20857655.278   109607490.066 0  85408437.040 0        49.000  
        48.000                                                  
  22912390.410    22912388.087   120405223.85810  93822298.553 0        44.000  
        46.000                                                  
  21860622.220    21860619.771   114877727.383 0  89515111.424 0        47.000  
        48.000                                                  
  24163961.223    24163959.704   126982831.120 0  98947662.829 0        39.000  
        40.000                                                  
  24592167.109    24592162.035   129232313.170 0 100700283.710 0        41.000  
        41.000                                                  
  25248797.273    25248791.609   132682590.047 0 103390076.069 0        38.000  
        36.000                                                  
  20844765.405                   109539980.712 0                        47.000  
                                                                
  23974823.833    23974821.099   125988531.975 0  98172401.693 0        42.000  
        40.000                                                  
  21560437.179    21560433.409   113300490.819 0  88285810.862 0        49.000  
        46.000                                                  
 22  1 19  0 59 28.0000000  0  0
 22  1 19  0 59 29.0010000  0  8E03E05E08E09E13E15E21E27
  24539967.655                   128958906.678 0                        47.000  
                  24539966.583    98812672.679          52.000  
  24151771.154                   126918702.324 0                        47.000  
                  24151769.760    97249496.491          51.000  
  26546651.536                   139503227.59910                        43.000  
                  26546648.981   106892084.430          42.000  
  25910562.440                   136161288.938 0                        37.000  
                  25910561.261   104331380.217          43.000  
  27802186.235                   146101344.203 0                        40.000  
                  27802184.359   111947782.627          43.000  
  23692876.275                   124507252.801 0                        49.000  
                  23692875.846    95401664.644          52.000  
  28475540.607                   149639965.90110                        34.000  
                  28475539.481   114659402.152          39.000  
  28382382.939                   149149630.77310                        38.000  
                  28382381.939   114283502.254          41.000  
 22  1 19  0 59 30.0010000  0  9G01G03G08G10G14G17G21G27G32
  20857279.243    20857276.008   109605497.262 0  85406884.212 0        49.000  
        48.000                                                  
  22911843.010    22911840.651   120402346.94910  93820056.805 0        44.000  
        46.000                                                  
  21861138.098    21861135.793   114880438.309 0  89517223.833 0        47.000  
        48.000                                                  
  24164538.553    24164536.963   126985864.618 0  98950026.609 0        39.000  
        40.000                                                  
  24592311.455    24592306.309   129233071.237 0 100700874.417 0        41.000  
        41.000                                                  
  25248175.860    25248170.177   132679324.267 0 103387531.257 0        38.000  
        36.000                                                  
  20844694.233                   109539607.016 0                        47.000  
                                                                
  23975542.883    23975540.113   125992310.553 0  98175346.058 0        42.000  
        40.000                                                  
  21560622.034    21560618.335   113301462.723 0  88286568.190 0        49.000  
        46.000                                                  
 22  1 19  0 59 29.0000000  0  0
 22  1 19  0 59 30.0010000  0  8E03E05E08E09E13E15E21E27
  24539565.495                   128956793.171 0                        47.000  
                  24539564.476    98811053.241          52.000  
  24151904.743                   126919404.837 0                        47.000  
                  24151903.474    97250034.782          51.000  
  26546049.422                   139500063.14910                        43.000  
                  26546046.848   106889659.714          42.000  
  25911077.586                   136163995.914 0                        37.000  
                  25911076.371   104333454.418          43.000  
  27801682.168                   146098695.784 0                        40.000  
                  27801680.363   111945753.325          43.000  
  23692611.956                   124505863.980 0                        49.000  
                  23692611.510    95400600.489          52.000  
  28475666.208                   149640627.55410                        34.000  
                  28475665.404   114659909.144          39.000  
  28382826.591                   149151961.69110                        38.000  
                  28382825.501   114285288.271          41.000  
 22  1 19  0 59 31.0010000  0  9G01G03G08G10G14G17G21G27G32
  20856900.026    20856896.863   109603504.751 0  85405331.613 0        49.000  
        48.000                                                  
  22911295.575    22911293.144   120399470.26210  93817815.231 0        44.000  
        46.000                                                  
  21861654.013    21861651.690   114883149.634 0  89519336.558 0        47.000  
        48.000                                                  
  24165115.919    24165114.275   126988898.145 0  98952390.381 0        39.000  
        40.000                                                  
  24592455.801    24592450.619   129233829.860 0 100701465.528 0        41.000  
        40.000                                                  
  25247554.357    25247548.782   132676058.572 0 103384986.583 0        38.000  
        36.000                                                  
  20844623.150                   109539233.605 0                        47.000  
                                                                
  23976261.968    23976259.252   125996089.236 0  98178290.459 0        42.000  
        40.000                                                  
  21560807.050    21560803.512   113302435.211 0  88287325.975 0        49.000  
        46.000                                                  
 22  1 19  0 59 30.0000000  0  0
 22  1 19  0 59 31.0010000  0  8E03E05E08E09E13E15E21E27
  24539163.227                   128954679.960 0                        47.000  
                  24539162.280    98809434.030          52.000  
  24152038.475                   126920107.755 0                        47.000  
                  24152037.188    97250573.386          51.000  
  26545447.235                   139496898.68110                        43.000  
                  26545444.627   106887234.992          42.000  
  25911592.607                   136166703.072 0                        37.000  
                  25911591.535   104335528.705          43.000  
  27801178.243                   146096047.318 0                        40.000  
                  27801176.421   111943723.981          43.000  
  23692347.870                   124504475.364 0                        49.000  
                  23692347.263    95399536.475          52.000  
  28475792.203                   149641289.62510                        34.000  
                  28475791.452   114660416.438          39.000  
  28383269.993                   149154292.73710                        38.000  
                  28383269.153   114287074.384          41.000  
 22  1 19  0 59 32.0010000  0  9G01G03G08G10G14G17G21G27G32
  20856520.881    20856517.700   109601511.929 0  85403778.758 0        49.000  
        48.000                                                  
  22910748.157    22910745.709   120396593.15310  93815573.335 0        44.000  
        46.000                                                  
  21862169.963    21862167.568   114885860.724 0  89521449.091 0        47.000  
        48.000                                                  
  24165693.035    24165691.355   126991931.068 0  98954753.706 0        39.000  
        40.000                                                  
  24592600.112    24592594.894   129234588.368 0 100702056.583 0        41.000  
        40.000                                                  
  25246932.783    25246927.155   132672792.390 0 103382441.515 0        38.000  
        36.000                                                  
  20844551.977                   109538859.862 0                        47.000  
                                                                
  23976980.875    23976978.105   125999867.374 0  98181234.471 0        42.000  
        40.000                                                  
  21560992.102    21560988.474   113303407.666 0  88288083.726 0        49.000  
        46.000                                                  
 22  1 19  0 59 31.0000000  0  0
 22  1 19  0 59 32.0010000  0  8E03E05E08E09E13E15E21E27
  24538760.978                   128952566.450 0                        48.000  
                  24538760.174    98807814.587          52.000  
  24152172.278                   126920810.467 0                        47.000  
                  24152170.956    97251111.826          51.000  
  26544844.906                   139493733.58210                        43.000  
                  26544842.423   106884809.795          43.000  
  25912107.842                   136169409.713 0                        37.000  
                  25912106.627   104337602.620          43.000  
  27800673.997                   146093398.180 0                        40.000  
                  27800672.443   111941694.111          43.000  
  23692083.444                   124503086.296 0                        49.000  
                  23692082.980    95398472.126          52.000  
  28475918.358                   149641951.50110                        34.000  
                  28475917.268   114660923.583          39.000  
  28383713.306                   149156623.27110                        38.000  
                  28383712.716   114288860.142          41.000  
 22  1 19  0 59 33.0010000  0  9G01G03G08G10G14G17G21G27G32
  20856141.683    20856138.591   109599519.661 0  85402226.344 0        49.000  
        48.000                                                  
  22910200.829    22910198.309   120393716.50710  93813331.792 0        44.000  
        46.000                                                  
  21862685.931    21862683.644   114888572.444 0  89523562.123 0        47.000  
        48.000                                                  
  24166270.294    24166268.596   126994964.278 0  98957117.244 0        39.000  
        40.000                                                  
  24592744.654    24592739.401   129235347.650 0 100702648.227 0        40.000  
        40.000                                                  
  25246311.245    25246305.724   132669526.604 0 103379896.767 0        38.000  
        35.000                                                  
  20844481.073                   109538486.655 0                        47.000  
                                                                
  23977699.835    23977697.101   126003645.820 0  98184178.706 0        42.000  
        40.000                                                  
  21561177.207    21561173.704   113304380.953 0  88288842.133 0        49.000  
        46.000                                                  
 22  1 19  0 59 32.0000000  0  0
 22  1 19  0 59 33.0010000  0  8E03E05E08E09E13E15E21E27
  24538359.121                   128950453.506 0                        48.000  
                  24538357.978    98806195.580          52.000  
  24152306.242                   126921513.828 0                        47.000  
                  24152304.795    97251650.758          51.000  
  26544242.631                   139490568.74110                        43.000  
                  26544240.237   106882384.783          43.000  
  25912622.935                   136172116.718 0                        37.000  
                  25912621.809   104339676.837          43.000  
  27800170.073                   146090749.233 0                        40.000  
                  27800168.429   111939664.398          43.000  
  23691819.304                   124501697.671 0                        49.000  
                  23691818.804    95397408.115          52.000  
  28476044.388                   149642614.00910                        34.000  
                  28476043.441   114661431.237          39.000  
  28384156.797                   149158954.24710                        38.000  
                  28384156.261   114290646.196          40.000  
 22  1 19  0 59 34.0010000  0  9G01G03G08G10G14G17G21G27G32
  20855762.716    20855759.625   109597528.104 0  85400674.479 0        49.000  
        48.000                                                  
  22909653.572    22909651.053   120390840.49810  93811090.749 0        44.000  
        46.000                                                  
  21863202.024    21863199.826   114891284.981 0  89525675.790 0        47.000  
        48.000                                                  
  24166847.588    24166845.927   126997997.893 0  98959481.100 0        39.000  
        40.000                                                  
  24592889.340    24592884.032   129236107.878 0 100703240.621 0        40.000  
        41.000                                                  
  25245689.832    25245684.346   132666261.344 0 103377352.431 0        37.000  
        35.000                                                  
  20844410.187                   109538114.142 0                        47.000  
                                                                
  23978419.045    23978416.257   126007424.758 0  98187123.349 0        42.000  
        40.000                                                  
  21561362.705    21561359.024   113305355.225 0  88289601.306 0        49.000  
        46.000                                                  
 22  1 19  0 59 33.0000000  0  0
 22  1 19  0 59 34.0010000  0  8E03E05E08E09E13E15E21E27
  24537957.175                   128948341.273 0                        48.000  
                  24537956.085    98804577.116          52.000  
  24152440.260                   126922218.002 0                        47.000  
                  24152438.794    97252190.324          51.000  
  26543640.266                   139487404.25810                        43.000  
                  26543638.033   106879960.056          43.000  
  25913137.884                   136174824.263 0                        37.000  
                  25913136.937   104341751.452          43.000  
  27799666.256                   146088100.632 0                        40.000  
                  27799664.451   111937634.960          43.000  
  23691555.129                   124500309.629 0                        49.000  
                  23691554.664    95396344.549          52.000  
  28476170.740                   149643277.36110                        34.000  
                  28476169.775   114661939.520          39.000  
  28384600.396                   149161285.72510                        38.000  
                  28384599.913   114292432.669          40.000  
 22  1 19  0 59 35.0010000  0  9G01G03G08G10G14G17G21G27G32
  20855383.804    20855380.677   109595536.858 0  85399122.858 0        49.000  
        48.000                                                  
  22909106.369    22909103.796   120387964.70010  93808849.870 0        44.000  
        46.000                                                  
  21863718.349    21863716.009   114893997.917 0  89527789.759 0        47.000  
        48.000                                                  
  24167424.954    24167423.185   127001031.549 0  98961844.986 0        40.000  
        40.000                                                  
  24593034.061    24593028.825   129236868.648 0 100703833.411 0        40.000  
        41.000                                                  
  25245068.508    25245063.058   132662996.242 0 103374808.169 0        37.000  
        35.000                                                  
  20844339.390                   109537741.925 0                        47.000  
                                                                
  23979138.130    23979135.450   126011203.776 0  98190068.038 0        42.000  
        40.000                                                  
  21561548.239    21561544.487   113306330.072 0  88290360.927 0        49.000  
        46.000                                                  
 22  1 19  0 59 34.0000000  0  0
 22  1 19  0 59 35.0010000  0  8E03E05E08E09E13E15E21E27
  24537555.337                   128946229.365 0                        48.000  
                  24537554.211    98802958.901          52.000  
  24152574.260                   126922922.580 0                        47.000  
                  24152572.866    97252730.194          51.000  
  26543038.152                   139484239.81110                        43.000  
                  26543035.757   106877535.340          43.000  
  25913653.316                   136177531.970 0                        37.000  
                  25913652.190   104343826.186          43.000  
  27799162.135                   146085451.990 0                        40.000  
                  27799160.563   111935605.470          43.000  
  23691290.935                   124498921.785 0                        49.000  
                  23691290.524    95395281.131          52.000  
  28476297.020                   149643941.14510                        34.000  
                  28476296.180   114662448.141          39.000  
  28385044.137                   149163617.37310                        38.000  
                  28385043.601   114294219.255          40.000  
 22  1 19  0 59 36.0010000  0  9G01G03G08G10G14G17G21G27G32
  20855004.998    20855001.853   109593545.878 0  85397571.450 0        49.000  
        48.000                                                  
  22908559.148    22908556.629   120385089.09110  93806609.126 0        44.000  
        46.000                                                  
  21864234.711    21864232.316   114896711.208 0  89529904.014 0        47.000  
        48.000                                                  
  24168002.249    24168000.426   127004065.197 0  98964208.872 0        40.000  
        40.000                                                  
  24593178.889    24593173.707   129237629.897 0 100704426.589 0        40.000  
        41.000                                                  
  25244447.238    25244441.663   132659731.216 0 103372264.022 0        37.000  
        34.000                                                  
  20844268.646                   109537369.960 0                        47.000  
                                                                
  23979857.233    23979854.589   126014982.844 0  98193012.762 0        42.000  
        41.000                                                  
  21561733.863    21561730.039   113307305.483 0  88291120.992 0        49.000  
        46.000                                                  
 22  1 19  0 59 35.0000000  0  0
 22  1 19  0 59 36.0010000  0  8E03E05E08E09E13E15E21E27
  24537153.570                   128944117.730 0                        48.000  
                  24537152.390    98801340.897          52.000  
  24152708.224                   126923627.532 0                        47.000  
                  24152707.026    97253270.354          51.000  
  26542435.948                   139481075.28710                        42.000  
                  26542433.607   106875110.586          43.000  
  25914168.587                   136180239.767 0                        37.000  
                  25914167.444   104345900.983          43.000  
  27798657.961                   146082803.263 0                        40.000  
                  27798656.477   111933575.932          43.000  
  23691026.938                   124497534.081 0                        49.000  
                  23691026.510    95394217.832          52.000  
  28476423.229                   149644605.34010                        34.000  
                  28476422.461   114662957.026          39.000  
  28385487.914                   149165949.13510                        38.000  
                  28385487.307   114296005.919          40.000  
 22  1 19  0 59 37.0010000  0  9G01G03G08G10G14G17G21G27G32
  20854626.247    20854622.959   109591555.116 0  85396020.209 0        49.000  
        48.000                                                  
  22908011.909    22908009.390   120382213.58110  93804368.485 0        44.000  
        46.000                                                  
  21864750.965    21864748.642   114899424.806 0  89532018.504 0        47.000  
        48.000                                                  
  24168579.597    24168577.739   127007098.768 0  98966572.693 0        39.000  
        40.000                                                  
  24593323.807    24593318.679   129238391.548 0 100705020.097 0        40.000  
        41.000                                                  
  25243825.932    25243820.303   132656466.255 0 103369719.856 0        36.000  
        34.000                                                  
  20844197.867                   109536998.192 0                        47.000  
                                                                
  23980576.426    23980573.727   126018761.891 0  98195957.486 0        42.000  
        40.000                                                  
  21561919.665    21561915.751   113308281.372 0  88291881.420 0        49.000  
        46.000                                                  
 22  1 19  0 59 36.0000000  0  0
 22  1 19  0 59 37.0010000  0  8E03E05E08E09E13E15E21E27
  24536751.660                   128942006.324 0                        48.000  
                  24536750.605    98799723.066          52.000  
  24152842.402                   126924332.806 0                        47.000  
                  24152841.258    97253810.754          51.000  
  26541833.815                   139477910.68710                        42.000  
                  26541831.439   106872685.758          43.000  
  25914683.930                   136182947.606 0                        37.000  
                  25914682.643   104347975.825          43.000  
  27798153.947                   146080154.392 0                        40.000  
                  27798152.231   111931546.276          43.000  
  23690762.834                   124496146.475 0                        49.000  
                  23690762.388    95393154.604          52.000  
  28476549.724                   149645269.79010                        34.000  
                  28476549.027   114663466.180          39.000  
  28385931.602                   149168280.95110                        37.000  
                  28385931.012   114297792.621          41.000  
 22  1 19  0 59 38.0010000  0  9G01G03G08G10G14G17G21G27G32
  20854247.423    20854244.243   109589564.921 0  85394469.403 0        49.000  
        48.000                                                  
  22907464.760    22907462.240   120379338.56610  93802128.214 0        44.000  
        46.000                                                  
  21865267.415    21865265.199   114902139.057 0  89534133.509 0        47.000  
        48.000                                                  
  24169156.963    24169155.158   127010132.630 0  98968936.732 0        39.000  
        40.000                                                  
  24593468.886    24593463.793   129239154.032 0 100705614.245 0        40.000  
        41.000                                                  
  25243204.644    25243199.033   132653201.666 0 103367176.032 0        36.000  
        33.000                                                  
  20844127.266                   109536626.972 0                        47.000  
                                                                
  23981295.636    23981292.884   126022541.270 0  98198902.454 0        42.000  
        40.000                                                  
  21562105.467    21562101.714   113309258.097 0  88292642.516 0        49.000  
        46.000                                                  
 22  1 19  0 59 37.0000000  0  0
 22  1 19  0 59 38.0010000  0  8E03E05E08E09E13E15E21E27
  24536350.143                   128939895.478 0                        48.000  
                  24536348.945    98798105.663          52.000  
  24152976.956                   126925038.731 0                        47.000  
                  24152975.562    97254351.663          51.000  
  26541231.647                   139474746.30710                        42.000  
                  26541229.199   106870261.113          43.000  
  25915199.290                   136185655.820 0                        37.000  
                  25915198.075   104350050.959          43.000  
  27797649.880                   146077505.727 0                        40.000  
                  27797648.343   111929516.786          44.000  
  23690498.909                   124494759.314 0                        48.000  
                  23690498.337    95392091.707          52.000  
  28476676.380                   149645934.98010                        34.000  
                  28476675.593   114663975.852          39.000  
  28386375.415                   149170613.13610                        38.000  
                  28386374.682   114299579.640          41.000  
 22  1 19  0 59 39.0010000  0  9G01G03G08G10G14G17G21G27G32
  20853868.814    20853865.544   109587574.781 0  85392918.644 0        49.000  
        48.000                                                  
  22906917.610    22906915.127   120376463.49710  93799887.902 0        44.000  
        46.000                                                  
  21865784.008    21865781.739   114904853.466 0  89536248.631 0        47.000  
        48.000                                                  
  24169734.275    24169732.524   127013166.254 0  98971300.593 0        39.000  
        41.000                                                  
  24593613.946    24593608.943   129239916.766 0 100706208.595 0        40.000  
        41.000                                                  
  25242583.410    25242577.620   132649936.949 0 103364632.094 0        36.000  
        33.000                                                  
  20844056.719                   109536255.788 0                        47.000  
                                                                
  23982014.828    23982012.005   126026320.467 0  98201847.285 0        42.000  
        40.000                                                  
  21562291.412    21562287.642   113310235.160 0  88293403.852 0        49.000  
        46.000                                                  
 22  1 19  0 59 38.0000000  0  0
 22  1 19  0 59 39.0010000  0  8E03E05E08E09E13E15E21E27
  24535948.429                   128937784.700 0                        48.000  
                  24535947.375    98796488.316          52.000  
  24153111.134                   126925744.810 0                        47.000  
                  24153110.044    97254892.684          51.000  
  26540629.300                   139471581.67710                        42.000  
                  26540627.067   106867836.278          43.000  
  25915714.526                   136188363.923 0                        37.000  
                  25915713.454   104352126.007          43.000  
  27797145.866                   146074856.753 0                        40.000  
                  27797144.365   111927487.055          43.000  
  23690234.858                   124493372.083 0                        49.000  
                  23690234.483    95391028.773          52.000  
  28476802.535                   149646600.27810                        34.000  
                  28476802.178   114664485.647          39.000  
  28386819.067                   149172945.23310                        38.000  
                  28386818.495   114301366.551          41.000  
 22  1 19  0 59 40.0010000  0  9G01G03G08G10G14G17G21G27G32
  20853490.152    20853486.846   109585584.855 0  85391368.055 0        49.000  
        48.000                                                  
  22906370.550    22906368.031   120373588.56510  93797647.691 0        44.000  
        46.000                                                  
  21866300.638    21866298.350   114907568.174 0  89538363.990 0        47.000  
        48.000                                                  
  24170311.516    24170309.801   127016199.810 0  98973664.421 0        40.000  
        41.000                                                  
  24593759.186    24593754.182   129240679.963 0 100706803.257 0        40.000  
        41.000                                                  
  25241962.157    25241956.225   132646672.325 0 103362088.181 0        36.000  
        33.000                                                  
  20843986.030                   109535884.812 0                        47.000  
                                                                
  23982734.057    23982731.233   126030099.673 0  98204792.111 0        42.000  
        40.000                                                  
  21562477.393    21562473.587   113311212.707 0  88294165.596 0        49.000  
        46.000                                                  
 22  1 19  0 59 39.0000000  0  0
 22  1 19  0 59 40.0010000  0  8E03E05E08E09E13E15E21E27
  24535546.734                   128935674.157 0                        48.000  
                  24535545.697    98794871.141          52.000  
  24153245.599                   126926451.205 0                        47.000  
                  24153244.419    97255433.952          51.000  
  26540027.114                   139468416.95410                        42.000  
                  26540024.827   106865411.362          43.000  
  25916230.047                   136191072.096 0                        37.000  
                  25916228.725   104354201.085          43.000  
  27796641.709                   146072207.653 0                        40.000  
                  27796640.369   111925457.228          44.000  
  23689970.915                   124491984.966 0                        49.000  
                  23689970.540    95389965.913          52.000  
  28476929.351                   149647265.96610                        34.000  
                  28476928.815   114664995.713          39.000  
  28387262.898                   149175277.38010                        38.000  
                  28387262.237   114303153.535          41.000  
 22  1 19  0 59 41.0010000  0  9G01G03G08G10G14G17G21G27G32
  20853111.579    20853108.309   109583595.771 0  85389818.120 0        49.000  
        48.000                                                  
  22905823.579    22905821.114   120370714.38710  93795408.074 0        44.000  
        46.000                                                  
  21866817.410    21866815.069   114910283.833 0  89540480.090 0        47.000  
        48.000                                                  
  24170888.864    24170887.131   127019233.939 0  98976028.694 0        39.000  
        41.000                                                  
  24593904.675    24593899.565   129241444.205 0 100707398.800 0        40.000  
        41.000                                                  
  25241341.084    25241335.080   132643408.338 0 103359544.842 0        36.000  
        32.000                                                  
  20843915.590                   109535514.658 0                        47.000  
                                                                
  23983453.321    23983450.497   126033879.483 0  98207737.416 0        42.000  
        40.000                                                  
  21562663.642    21562659.889   113312191.389 0  88294928.189 0        49.000  
        46.000                                                  
 22  1 19  0 59 40.0000000  0  0
 22  1 19  0 59 41.0010000  0  8E03E05E08E09E13E15E21E27
  24535145.306                   128933564.459 0                        48.000  
                  24535144.234    98793254.622          52.000  
  24153380.170                   126927158.554 0                        47.000  
                  24153379.027    97255975.949          51.000  
  26539425.053                   139465252.75810                        42.000  
                  26539422.784   106862986.844          43.000  
  25916745.354                   136193780.917 0                        37.000  
                  25916744.210   104356276.678          43.000  
  27796137.731                   146069559.026 0                        40.000  
                  27796136.355   111923427.753          44.000  
  23689707.240                   124490598.562 0                        49.000  
                  23689706.686    95388903.604          52.000  
  28477056.150                   149647932.60810                        33.000  
                  28477055.614   114665506.483          39.000  
  28387706.818                   149177610.21710                        38.000  
                  28387706.264   114304941.028          41.000  
 22  1 19  0 59 42.0010000  0  9G01G03G08G10G14G17G21G27G32
  20852733.059    20852729.932   109581606.714 0  85388268.201 0        49.000  
        48.000                                                  
  22905276.644    22905274.071   120367840.13610  93793168.393 0        44.000  
        46.000                                                  
  21867334.218    21867331.823   114912999.629 0  89542596.286 0        48.000  
        48.000                                                  
  24171466.195    24171464.426   127022267.809 0  98978392.723 0        39.000  
        41.000                                                  
  24594050.165    24594045.054   129242208.705 0 100707994.503 0        40.000  
        41.000                                                  
  25240719.903    25240713.917   132640144.210 0 103357001.359 0        36.000  
        32.000                                                  
  20843845.204                   109535144.507 0                        47.000  
                                                                
  23984172.477    23984169.725   126037659.090 0  98210682.549 0        42.000  
        41.000                                                  
  21562849.944    21562846.102   113313170.359 0  88295691.019 0        49.000  
        46.000                                                  
 22  1 19  0 59 41.0000000  0  0
 22  1 19  0 59 42.0010000  0  8E03E05E08E09E13E15E21E27
  24534744.039                   128931454.787 0                        48.000  
                  24534742.645    98791638.118          52.000  
  24153514.939                   126927866.014 0                        47.000  
                  24153513.616    97256518.017          51.000  
  26538822.813                   139462088.26110                        42.000  
                  26538820.526   106860562.104          43.000  
  25917260.804                   136196489.598 0                        37.000  
                  25917259.696   104358352.154          43.000  
  27795633.521                   146066910.076 0                        40.000  
                  27795632.252   111921398.041          43.000  
  23689443.386                   124489212.053 0                        49.000  
                  23689442.832    95387841.213          52.000  
  28477182.913                   149648599.32410                        33.000  
                  28477182.377   114666017.376          39.000  
  28388150.828                   149179942.88310                        38.000  
                  28388150.059   114306728.396          41.000  
 22  1 19  0 59 43.0010000  0  9G01G03G08G10G14G17G21G27G32
  20852354.665    20852351.538   109579618.080 0  85386718.615 0        49.000  
        48.000                                                  
  22904729.745    22904727.208   120364966.21310  93790928.978 0        44.000  
        46.000                                                  
  21867850.990    21867848.810   114915715.943 0  89544712.896 0        47.000  
        48.000                                                  
  24172043.543    24172041.774   127025301.824 0  98980756.874 0        39.000  
        41.000                                                  
  24594195.780    24594190.562   129242973.851 0 100708590.704 0        40.000  
        41.000                                                  
  25240098.758    25240092.807   132636880.302 0 103354458.120 0        36.000  
        32.000                                                  
  20843774.782                   109534774.766 0                        47.000  
                                                                
  23984891.670    23984888.900   126041438.895 0  98213627.857 0        42.000  
        41.000                                                  
  21563036.461    21563032.655   113314150.028 0  88296454.399 0        49.000  
        46.000                                                  
 22  1 19  0 59 42.0000000  0  0
 22  1 19  0 59 43.0010000  0  8E03E05E08E09E13E15E21E27
  24534342.665                   128929345.541 0                        48.000  
                  24534341.396    98790021.940          52.000  
  24153649.671                   126928574.005 0                        47.000  
                  24153648.331    97257060.516          51.000  
  26538220.431                   139458923.86910                        42.000  
                  26538218.376   106858137.463          43.000  
  25917776.486                   136199198.528 0                        37.000  
                  25917775.021   104360427.828          43.000  
  27795129.186                   146064261.190 0                        40.000  
                  27795128.114   111919368.377          44.000  
  23689179.639                   124487825.867 0                        49.000  
                  23689179.031    95386779.062          52.000  
  28477309.854                   149649266.64710                        33.000  
                  28477309.408   114666528.661          39.000  
  28388594.694                   149182275.82510                        37.000  
                  28388594.194   114308515.975          40.000  
 22  1 19  0 59 44.0010000  0  9G01G03G08G10G14G17G21G27G32
  20851976.199    20851973.036   109577629.688 0  85385169.222 0        49.000  
        48.000                                                  
  22904182.899    22904180.362   120362092.46110  93788689.681 0        44.000  
        46.000                                                  
  21868367.923    21868365.796   114918432.588 0  89546829.767 0        47.000  
        48.000                                                  
  24172620.891    24172619.104   127028335.788 0  98983121.002 0        39.000  
        41.000                                                  
  24594341.394    24594336.266   129243739.425 0 100709187.272 0        40.000  
        41.000                                                  
  25239477.684    25239471.626   132633616.491 0 103351914.852 0        36.000  
        32.000                                                  
  20843704.485                   109534405.243 0                        47.000  
                                                                
  23985610.987    23985608.253   126045218.696 0  98216573.164 0        43.000  
        40.000                                                  
  21563223.013    21563219.368   113315130.216 0  88297218.182 0        49.000  
        46.000                                                  
 22  1 19  0 59 43.0000000  0  0
 22  1 19  0 59 44.0010000  0  8E03E05E08E09E13E15E21E27
  24533941.184                   128927236.550 0                        48.000  
                  24533940.094    98788405.960          52.000  
  24153784.350                   126929282.328 0                        47.000  
                  24153783.188    97257603.245          51.000  
  26537618.120                   139455759.41610                        42.000  
                  26537616.136   106855712.752          43.000  
  25918291.972                   136201907.520 0                        37.000  
                  25918290.614   104362503.544          43.000  
  27794625.154                   146061612.173 0                        40.000  
                  27794623.957   111917338.602          43.000  
  23688915.964                   124486439.780 0                        49.000  
                  23688915.356    95385717.004          52.000  
  28477436.742                   149649934.23110                        33.000  
                  28477436.492   114667040.232          39.000  
  28389038.436                   149184608.84110                        37.000  
                  28389038.078   114310303.604          41.000  
 22  1 19  0 59 45.0010000  0  9G01G03G08G10G14G17G21G27G32
  20851597.912    20851594.695   109575641.512 0  85383619.989 0        49.000  
        48.000                                                  
  22903636.161    22903633.463   120359218.82910  93786450.492 0        44.000  
        46.000                                                  
  21868884.856    21868882.872   114921149.526 0  89548946.862 0        47.000  
        48.000                                                  
  24173198.096    24173196.506   127031369.682 0  98985485.085 0        39.000  
        41.000                                                  
  24594487.116    24594482.023   129244505.474 0 100709784.200 0        40.000  
        41.000                                                  
  25238856.575    25238850.606   132630352.774 0 103349371.682 0        37.000  
        32.000                                                  
  20843634.242                   109534035.931 0                        47.000  
                                                                
  23986330.162    23986327.571   126048998.518 0  98219518.466 0        43.000  
        41.000                                                  
  21563409.691    21563405.939   113316110.905 0  88297982.353 0        49.000  
        46.000                                                  
 22  1 19  0 59 44.0000000  0  0
 22  1 19  0 59 45.0010000  0  8E03E05E08E09E13E15E21E27
  24533539.917                   128925127.799 0                        48.000  
                  24533538.791    98786790.164          52.000  
  24153919.189                   126929990.980 0                        47.000  
                  24153918.082    97258146.247          51.000  
  26537016.005                   139452594.87110                        42.000  
                  26537014.111   106853287.966          43.000  
  25918807.636                   136204616.559 0                        37.000  
                  25918806.081   104364579.322          43.000  
  27794121.337                   146058963.047 0                        40.000  
                  27794119.890   111915308.747          43.000  
  23688652.145                   124485053.814 0                        49.000  
                  23688651.556    95384655.030          52.000  
  28477563.720                   149650602.24310                        32.000  
                  28477563.577   114667552.058          39.000  
  28389482.338                   149186941.92410                        37.000  
                  28389481.963   114312091.289          41.000  
 22  1 19  0 59 46.0010000  0  9G01G03G08G10G14G17G21G27G32
  20851219.678    20851216.462   109573653.933 0  85382071.233 0        49.000  
        48.000                                                  
  22903089.315    22903086.653   120356345.69610  93784211.689 0        44.000  
        46.000                                                  
  21869401.985    21869400.073   114923867.133 0  89551064.475 0        48.000  
        48.000                                                  
  24173775.462    24173773.836   127034403.893 0  98987849.428 0        39.000  
        41.000                                                  
  24594633.035    24594627.924   129245272.328 0 100710381.748 0        40.000  
        41.000                                                  
  25238235.626    25238229.551   132627089.442 0 103346828.853 0        37.000  
        32.000                                                  
  20843564.071                   109533667.200 0                        47.000  
                                                                
  23987049.497    23987046.942   126052778.680 0  98222464.054 0        42.000  
        40.000                                                  
  21563596.494    21563592.652   113317092.452 0  88298747.204 0        49.000  
        46.000                                                  
 22  1 19  0 59 45.0000000  0  0
 22  1 19  0 59 46.0010000  0  8E03E05E08E09E13E15E21E27
  24533138.901                   128923019.636 0                        48.000  
                  24533137.525    98785174.825          52.000  
  24154054.118                   126930700.318 0                        47.000  
                  24154052.957    97258689.766          51.000  
  26536413.873                   139449430.58810                        42.000  
                  26536411.889   106850863.388          43.000  
  25919323.175                   136207326.035 0                        37.000  
                  25919321.567   104366655.393          43.000  
  27793617.127                   146056314.132 0                        40.000  
                  27793615.823   111913279.061          43.000  
  23688388.541                   124483668.305 0                        49.000  
                  23688387.880    95383593.411          52.000  
  28477691.019                   149651270.93410                        33.000  
                  28477690.679   114668064.411          39.000  
  28389926.294                   149189275.41210                        37.000  
                  28389926.097   114313879.297          41.000  
 22  1 19  0 59 47.0010000  0  9G01G03G08G10G14G17G21G27G32
  20850841.480    20850838.335   109571666.707 0  85380522.745 0        49.000  
        48.000                                                  
  22902542.648    22902539.825   120353472.83010  93781973.097 0        44.000  
        46.000                                                  
  21869919.186    21869917.364   114926585.172 0  89553182.435 0        47.000  
        48.000                                                  
  24174352.792    24174351.274   127037438.186 0  98990213.798 0        39.000  
        41.000                                                  
  24594779.024    24594773.968   129246039.765 0 100710979.740 0        40.000  
        41.000                                                  
  25237614.838    25237608.495   132623826.303 0 103344286.131 0        38.000  
        32.000                                                  
  20843493.970                   109533298.791 0                        47.000  
                                                                
  23987768.868    23987766.313   126056558.978 0  98225409.733 0        42.000  
        40.000                                                  
  21563783.386    21563779.526   113318074.638 0  88299512.537 0        49.000  
        46.000                                                  
 22  1 19  0 59 46.0000000  0  0
 22  1 19  0 59 47.0010000  0  8E03E05E08E09E13E15E21E27
  24532737.884                   128920911.848 0                        48.000  
                  24532736.490    98783559.760          52.000  
  24154189.333                   126931410.117 0                        47.000  
                  24154188.011    97259233.636          51.000  
  26535811.794                   139446266.35510                        42.000  
                  26535809.685   106848438.843          43.000  
  25919838.589                   136210035.652 0                        37.000  
                  25919837.285   104368731.623          43.000  
  27793113.149                   146053665.220 0                        40.000  
                  27793111.791   111911249.380          43.000  
  23688124.955                   124482283.043 0                        49.000  
                  23688124.276    95382531.974          52.000  
  28477818.389                   149651940.05810                        33.000  
                  28477817.960   114668577.135          39.000  
  28390370.518                   149191609.13510                        37.000  
                  28390370.178   114315667.452          40.000  
 22  1 19  0 59 48.0010000  0  9G01G03G08G10G14G17G21G27G32
  20850463.318    20850460.245   109569679.789 0  85378974.507 0        49.000  
        48.000                                                  
  22901995.927    22901993.051   120350600.18410  93779734.660 0        44.000  
        46.000                                                  
  21870436.477    21870434.600   114929303.616 0  89555300.700 0        48.000  
        48.000                                                  
  24174930.212    24174928.657   127040472.488 0  98992578.196 0        39.000  
        41.000                                                  
  24594925.139    24594920.154   129246807.725 0 100711578.153 0        40.000  
        41.000                                                  
  25236993.997    25236987.511   132620563.308 0 103341743.538 0        38.000  
        32.000                                                  
  20843423.906                   109532930.688 0                        47.000  
                                                                
  23988488.311    23988485.666   126060339.351 0  98228355.486 0        43.000  
        40.000                                                  
  21563970.403    21563966.543   113319057.400 0  88300278.332 0        49.000  
        46.000                                                  
 22  1 19  0 59 47.0000000  0  0
 22  1 19  0 59 48.0010000  0  8E03E05E08E09E13E15E21E27
  24532336.760                   128918804.365 0                        48.000  
                  24532335.456    98781944.940          52.000  
  24154324.530                   126932120.318 0                        47.000  
                  24154323.244    97259777.823          51.000  
  26535209.661                   139443102.12410                        42.000  
                  26535207.535   106846014.301          43.000  
  25920354.182                   136212745.436 0                        37.000  
                  25920353.003   104370807.939          43.000  
  27792609.118                   146051016.276 0                        40.000  
                  27792607.670   111909219.661          43.000  
  23687861.423                   124480897.971 0                        49.000  
                  23687860.744    95381470.686          52.000  
  28477945.974                   149652609.63210                        33.000  
                  28477945.348   114669090.172          39.000  
  28390814.652                   149193942.94010                        37.000  
                  28390814.241   114317455.712          40.000  
 22  1 19  0 59 49.0010000  0  9G01G03G08G10G14G17G21G27G32
  20850085.281    20850082.154   109567692.989 0  85377426.346 0        49.000  
        48.000                                                  
  22901449.225    22901446.437   120347727.56410  93777496.253 0        44.000  
        46.000                                                  
  21870953.785    21870951.944   114932022.253 0  89557419.107 0        47.000  
        48.000                                                  
  24175507.614    24175506.041   127043506.657 0  98994942.473 0        39.000  
        41.000                                                  
  24595071.326    24595066.412   129247576.022 0 100712176.840 0        40.000  
        41.000                                                  
  25236373.102    25236366.401   132617300.210 0 103339200.903 0        38.000  
        32.000                                                  
  20843353.931                   109532562.673 0                        47.000  
                                                                
  23989207.682    23989205.037   126064119.616 0  98231301.147 0        43.000  
        40.000                                                  
  21564157.492    21564153.561   113320040.560 0  88301044.431 0        49.000  
        46.000                                                  
 22  1 19  0 59 48.0000000  0  0
 22  1 19  0 59 49.0010000  0  8E03E05E08E09E13E15E21E27
  24531935.654                   128916697.009 0                        48.000  
                  24531934.493    98780330.216          52.000  
  24154459.477                   126932830.737 0                        47.000  
                  24154458.494    97260322.162          51.000  
  26534607.582                   139439937.67710                        42.000  
                  26534605.456   106843589.612          43.000  
  25920869.775                   136215455.188 0                        37.000  
                  25920868.578   104372884.225          43.000  
  27792104.729                   146048367.076 0                        40.000  
                  27792103.460   111907189.759          43.000  
  23687597.748                   124479512.894 0                        49.000  
                  23687597.212    95380409.388          52.000  
  28478073.505                   149653279.43210                        33.000  
                  28478072.719   114669603.395          39.000  
  28391258.965                   149196276.73610                        37.000  
                  28391258.447   114319243.948          40.000  
 22  1 19  0 59 50.0010000  0  9G01G03G08G10G14G17G21G27G32
  20849707.298    20849704.135   109565706.872 0  85375878.716 0        49.000  
        48.000                                                  
  22900902.772    22900899.734   120344855.52910  93775258.301 0        44.000  
        46.000                                                  
  21871471.290    21871469.378   114934741.653 0  89559538.123 0        48.000  
        48.000                                                  
  24176085.069    24176083.425   127046541.185 0  98997307.015 0        39.000  
        41.000                                                  
  24595217.763    24595212.777   129248345.203 0 100712776.185 0        40.000  
        41.000                                                  
  25235752.314    25235745.542   132614037.664 0 103336658.607 0        38.000  
        33.000                                                  
  20843284.009                   109532195.318 0                        47.000  
                                                                
  23989927.107    23989924.480   126067900.310 0  98234247.142 0        43.000  
        40.000                                                  
  21564344.813    21564340.828   113321024.660 0  88301811.258 0        49.000  
        46.000                                                  
 22  1 19  0 59 49.0000000  0  0
 22  1 19  0 59 50.0010000  0  8E03E05E08E09E13E15E21E27
  24531534.709                   128914590.327 0                        48.000  
                  24531533.619    98778715.997          52.000  
  24154594.889                   126933541.921 0                        47.000  
                  24154593.727    97260867.093          51.000  
  26534005.432                   139436773.59610                        42.000  
                  26534003.323   106841165.185          44.000  
  25921385.546                   136218165.397 0                        37.000  
                  25921384.420   104374960.870          43.000  
  27791600.733                   146045718.182 0                        40.000  
                  27791599.339   111905160.087          43.000  
  23687334.305                   124478128.363 0                        49.000  
                  23687333.608    95379348.511          52.000  
  28478201.215                   149653950.00610                        33.000  
                  28478200.429   114670117.211          39.000  
  28391703.207                   149198611.04010                        37.000  
                  28391702.492   114321032.555          40.000  
 22  1 19  0 59 51.0010000  0  9G01G03G08G10G14G17G21G27G32
  20849329.314    20849326.187   109563720.711 0  85374331.055 0        49.000  
        48.000                                                  
  22900356.284    22900353.246   120341983.35510  93773020.252 0        44.000  
        46.000                                                  
  21871988.794    21871986.793   114937461.121 0  89561657.191 0        47.000  
        48.000                                                  
  24176662.542    24176660.845   127049575.393 0  98999671.356 0        39.000  
        41.000                                                  
  24595364.199    24595359.142   129249114.595 0 100713375.711 0        40.000  
        41.000                                                  
  25235131.491    25235124.594   132610774.900 0 103334116.180 0        39.000  
        33.000                                                  
  20843214.106                   109531827.917 0                        47.000  
                                                                
  23990646.460    23990643.851   126071680.766 0  98237192.942 0        43.000  
        40.000                                                  
  21564532.044    21564528.220   113322009.015 0  88302578.287 0        49.000  
        46.000                                                  
 22  1 19  0 59 50.0000000  0  0
 22  1 19  0 59 51.0010000  0  8E03E05E08E09E13E15E21E27
  24531133.978                   128912483.637 0                        48.000  
                  24531132.745    98777101.784          52.000  
  24154730.247                   126934253.181 0                        47.000  
                  24154729.067    97261412.092          51.000  
  26533403.210                   139433609.16910                        42.000  
                  26533401.209   106838740.501          44.000  
  25921901.157                   136220875.422 0                        37.000  
                  25921899.978   104377037.394          43.000  
  27791096.415                   146043068.921 0                        40.000  
                  27791095.325   111903130.138          43.000  
  23687070.755                   124476743.685 0                        49.000  
                  23687070.290    95378287.531          52.000  
  28478328.996                   149654620.63910                        33.000  
                  28478328.103   114670631.080          39.000  
  28392147.360                   149200945.14710                        37.000  
                  28392146.645   114322821.031          40.000  
 22  1 19  0 59 52.0010000  0  9G01G03G08G10G14G17G21G27G32
  20848951.384    20848948.275   109561734.835 0  85372783.624 0        49.000  
        48.000                                                  
  22899809.778    22899806.651   120339111.39010  93770782.357 0        44.000  
        46.000                                                  
  21872506.317    21872504.369   114940180.959 0  89563776.543 0        48.000  
        48.000                                                  
  24177239.980    24177238.157   127052609.633 0  99002035.678 0        39.000  
        41.000                                                  
  24595510.672    24595505.704   129249884.480 0 100713975.617 0        40.000  
        41.000                                                  
  25234510.739    25234503.627   132607512.225 0 103331573.886 0        39.000  
        33.000                                                  
  20843144.166                   109531460.773 0                        47.000  
                                                                
  23991365.867    23991363.294   126075461.254 0  98240138.777 0        43.000  
        40.000                                                  
  21564719.526    21564715.774   113322993.912 0  88303345.740 0        49.000  
        46.000                                                  
 22  1 19  0 59 51.0000000  0  0
 22  1 19  0 59 52.0010000  0  8E03E05E08E09E13E15E21E27
  24530733.105                   128910377.210 0                        48.000  
                  24530731.872    98775487.776          52.000  
  24154865.765                   126934964.820 0                        47.000  
                  24154864.514    97261957.369          51.000  
  26532801.131                   139430444.71010                        42.000  
                  26532799.184   106836315.783          44.000  
  25922416.911                   136223585.544 0                        37.000  
                  25922415.731   104379113.973          43.000  
  27790592.312                   146040419.575 0                        40.000  
                  27790591.062   111901100.113          43.000  
  23686807.329                   124475359.168 0                        49.000  
                  23686806.740    95377226.665          52.000  
  28478456.778                   149655291.69710                        33.000  
                  28478455.831   114671145.272          39.000  
  28392591.566                   149203279.36310                        37.000  
                  28392590.797   114324609.577          40.000  
 22  1 19  0 59 53.0010000  0  9G01G03G08G10G14G17G21G27G32
  20848573.597    20848570.631   109559749.672 0  85371236.744 0        49.000  
        48.000                                                  
  22899263.343    22899260.216   120336240.03510  93768544.936 0        43.000  
        46.000                                                  
  21873024.018    21873022.035   114942901.597 0  89565896.523 0        48.000  
        48.000                                                  
  24177817.560    24177815.541   127055644.261 0  99004400.325 0        39.000  
        41.000                                                  
  24595657.341    24595652.355   129250655.280 0 100714576.241 0        40.000  
        41.000                                                  
  25233890.058    25233882.893   132604250.122 0 103329031.930 0        39.000  
        33.000                                                  
  20843074.441                   109531094.319 0                        47.000  
                                                                
  23992085.256    23992082.683   126079242.226 0  98243084.994 0        43.000  
        40.000                                                  
  21564907.115    21564903.506   113323979.808 0  88304113.970 0        49.000  
        46.000                                                  
 22  1 19  0 59 52.0000000  0  0
 22  1 19  0 59 53.0010000  0  8E03E05E08E09E13E15E21E27
  24530332.177                   128908271.532 0                        48.000  
                  24530331.284    98773874.327          52.000  
  24155001.087                   126935677.263 0                        47.000  
                  24155000.230    97262503.269          51.000  
  26532198.945                   139427280.62910                        42.000  
                  26532197.141   106833891.371          44.000  
  25922932.628                   136226296.191 0                        37.000  
                  25922931.503   104381190.983          43.000  
  27790088.263                   146037770.566 0                        40.000  
                  27790087.084   111899070.355          44.000  
  23686543.797                   124473975.241 0                        49.000  
                  23686543.368    95376166.253          52.000  
  28478584.631                   149655963.54510                        33.000  
                  28478583.648   114671660.073          39.000  
  28393035.682                   149205614.10410                        37.000  
                  28393035.236   114326398.550          41.000  
 22  1 19  0 59 54.0010000  0  9G01G03G08G10G14G17G21G27G32
  20848195.864    20848192.916   109557764.726 0  85369690.035 0        49.000  
        48.000                                                  
  22898716.872    22898713.835   120333368.80610  93766307.608 0        43.000  
        46.000                                                  
  21873541.755    21873539.879   114945622.541 0  89568016.737 0        48.000  
        48.000                                                  
  24178394.962    24178393.050   127058678.844 0  99006764.938 0        39.000  
        41.000                                                  
  24595804.170    24595799.042   129251426.544 0 100715177.200 0        40.000  
        41.000                                                  
  25233269.396    25233262.141   132600988.037 0 103326490.087 0        40.000  
        33.000                                                  
  20843004.627                   109530728.074 0                        47.000  
                                                                
  23992804.770    23992801.982   126083023.175 0  98246031.190 0        43.000  
        40.000                                                  
  21565094.811    21565091.166   113324966.179 0  88304882.571 0        49.000  
        46.000                                                  
 22  1 19  0 59 53.0000000  0  0
 22  1 19  0 59 54.0010000  0  8E03E05E08E09E13E15E21E27
  24529931.697                   128906166.063 0                        48.000  
                  24529930.607    98772261.043          52.000  
  24155136.785                   126936390.026 0                        47.000  
                  24155135.784    97263049.415          51.000  
  26531596.849                   139424116.46010                        42.000  
                  26531595.080   106831466.894          44.000  
  25923448.579                   136229006.914 0                        37.000  
                  25923447.417   104383268.012          43.000  
  27789584.214                   146035121.446 0                        40.000  
                  27789583.177   111897040.503          44.000  
  23686280.658                   124472591.414 0                        49.000  
                  23686280.086    95375105.920          52.000  
  28478712.430                   149656635.71910                        33.000  
                  28478711.590   114672175.134          39.000  
  28393479.996                   149207948.93910                        37.000  
                  28393479.656   114328187.546          41.000  
 22  1 19  0 59 55.0010000  0  9G01G03G08G10G14G17G21G27G32
  20847818.077    20847815.218   109555779.935 0  85368143.445 0        49.000  
        48.000                                                  
  22898170.456    22898167.471   120330497.63610  93764070.339 0        43.000  
        46.000                                                  
  21874059.653    21874057.670   114948343.717 0  89570137.131 0        48.000  
        48.000                                                  
  24178972.328    24178970.487   127061713.281 0  99009129.434 0        39.000  
        41.000                                                  
  24595951.072    24595945.943   129252198.160 0 100715778.485 0        40.000  
        41.000                                                  
  25232648.644    25232641.371   132597725.957 0 103323948.204 0        40.000  
        33.000                                                  
  20842934.902                   109530361.957 0                        47.000  
                                                                
  23993524.195    23993521.496   126086804.050 0  98248977.320 0        43.000  
        40.000                                                  
  21565282.651    21565278.952   113325952.987 0  88305651.510 0        50.000  
        46.000                                                  
 22  1 19  0 59 54.0000000  0  0
 22  1 19  0 59 55.0010000  0  8E03E05E08E09E13E15E21E27
  24529531.127                   128904060.760 0                        48.000  
                  24529530.001    98770647.889          52.000  
  24155272.553                   126937103.038 0                        47.000  
                  24155271.517    97263595.744          51.000  
  26530994.734                   139420952.12410                        42.000  
                  26530992.965   106829042.268          44.000  
  25923964.296                   136231717.561 0                        37.000  
                  25923963.171   104385345.026          43.000  
  27789079.950                   146032472.097 0                        40.000  
                  27789079.092   111895010.487          44.000  
  23686017.358                   124471207.619 0                        49.000  
                  23686016.822    95374045.610          52.000  
  28478840.318                   149657308.19810                        33.000  
                  28478839.532   114672690.385          39.000  
  28393924.130                   149210283.71810                        37.000  
                  28393923.826   114329976.555          41.000  
 22  1 19  0 59 56.0010000  0  9G01G03G08G10G14G17G21G27G32
  20847440.398    20847437.503   109553795.303 0  85366596.978 0        49.000  
        48.000                                                  
  22897624.021    22897621.072   120327626.53410  93761833.121 0        43.000  
        45.000                                                  
  21874577.444    21874575.514   114951065.148 0  89572257.731 0        48.000  
        48.000                                                  
  24179549.748    24179547.925   127064747.633 0  99011493.837 0        39.000  
        41.000                                                  
  24596097.973    24596092.862   129252970.175 0 100716380.039 0        40.000  
        41.000                                                  
  25232027.928    25232020.494   132594463.874 0 103321406.303 0        40.000  
        33.000                                                  
  20842865.267                   109529995.985 0                        47.000  
                                                                
  23994243.673    23994240.993   126090584.870 0  98251923.411 0        43.000  
        40.000                                                  
  21565470.597    21565466.827   113326940.229 0  88306420.792 0        50.000  
        46.000                                                  
 22  1 19  0 59 55.0000000  0  0
 22  1 19  0 59 56.0010000  0  8E03E05E08E09E13E15E21E27
  24529130.521                   128901955.622 0                        48.000  
                  24529129.413    98769034.864          52.000  
  24155408.126                   126937816.309 0                        47.000  
                  24155407.322    97264142.278          51.000  
  26530392.369                   139417787.63910                        42.000  
                  26530390.618   106826617.534          44.000  
  25924479.925                   136234428.246 0                        37.000  
                  25924479.032   104387422.029          43.000  
  27788575.579                   146029822.548 0                        40.000  
                  27788574.971   111892980.322          44.000  
  23685753.915                   124469823.865 0                        49.000  
                  23685753.414    95372985.333          52.000  
  28478968.368                   149657980.89310                        34.000  
                  28478967.635   114673205.863          39.000  
  28394368.390                   149212618.51210                        37.000  
                  28394368.104   114331765.542          41.000  
 22  1 19  0 59 57.0010000  0  9G01G03G08G10G14G17G21G27G32
  20847063.022    20847060.020   109551811.507 0  85365051.161 0        49.000  
        48.000                                                  
  22897077.818    22897074.870   120324756.20010  93759596.491 0        43.000  
        46.000                                                  
  21875095.467    21875093.555   114953787.500 0  89574379.045 0        48.000  
        48.000                                                  
  24180127.364    24180125.434   127067782.501 0  99013858.690 0        39.000  
        41.000                                                  
  24596245.106    24596239.978   129253743.209 0 100716982.424 0        40.000  
        41.000                                                  
  25231407.301    25231399.760   132591202.426 0 103318864.912 0        39.000  
        33.000                                                  
  20842795.756                   109529630.839 0                        47.000  
                                                                
  23994963.312    23994960.525   126094366.282 0  98254869.982 0        43.000  
        40.000                                                  
  21565658.686    21565655.005   113327928.581 0  88307190.936 0        50.000  
        46.000                                                  
 22  1 19  0 59 56.0000000  0  0
 22  1 19  0 59 57.0010000  0  8E03E05E08E09E13E15E21E27
  24528730.041                   128899851.314 0                        48.000  
                  24528728.915    98767422.486          52.000  
  24155544.002                   126938530.518 0                        47.000  
                  24155543.073    97264689.532          51.000  
  26529790.344                   139414623.66910                        42.000  
                  26529788.539   106824193.201          44.000  
  25924995.982                   136237139.582 0                        37.000  
                  25924995.035   104389499.549          43.000  
  27788071.476                   146027173.498 0                        40.000  
                  27788070.761   111890950.521          44.000  
  23685490.811                   124468440.821 0                        49.000  
                  23685490.222    95371925.603          52.000  
  28479096.703                   149658654.62510                        34.000  
                  28479095.899   114673722.063          39.000  
  28394812.864                   149214953.96910                        37.000  
                  28394812.489   114333555.068          41.000  
 22  1 19  0 59 58.0010000  0  9G01G03G08G10G14G17G21G27G32
  20846685.503    20846682.662   109549828.287 0  85363505.801 0        49.000  
        48.000                                                  
  22896531.670    22896528.685   120321886.31810  93757360.228 0        43.000  
        46.000                                                  
  21875613.651    21875611.775   114956510.527 0  89576500.880 0        48.000  
        48.000                                                  
  24180704.962    24180702.996   127070817.663 0  99016223.755 0        39.000  
        41.000                                                  
  24596392.401    24596387.254   129254517.067 0 100717585.423 0        40.000  
        41.000                                                  
  25230786.620    25230779.169   132587941.382 0 103316323.846 0        40.000  
        33.000                                                  
  20842726.389                   109529266.246 0                        47.000  
                                                                
  23995682.969    23995680.146   126098148.052 0  98257816.782 0        43.000  
        40.000                                                  
  21565847.008    21565843.202   113328917.783 0  88307961.750 0        50.000  
        46.000                                                  
 22  1 19  0 59 57.0000000  0  0
 22  1 19  0 59 58.0010000  0  8E03E05E08E09E13E15E21E27
  24528329.578                   128897747.617 0                        48.000  
                  24528328.542    98765810.557          52.000  
  24155680.074                   126939245.394 0                        47.000  
                  24155679.252    97265237.298          51.000  
  26529188.390                   139411459.96710                        42.000  
                  26529186.389   106821769.075          44.000  
  25925512.022                   136239851.300 0                        37.000  
                  25925510.950   104391577.370          43.000  
  27787567.587                   146024524.662 0                        40.000  
                  27787566.712   111888920.887          44.000  
  23685227.583                   124467058.244 0                        49.000  
                  23685227.261    95370866.221          52.000  
  28479225.146                   149659328.95810                        34.000  
                  28479224.270   114674238.785          39.000  
  28395257.499                   149217289.84310                        37.000  
                  28395257.124   114335344.886          41.000  
 22  1 19  0 59 59.0010000  0  9G01G03G08G10G14G17G21G27G32
  20846308.020    20846305.232   109547844.682 0  85361960.135 0        49.000  
        48.000                                                  
  22895985.414    22895982.447   120319015.97910  93755123.600 0        43.000  
        46.000                                                  
  21876131.781    21876129.887   114959233.241 0  89578622.474 0        48.000  
        48.000                                                  
  24181282.310    24181280.327   127073852.126 0  99018588.311 0        39.000  
        41.000                                                  
  24596539.588    24596534.549   129255290.749 0 100718188.301 0        40.000  
        41.000                                                  
  25230165.958    25230158.488   132584679.790 0 103313782.341 0        40.000  
        33.000                                                  
  20842657.039                   109528901.250 0                        47.000  
                                                                
  23996402.501    23996399.678   126101929.198 0  98260763.149 0        43.000  
        40.000                                                  
  21566035.258    21566031.345   113329906.871 0  88308732.457 0        50.000  
        46.000                                                  
 22  1 19  0 59 58.0000000  0  0
 22  1 19  0 59 59.0010000  0  8E03E05E08E09E13E15E21E27
  24527929.294                   128895643.524 0                        48.000  
                  24527928.168    98764198.323          52.000  
  24155816.022                   126939959.988 0                        47.000  
                  24155815.128    97265784.838          51.000  
  26528586.365                   139408295.54910                        42.000  
                  26528584.203   106819344.404          44.000  
  25926028.026                   136242562.481 0                        37.000  
                  25926026.971   104393654.759          43.000  
  27787063.216                   146021875.076 0                        40.000  
                  27787062.483   111886890.691          44.000  
  23684964.336                   124465675.148 0                        49.000  
                  23684963.997    95369806.448          52.000  
  28479353.660                   149660003.05110                        34.000  
                  28479352.445   114674755.295          39.000  
  28395701.866                   149219625.15610                        37.000  
                  28395701.633   114337134.278          41.000  
 22  1 19  1  0  0.0010000  0  9G01G03G08G10G14G17G21G27G32
  20845930.608    20845927.856   109545861.514 0  85360414.807 0        49.000  
        48.000                                                  
  22895439.265    22895436.316   120316145.97410  93752887.230 0        43.000  
        46.000                                                  
  21876650.036    21876648.142   114961956.459 0  89580744.469 0        48.000  
        48.000                                                  
  24181859.819    24181857.889   127076886.809 0  99020952.953 0        39.000  
        40.000                                                  
  24596686.972    24596681.861   129256065.100 0 100718791.683 0        40.000  
        41.000                                                  
  25229545.420    25229537.843   132581418.455 0 103311241.055 0        40.000  
        33.000                                                  
  20842587.564                   109528536.672 0                        47.000  
                                                                
  23997122.105    23997119.246   126105710.534 0  98263709.659 0        43.000  
        40.000                                                  
  21566223.776    21566219.809   113330896.667 0  88309503.739 0        50.000  
        46.000                                                  
 22  1 19  0 59 59.0000000  0  0
 22  1 19  1  0  0.0010000  0  8E03E05E08E09E13E15E21E27
  24527528.992                   128893539.876 0                        48.000  
                  24527527.795    98762586.444          52.000  
  24155952.363                   126940675.116 0                        47.000  
                  24155951.290    97266332.793          51.000  
  26527984.107                   139405131.26910                        42.000  
                  26527982.195   106816919.817          44.000  
  25926543.940                   136245273.905 0                        37.000  
                  25926542.868   104395732.335          43.000  
  27786559.345                   146019225.580 0                        40.000  
                  27786558.202   111884860.556          44.000  
  23684701.322                   124464292.383 0                        49.000  
                  23684700.768    95368746.920          52.000  
  28479482.209                   149660677.69610                        34.000  
                  28479480.816   114675272.212          39.000  
  28396146.340                   149221960.75110                        37.000  
                  28396145.947   114338923.885          41.000  
 22  1 19  1  0  1.0010000  0  9G01G03G08G10G14G17G21G27G32
  20845553.447    20845550.534   109543878.992 0  85358869.985 0        49.000  
        48.000                                                  
  22894893.187    22894890.364   120313276.52910  93750651.307 0        43.000  
        46.000                                                  
  21877168.381    21877166.415   114964680.416 0  89582867.024 0        48.000  
        48.000                                                  
  24182437.417    24182435.470   127079921.836 0  99023317.918 0        39.000  
        40.000                                                  
  24596834.498    24596829.423   129256840.302 0 100719395.720 0        40.000  
        41.000                                                  
  25228924.918    25228917.324   132578157.617 0 103308700.099 0        41.000  
        34.000                                                  
  20842518.214                   109528172.721 0                        47.000  
                                                                
  23997841.762    23997838.849   126109492.310 0  98266656.497 0        43.000  
        40.000                                                  
  21566412.259    21566408.256   113331887.389 0  88310275.729 0        50.000  
        46.000                                                  
 22  1 19  1  0  0.0000000  0  0
 22  1 19  1  0  1.0010000  0  8E03E05E08E09E13E15E21E27
  24527128.744                   128891436.886 0                        48.000  
                  24527127.690    98760975.058          52.000  
  24156088.578                   126941390.981 0                        47.000  
                  24156087.506    97266881.317          51.000  
  26527382.046                   139401967.32010                        42.000  
                  26527379.974   106814495.485          44.000  
  25927059.926                   136247985.787 0                        37.000  
                  25927058.854   104397810.291          43.000  
  27786055.314                   146016576.368 0                        40.000  
                  27786054.081   111882830.634          44.000  
  23684438.290                   124462910.131 0                        49.000  
                  23684437.790    95367687.800          52.000  
  28479610.813                   149661353.08810                        34.000  
                  28479609.330   114675789.723          39.000  
  28396590.885                   149224296.80110                        37.000  
                  28396590.564   114340713.845          41.000  
 22  1 19  1  0  2.0010000  0  9G01G03G08G10G14G17G21G27G32
  20845176.321    20845173.373   109541896.746 0  85357325.370 0        49.000  
        48.000                                                  
  22894347.146    22894344.376   120310407.27010  93748415.504 0        43.000  
        46.000                                                  
  21877686.815    21877684.921   114967404.752 0  89584989.884 0        48.000  
        48.000                                                  
  24183015.034    24183012.943   127082956.845 0  99025682.858 0        39.000  
        40.000                                                  
  24596982.150    24596977.022   129257616.017 0 100720000.174 0        41.000  
        41.000                                                  
  25228304.524    25228296.822   132574896.884 0 103306159.241 0        41.000  
        34.000                                                  
  20842448.954                   109527809.031 0                        47.000  
                                                                
  23998561.508    23998558.470   126113274.128 0  98269603.341 0        43.000  
        40.000                                                  
  21566600.920    21566596.917   113332878.664 0  88311048.144 0        50.000  
        46.000                                                  
 22  1 19  1  0  1.0000000  0  0
 22  1 19  1  0  2.0010000  0  8E03E05E08E09E13E15E21E27
  24526728.549                   128889334.181 0                        48.000  
                  24526727.584    98759363.889          52.000  
  24156224.829                   126942107.227 0                        47.000  
                  24156223.757    97267430.124          51.000  
  26526780.021                   139398803.32110                        42.000  
                  26526777.841   106812071.132          44.000  
  25927576.055                   136250697.811 0                        37.000  
                  25927574.929   104399888.315          43.000  
  27785551.122                   146013927.063 0                        40.000  
                  27785549.978   111880800.645          44.000  
  23684175.347                   124461528.044 0                        49.000  
                  23684174.811    95366628.795          52.000  
  28479739.505                   149662028.83910                        34.000  
                  28479738.022   114676307.524          39.000  
  28397035.431                   149226632.97110                        37.000  
                  28397035.074   114342503.907          41.000  
 22  1 19  1  0  3.0010000  0  9G01G03G08G10G14G17G21G27G32
  20844799.034    20844796.140   109539914.552 0  85355780.809 0        49.000  
        48.000                                                  
  22893801.051    22893798.424   120307537.96610  93746179.685 0        43.000  
        46.000                                                  
  21878205.267    21878203.301   114970129.232 0  89587112.855 0        48.000  
        48.000                                                  
  24183592.543    24183590.434   127085991.593 0  99028047.585 0        40.000  
        40.000                                                  
  24597129.677    24597124.709   129258391.974 0 100720604.824 0        41.000  
        41.000                                                  
  25227683.986    25227676.302   132571636.002 0 103303618.312 0        41.000  
        34.000                                                  
  20842379.783                   109527445.365 0                        47.000  
                                                                
  23999281.165    23999278.056   126117055.728 0  98272550.054 0        43.000  
        40.000                                                  
  21566789.581    21566785.686   113333870.249 0  88311820.819 0        50.000  
        46.000                                                  
 22  1 19  1  0  2.0000000  0  0
 22  1 19  1  0  3.0010000  0  8E03E05E08E09E13E15E21E27
  24526328.408                   128887231.522 0                        48.000  
                  24526327.426    98757752.773          52.000  
  24156361.206                   126942823.619 0                        47.000  
                  24156360.169    97267979.049          51.000  
  26526177.799                   139395639.05610                        42.000  
                  26526175.798   106809646.574          44.000  
  25928092.076                   136253409.687 0                        37.000  
                  25928091.004   104401966.253          43.000  
  27785047.001                   146011277.447 0                        40.000  
                  27785045.821   111878770.437          44.000  
  23683912.208                   124460145.881 0                        49.000  
                  23683911.708    95365569.738          52.000  
  28479868.216                   149662704.78910                        34.000  
                  28479866.679   114676825.438          39.000  
  28397480.191                   149228969.03910                        37.000  
                  28397479.816   114344293.874          41.000  
 22  1 19  1  0  4.0010000  0  9G01G03G08G10G14G17G21G27G32
  20844421.891    20844419.085   109537932.702 0  85354236.514 0        49.000  
        48.000                                                  
  22893255.080    22893252.400   120304668.91810  93743944.074 0        43.000  
        46.000                                                  
  21878723.790    21878721.807   114972854.164 0  89589236.171 0        48.000  
        48.000                                                  
  24184170.052    24184167.961   127089026.435 0  99030412.397 0        40.000  
        40.000                                                  
  24597277.453    24597272.432   129259168.499 0 100721209.913 0        41.000  
        41.000                                                  
  25227063.520    25227055.818   132568375.299 0 103301077.529 0        41.000  
        34.000                                                  
  20842310.719                   109527082.036 0                        47.000  
                                                                
  24000000.858    23999997.713   126120837.483 0  98275496.858 0        43.000  
        40.000                                                  
  21566978.403    21566974.543   113334862.453 0  88312593.958 0        50.000  
        46.000                                                  
 22  1 19  1  0  3.0000000  0  0
 22  1 19  1  0  4.0010000  0  8E03E05E08E09E13E15E21E27
  24525928.285                   128885129.228 0                        48.000  
                  24525927.427    98756141.921          52.000  
  24156497.672                   126943540.452 0                        47.000  
                  24156496.546    97268528.310          51.000  
  26525575.846                   139392474.81910                        42.000  
                  26525573.630   106807222.031          44.000  
  25928608.116                   136256121.748 0                        36.000  
                  25928607.151   104404044.317          43.000  
  27784542.862                   146008627.840 0                        40.000  
                  27784541.522   111876740.203          44.000  
  23683649.158                   124458763.949 0                        49.000  
                  23683648.765    95364510.850          52.000  
  28479997.141                   149663381.16810                        34.000  
                  28479995.193   114677343.720          39.000  
  28397924.683                   149231305.27610                        37.000  
                  28397924.272   114346083.973          41.000  
 22  1 19  1  0  5.0010000  0  9G01G03G08G10G14G17G21G27G32
  20844044.872    20844042.085   109535951.462 0  85352692.680 0        49.000  
        48.000                                                  
  22892709.182    22892706.537   120301800.39210  93741708.864 0        43.000  
        46.000                                                  
  21879242.456    21879240.437   114975579.773 0  89591360.028 0        48.000  
        48.000                                                  
  24184747.703    24184745.506   127092061.599 0  99032777.463 0        40.000  
        40.000                                                  
  24597425.320    24597420.423   129259945.855 0 100721815.657 0        41.000  
        41.000                                                  
  25226443.197    25226435.424   132565115.038 0 103298537.032 0        42.000  
        33.000                                                  
  20842241.709                   109526719.288 0                        47.000  
                                                                
  24000720.568    24000717.459   126124619.597 0  98278443.982 0        43.000  
        40.000                                                  
  21567167.350    21567163.562   113335855.553 0  88313367.800 0        50.000  
        46.000                                                  
 22  1 19  1  0  4.0000000  0  0
 22  1 19  1  0  5.0010000  0  8E03E05E08E09E13E15E21E27
  24525528.341                   128883027.546 0                        48.000  
                  24525527.519    98754531.544          52.000  
  24156634.298                   126944257.998 0                        47.000  
                  24156633.119    97269078.114          51.000  
  26524973.874                   139389310.89110                        42.000  
                  26524971.605   106804797.721          44.000  
  25929124.227                   136258834.217 0                        37.000  
                  25929123.191   104406122.711          43.000  
  27784038.705                   146005978.467 0                        40.000  
                  27784037.383   111874710.175          44.000  
  23683386.287                   124457382.499 0                        49.000  
                  23683385.894    95363452.343          52.000  
  28480126.084                   149664058.29210                        34.000  
                  28480124.083   114677862.548          39.000  
  28398369.264                   149233641.93610                        37.000  
                  28398368.907   114347874.404          41.000  
 22  1 19  1  0  6.0010000  0  9G01G03G08G10G14G17G21G27G32
  20843667.997    20843665.209   109533970.683 0  85351149.220 0        49.000  
        48.000                                                  
  22892163.355    22892160.746   120298932.22110  93739473.928 0        43.000  
        46.000                                                  
  21879761.319    21879759.228   114978305.929 0  89593484.302 0        48.000  
        48.000                                                  
  24185325.230    24185323.068   127095096.931 0  99035142.656 0        40.000  
        40.000                                                  
  24597573.472    24597568.433   129260723.901 0 100722421.919 0        41.000  
        41.000                                                  
  25225822.891    25225815.029   132561855.069 0 103295996.778 0        42.000  
        33.000                                                  
  20842172.788                   109526356.990 0                        47.000  
                                                                
  24001440.333    24001437.188   126128401.919 0  98281391.255 0        43.000  
        40.000                                                  
  21567356.529    21567352.688   113336849.371 0  88314142.213 0        50.000  
        46.000                                                  
 22  1 19  1  0  5.0000000  0  0
 22  1 19  1  0  6.0010000  0  8E03E05E08E09E13E15E21E27
  24525128.486                   128880926.323 0                        48.000  
                  24525127.592    98752921.509          52.000  
  24156770.996                   126944976.087 0                        47.000  
                  24156769.674    97269628.344          51.000  
  26524371.831                   139386147.08110                        42.000  
                  26524369.490   106802373.504          44.000  
  25929640.767                   136261546.977 0                        37.000  
                  25929639.534   104408201.319          43.000  
  27783534.692                   146003329.200 0                        40.000  
                  27783533.262   111872680.209          44.000  
  23683123.523                   124456001.380 0                        49.000  
                  23683123.041    95362394.086          52.000  
  28480255.009                   149664735.93510                        34.000  
                  28480252.990   114678381.799          39.000  
  28398814.096                   149235978.91710                        37.000  
                  28398813.613   114349665.070          41.000  
 22  1 19  1  0  7.0010000  0  9G01G03G08G10G14G17G21G27G32
  20843291.014    20843288.280   109531990.101 0  85349605.911 0        49.000  
        48.000                                                  
  22891617.545    22891614.936   120296064.17010  93737239.088 0        43.000  
        46.000                                                  
  21880280.164    21880278.091   114981032.369 0  89595608.801 0        48.000  
        48.000                                                  
  24185902.954    24185900.649   127098132.172 0  99037507.768 0        40.000  
        40.000                                                  
  24597721.606    24597716.638   129261502.357 0 100723028.511 0        41.000  
        41.000                                                  
  25225202.497    25225194.760   132558595.137 0 103293456.583 0        42.000  
        34.000                                                  
  20842103.796                   109525994.870 0                        47.000  
                                                                
  24002160.043    24002156.916   126132184.233 0  98284338.494 0        43.000  
        40.000                                                  
  21567545.744    21567541.921   113337843.674 0  88314916.994 0        50.000  
        47.000                                                  
 22  1 19  1  0  6.0000000  0  0
 22  1 19  1  0  7.0010000  0  8E03E05E08E09E13E15E21E27
  24524728.738                   128878825.325 0                        48.000  
                  24524727.898    98751311.656          52.000  
  24156907.462                   126945694.487 0                        47.000  
                  24156906.461    97270178.798          51.000  
  26523769.698                   139382983.18210                        42.000  
                  26523767.447   106799949.225          44.000  
  25930156.931                   136264259.781 0                        37.000  
                  25930155.698   104410279.956          43.000  
  27783030.446                   146000679.778 0                        40.000  
                  27783029.052   111870650.125          44.000  
  23682860.920                   124454620.361 0                        49.000  
                  23682860.312    95361335.898          52.000  
  28480383.970                   149665413.94510                        34.000  
                  28480381.933   114678901.307          39.000  
  28399258.838                   149238315.92610                        37.000  
                  28399258.302   114351455.756          41.000  
 22  1 19  1  0  8.0010000  0  9G01G03G08G10G14G17G21G27G32
  20842914.174    20842911.422   109530009.685 0  85348062.733 0        49.000  
        48.000                                                  
  22891071.736    22891069.199   120293196.19610  93735004.305 0        43.000  
        46.000                                                  
  21880798.955    21880797.025   114983759.067 0  89597733.501 0        48.000  
        48.000                                                  
  24186480.480    24186478.283   127101167.287 0  99039872.799 0        40.000  
        40.000                                                  
  24597869.901    24597864.898   129262281.198 0 100723635.397 0        41.000  
        41.000                                                  
  25224582.263    25224574.419   132555335.191 0 103290916.361 0        42.000  
        34.000                                                  
  20842035.018                   109525632.909 0                        47.000  
                                                                
  24002879.808    24002876.645   126135966.487 0  98287285.708 0        43.000  
        40.000                                                  
  21567735.049    21567731.189   113338838.417 0  88315692.114 0        50.000  
        47.000                                                  
 22  1 19  1  0  7.0000000  0  0
 22  1 19  1  0  8.0010000  0  8E03E05E08E09E13E15E21E27
  24524328.918                   128876724.483 0                        48.000  
                  24524328.061    98749701.925          52.000  
  24157044.374                   126946413.145 0                        47.000  
                  24157043.266    97270729.465          51.000  
  26523167.709                   139379819.11910                        42.000  
                  26523165.207   106797524.824          44.000  
  25930673.185                   136266972.552 0                        37.000  
                  25930671.952   104412358.582          43.000  
  27782526.271                   145998030.147 0                        40.000  
                  27782524.824   111868619.906          44.000  
  23682598.085                   124453239.378 0                        49.000  
                  23682597.495    95360277.744          52.000  
  28480512.823                   149666092.21410                        34.000  
                  28480511.233   114679421.006          39.000  
  28399703.419                   149240652.90910                        37.000  
                  28399703.062   114353246.441          41.000  
 22  1 19  1  0  9.0010000  0  9G01G03G08G10G14G17G21G27G32
  20842537.424    20842534.529   109528029.549 0  85346519.769 0        49.000  
        48.000                                                  
  22890526.105    22890523.532   120290328.39110  93732769.654 0        43.000  
        46.000                                                  
  21881317.836    21881315.978   114986486.117 0  89599858.471 0        48.000  
        48.000                                                  
  24187058.114    24187055.845   127104202.416 0  99042237.828 0        40.000  
        40.000                                                  
  24598018.178    24598013.246   129263060.537 0 100724242.666 0        41.000  
        41.000                                                  
  25223962.065    25223954.095   132552075.336 0 103288376.175 0        42.000  
        35.000                                                  
  20841966.222                   109525271.188 0                        47.000  
                                                                
  24003599.465    24003596.427   126139748.765 0  98290232.935 0        43.000  
        40.000                                                  
  21567924.461    21567920.601   113339833.685 0  88316467.657 0        50.000  
        47.000                                                  
 22  1 19  1  0  8.0000000  0  0
 22  1 19  1  0  9.0010000  0  8E03E05E08E09E13E15E21E27
  24523929.153                   128874623.932 0                        48.000  
                  24523928.348    98748092.411          52.000  
  24157181.269                   126947132.170 0                        47.000  
                  24157179.982    97271280.406          51.000  
  26522565.433                   139376654.99710                        42.000  
                  26522563.110   106795100.378          43.000  
  25931189.511                   136269685.388 0                        37.000  
                  25931188.242   104414437.278          43.000  
  27782022.043                   145995380.457 0                        40.000  
                  27782020.506   111866589.602          44.000  
  23682335.231                   124451858.550 0                        49.000  
                  23682334.749    95359219.700          52.000  
  28480642.088                   149666770.84010                        34.000  
                  28480640.354   114679941.003          39.000  
  28400148.233                   149242990.00910                        37.000  
                  28400147.822   114355037.224          41.000  
 22  1 19  1  0 10.0010000  0  9G01G03G08G10G14G17G21G27G32
  20842160.673    20842157.850   109526049.756 0  85344977.076 0        49.000  
        48.000                                                  
  22889980.493    22889977.723   120287460.85110  93730535.205 0        43.000  
        46.000                                                  
  21881836.860    21881835.144   114989213.608 0  89601983.790 0        48.000  
        48.000                                                  
  24187635.802    24187633.336   127107237.592 0  99044602.903 0        40.000  
        40.000                                                  
  24598166.598    24598161.684   129263840.429 0 100724850.387 0        41.000  
        41.000                                                  
  25223341.885    25223333.880   132548815.668 0 103285836.186 0        43.000  
        35.000                                                  
  20841897.480                   109524909.811 0                        47.000  
                                                                
  24004319.211    24004316.102   126143531.178 0  98293180.266 0        43.000  
        40.000                                                  
  21568114.069    21568110.048   113340829.599 0  88317243.684 0        50.000  
        47.000                                                  
 22  1 19  1  0  9.0000000  0  0
 22  1 19  1  0 10.0010000  0  8E03E05E08E09E13E15E21E27
  24523529.530                   128872523.741 0                        47.000  
                  24523528.672    98746483.174          52.000  
  24157318.360                   126947851.653 0                        47.000  
                  24157316.931    97271831.691          51.000  
  26521963.301                   139373490.94810                        42.000  
                  26521961.032   106792675.973          43.000  
  25931705.818                   136272398.482 0                        37.000  
                  25931704.371   104416516.109          43.000  
  27781517.869                   145992730.747 0                        40.000  
                  27781516.368   111864559.305          44.000  
  23682072.414                   124450477.950 0                        49.000  
                  23682071.985    95358161.845          52.000  
  28480771.316                   149667449.96510                        34.000  
                  28480769.780   114680461.377          39.000  
  28400592.957                   149245327.30010                        37.000  
                  28400592.492   114356828.113          41.000  
 22  1 19  1  0 11.0010000  0  9G01G03G08G10G14G17G21G27G32
  20841784.084    20841781.135   109524070.608 0  85343434.888 0        49.000  
        48.000                                                  
  22889434.791    22889432.182   120284593.87510  93728301.200 0        43.000  
        46.000                                                  
  21882356.062    21882354.293   114991941.809 0  89604109.668 0        48.000  
        48.000                                                  
  24188213.454    24188210.917   127110273.124 0  99046968.254 0        40.000  
        40.000                                                  
  24598315.179    24598310.211   129264621.194 0 100725458.767 0        41.000  
        41.000                                                  
  25222721.723    25222713.753   132545556.456 0 103283296.546 0        43.000  
        36.000                                                  
  20841828.810                   109524549.050 0                        47.000  
                                                                
  24005039.100    24005035.991   126147313.976 0  98296127.916 0        43.000  
        40.000                                                  
  21568303.784    21568299.656   113341826.419 0  88318020.427 0        50.000  
        47.000                                                  
 22  1 19  1  0 10.0000000  0  0
 22  1 19  1  0 11.0010000  0  8E03E05E08E09E13E15E21E27
  24523129.800                   128870424.187 0                        47.000  
                  24523129.121    98744874.430          52.000  
  24157455.415                   126948571.863 0                        47.000  
                  24157454.004    97272383.550          51.000  
  26521361.097                   139370327.19910                        42.000  
                  26521358.988   106790251.802          43.000  
  25932222.054                   136275111.999 0                        37.000  
                  25932220.786   104418595.304          43.000  
  27781013.587                   145990081.310 0                        40.000  
                  27781012.122   111862529.223          44.000  
  23681809.900                   124449097.876 0                        49.000  
                  23681809.382    95357104.390          52.000  
  28480900.367                   149668129.78310                        34.000  
                  28480899.187   114680982.310          39.000  
  28401037.681                   149247665.06710                        37.000  
                  28401037.449   114358619.382          41.000  
 22  1 19  1  0 12.0010000  0  9G01G03G08G10G14G17G21G27G32
  20841407.512    20841404.635   109522091.883 0  85341893.017 0        49.000  
        48.000                                                  
  22888889.321    22888886.640   120281727.21210  93726067.430 0        44.000  
        46.000                                                  
  21882875.318    21882873.567   114994670.526 0  89606235.932 0        48.000  
        48.000                                                  
  24188791.142    24188788.604   127113308.787 0  99049333.701 0        40.000  
        40.000                                                  
  24598463.885    24598458.935   129265402.582 0 100726067.650 0        41.000  
        41.000                                                  
  25222101.667    25222093.609   132542297.510 0 103280757.115 0        43.000  
        36.000                                                  
  20841760.264                   109524188.693 0                        47.000  
                                                                
  24005759.079    24005755.827   126151096.979 0  98299075.697 0        43.000  
        40.000                                                  
  21568493.643    21568489.586   113342823.941 0  88318797.710 0        50.000  
        46.000                                                  
 22  1 19  1  0 11.0000000  0  0
 22  1 19  1  0 12.0010000  0  8E03E05E08E09E13E15E21E27
  24522730.445                   128868325.077 0                        47.000  
                  24522729.694    98743266.016          52.000  
  24157592.524                   126949292.590 0                        47.000  
                  24157591.184    97272935.788          51.000  
  26520759.018                   139367163.57010                        42.000  
                  26520756.927   106787827.718          43.000  
  25932738.594                   136277825.750 0                        37.000  
                  25932737.165   104420674.676          43.000  
  27780509.538                   145987431.949 0                        40.000  
                  27780508.072   111860499.187          44.000  
  23681547.368                   124447718.099 0                        49.000  
                  23681546.850    95356047.147          52.000  
  28481029.703                   149668810.22310                        34.000  
                  28481028.702   114681503.616          40.000  
  28401482.655                   149250003.06510                        37.000  
                  28401482.262   114360410.855          41.000  
 22  1 19  1  0 13.0010000  0  9G01G03G08G10G14G17G21G27G32
  20841031.011    20841028.135   109520113.082 0  85340351.087 0        49.000  
        48.000                                                  
  22888343.905    22888341.171   120278860.40310  93723833.550 0        44.000  
        46.000                                                  
  21883394.592    21883392.876   114997399.264 0  89608362.226 0        48.000  
        48.000                                                  
  24189368.811    24189366.185   127116344.104 0  99051698.891 0        40.000  
        40.000                                                  
  24598612.680    24598607.713   129266184.137 0 100726676.651 0        41.000  
        41.000                                                  
  25221481.523    25221473.446   132539038.324 0 103278217.473 0        43.000  
        36.000                                                  
  20841691.754                   109523828.252 0                        47.000  
                                                                
  24006478.986    24006475.537   126154879.665 0  98302023.237 0        43.000  
        40.000                                                  
  21568683.501    21568679.427   113343821.641 0  88319575.146 0        50.000  
        47.000                                                  
 22  1 19  1  0 12.0000000  0  0
 22  1 19  1  0 13.0010000  0  8E03E05E08E09E13E15E21E27
  24522330.947                   128866225.890 0                        47.000  
                  24522330.143    98741657.552          52.000  
  24157729.759                   126950013.347 0                        47.000  
                  24157728.258    97273488.054          51.000  
  26520156.993                   139363999.54810                        42.000  
                  26520154.866   106785403.346          43.000  
  25933254.955                   136280539.261 0                        37.000  
                  25933253.615   104422753.855          43.000  
  27780005.292                   145984782.151 0                        40.000  
                  27780003.737   111858468.822          44.000  
  23681284.890                   124446338.133 0                        49.000  
                  23681284.282    95354989.773          52.000  
  28481159.110                   149669490.65410                        34.000  
                  28481158.074   114682024.981          40.000  
  28401927.648                   149252340.84010                        37.000  
                  28401927.201   114362202.124          41.000  
 22  1 19  1  0 14.0010000  0  9G01G03G08G10G14G17G21G27G32
  20840654.690    20840651.563   109518134.433 0  85338809.294 0        49.000  
        48.000                                                  
  22887798.417    22887795.665   120275993.63710  93721599.705 0        44.000  
        46.000                                                  
  21883913.866    21883912.079   115000128.248 0  89610488.700 0        48.000  
        48.000                                                  
  24189946.392    24189943.729   127119379.272 0  99054063.970 0        40.000  
        40.000                                                  
  24598761.547    24598756.544   129266966.050 0 100727285.932 0        41.000  
        41.000                                                  
  25220861.307    25220853.284   132535779.111 0 103275677.843 0        43.000  
        37.000                                                  
  20841623.227                   109523467.943 0                        47.000  
                                                                
  24007198.768    24007195.337   126158662.271 0  98304970.739 0        43.000  
        40.000                                                  
  21568873.395    21568869.410   113344819.776 0  88320352.918 0        50.000  
        47.000                                                  
 22  1 19  1  0 13.0000000  0  0
 22  1 19  1  0 14.0010000  0  8E03E05E08E09E13E15E21E27
  24521931.414                   128864126.870 0                        47.000  
                  24521930.752    98740049.214          52.000  
  24157866.814                   126950734.352 0                        47.000  
                  24157865.545    97274040.519          51.000  
  26519554.717                   139360835.35610                        42.000  
                  26519552.788   106782978.844          43.000  
  25933771.191                   136283252.757 0                        37.000  
                  25933769.941   104424833.028          43.000  
  27779500.903                   145982132.165 0                        40.000  
                  27779499.437   111856438.311          44.000  
  23681022.180                   124444958.191 0                        49.000  
                  23681021.536    95353932.424          52.000  
  28481288.678                   149670171.32010                        34.000  
                  28481287.695   114682546.559          40.000  
  28402372.676                   149254678.59810                        37.000  
                  28402372.068   114363993.406          41.000  
 22  1 19  1  0 15.0010000  0  9G01G03G08G10G14G17G21G27G32
  20840278.386    20840275.223   109516156.527 0  85337268.053 0        49.000  
        48.000                                                  
  22887253.001    22887250.267   120273127.52310  93719366.376 0        44.000  
        46.000                                                  
  21884433.229    21884431.549   115002858.068 0  89612615.833 0        48.000  
        48.000                                                  
  24190524.062    24190521.256   127122414.926 0  99056429.399 0        40.000  
        40.000                                                  
  24598910.628    24598905.589   129267748.923 0 100727895.963 0        41.000  
        41.000                                                  
  25220241.198    25220233.282   132532520.462 0 103273138.627 0        42.000  
        37.000                                                  
  20841554.770                   109523108.356 0                        47.000  
                                                                
  24007918.675    24007915.245   126162445.412 0  98307918.616 0        43.000  
        40.000                                                  
  21569063.432    21569059.465   113345818.947 0  88321131.486 0        50.000  
        47.000                                                  
 22  1 19  1  0 14.0000000  0  0
 22  1 19  1  0 15.0010000  0  8E03E05E08E09E13E15E21E27
  24521532.059                   128862028.598 0                        47.000  
                  24521531.523    98738441.444          52.000  
  24158004.120                   126951456.194 0                        47.000  
                  24158002.958    97274593.619          51.000  
  26518952.603                   139357671.59210                        42.000  
                  26518950.709   106780554.668          43.000  
  25934287.481                   136285966.808 0                        37.000  
                  25934286.338   104426912.616          43.000  
  27778996.496                   145979482.531 0                        40.000  
                  27778995.281   111854408.074          44.000  
  23680759.737                   124443578.883 0                        49.000  
                  23680759.237    95352875.544          52.000  
  28481418.693                   149670852.86610                        35.000  
                  28481417.460   114683068.774          40.000  
  28402817.650                   149257016.95710                        37.000  
                  28402817.025   114365785.107          41.000  
 22  1 19  1  0 16.0010000  0  9G01G03G08G10G14G17G21G27G32
  20839902.118    20839898.866   109514179.017 0  85335727.145 0        49.000  
        48.000                                                  
  22886707.638    22886704.922   120270261.72610  93717133.285 0        43.000  
        46.000                                                  
  21884952.806    21884951.144   115005588.355 0  89614743.338 0        48.000  
        48.000                                                  
  24191101.785    24191098.980   127125450.666 0  99058794.926 0        40.000  
        40.000                                                  
  24599059.745    24599054.778   129268532.412 0 100728506.480 0        41.000  
        41.000                                                  
  25219621.000    25219613.335   132529262.053 0 103270599.598 0        42.000  
        37.000                                                  
  20841486.421                   109522749.153 0                        47.000  
                                                                
  24008638.636    24008635.241   126166228.691 0  98310866.625 0        43.000  
        40.000                                                  
  21569253.755    21569249.752   113346818.764 0  88321910.564 0        50.000  
        47.000                                                  
 22  1 19  1  0 15.0000000  0  0
 22  1 19  1  0 16.0010000  0  8E03E05E08E09E13E15E21E27
  24521132.847                   128859930.735 0                        47.000  
                  24521132.311    98736833.987          52.000  
  24158141.604                   126952178.532 0                        47.000  
                  24158140.424    97275147.101          51.000  
  26518350.649                   139354507.91910                        42.000  
                  26518348.505   106778130.540          43.000  
  25934803.950                   136288681.088 0                        37.000  
                  25934802.895   104428992.393          43.000  
  27778492.250                   145976832.959 0                        40.000  
                  27778491.088   111852377.889          44.000  
  23680497.224                   124442199.851 0                        49.000  
                  23680496.741    95351818.883          52.000  
  28481548.655                   149671534.91710                        35.000  
                  28481547.332   114683591.371          40.000  
  28403262.660                   149259355.51010                        37.000  
                  28403262.089   114367576.985          41.000  
 22  1 19  1  0 17.0010000  0  9G01G03G08G10G14G17G21G27G32
  20839525.779    20839522.544   109512201.404 0  85334186.152 0        49.000  
        48.000                                                  
  22886162.347    22886159.595   120267395.73010  93714900.048 0        44.000  
        46.000                                                  
  21885472.420    21885470.668   115008318.622 0  89616870.819 0        48.000  
        48.000                                                  
  24191679.383    24191676.489   127128486.042 0  99061160.131 0        40.000  
        40.000                                                  
  24599208.809    24599203.966   129269316.018 0 100729117.090 0        41.000  
        41.000                                                  
  25219000.892    25218993.351   132526003.360 0 103268060.373 0        42.000  
        37.000                                                  
  20841418.037                   109522389.827 0                        47.000  
                                                                
  24009358.436    24009355.095   126170011.623 0  98313814.376 0        43.000  
        40.000                                                  
  21569444.096    21569440.075   113347818.756 0  88322689.779 0        50.000  
        47.000                                                  
 22  1 19  1  0 16.0000000  0  0
 22  1 19  1  0 17.0010000  0  8E03E05E08E09E13E15E21E27
  24520733.599                   128857832.763 0                        47.000  
                  24520732.974    98735226.457          52.000  
  24158279.195                   126952900.867 0                        47.000  
                  24158277.819    97275700.576          51.000  
  26517748.374                   139351343.82710                        42.000  
                  26517746.480   106775706.116          43.000  
  25935320.400                   136291395.077 0                        37.000  
                  25935319.417   104431071.950          43.000  
  27777987.986                   145974182.911 0                        40.000  
                  27777986.896   111850347.327          44.000  
  23680234.942                   124440820.587 0                        49.000  
                  23680234.191    95350762.045          52.000  
  28481678.741                   149672216.98310                        35.000  
                  28481677.115   114684113.977          40.000  
  28403707.670                   149261693.80210                        37.000  
                  28403706.920   114369368.648          41.000  
 22  1 19  1  0 18.0010000  0  9G01G03G08G10G14G17G21G27G32
  20839149.546    20839146.330   109510224.243 0  85332645.503 0        49.000  
        48.000                                                  
  22885617.038    22885614.251   120264530.08810  93712667.071 0        44.000  
        46.000                                                  
  21885992.051    21885990.353   115011049.414 0  89618998.709 0        48.000  
        48.000                                                  
  24192256.946    24192254.158   127131521.544 0  99063525.465 0        40.000  
        40.000                                                  
  24599358.051    24599353.226   129270100.270 0 100729728.200 0        41.000  
        41.000                                                  
  25218380.801    25218373.421   132522744.919 0 103265521.337 0        42.000  
        38.000                                                  
  20841349.723                   109522030.914 0                        47.000  
                                                                
  24010078.290    24010074.966   126173794.767 0  98316762.274 0        43.000  
        40.000                                                  
  21569634.562    21569630.541   113348819.450 0  88323469.545 0        50.000  
        47.000                                                  
 22  1 19  1  0 17.0000000  0  0
 22  1 19  1  0 18.0010000  0  8E03E05E08E09E13E15E21E27
  24520334.405                   128855735.242 0                        47.000  
                  24520333.869    98733619.266          52.000  
  24158416.769                   126953623.733 0                        47.000  
                  24158415.304    97276254.459          51.000  
  26517146.277                   139348179.83410                        42.000  
                  26517144.347   106773281.770          43.000  
  25935836.851                   136294109.325 0                        37.000  
                  25935835.868   104433151.705          43.000  
  27777483.669                   145971532.975 0                        40.000  
                  27777482.614   111848316.845          44.000  
  23679972.500                   124439441.645 0                        49.000  
                  23679971.910    95349705.455          52.000  
  28481808.720                   149672899.55310                        35.000  
                  28481807.094   114684637.014          40.000  
  28404152.788                   149264032.32610                        37.000  
                  28404151.769   114371160.537          40.000  
 22  1 19  1  0 19.0010000  0  9G01G03G08G10G14G17G21G27G32
  20838773.511    20838770.205   109508247.848 0  85331105.455 0        49.000  
        48.000                                                  
  22885071.979    22885069.102   120261665.12210  93710434.639 0        43.000  
        46.000                                                  
  21886511.879    21886510.127   115013781.083 0  89621127.273 0        48.000  
        48.000                                                  
  24192834.705    24192831.882   127134557.542 0  99065891.184 0        40.000  
        40.000                                                  
  24599507.472    24599502.754   129270885.523 0 100730340.094 0        41.000  
        41.000                                                  
  25217760.764    25217753.509   132519487.109 0 103262982.765 0        42.000  
        38.000                                                  
  20841281.499                   109521672.765 0                        47.000  
                                                                
  24010798.215    24010795.016   126177578.459 0  98319710.621 0        43.000  
        40.000                                                  
  21569825.242    21569821.168   113349821.200 0  88324250.129 0        50.000  
        47.000                                                  
 22  1 19  1  0 18.0000000  0  0
 22  1 19  1  0 19.0010000  0  8E03E05E08E09E13E15E21E27
  24519935.408                   128853638.523 0                        47.000  
                  24519934.890    98732012.687          52.000  
  24158554.450                   126954347.474 0                        47.000  
                  24158553.145    97276809.013          51.000  
  26516544.359                   139345016.32310                        42.000  
                  26516542.250   106770857.776          43.000  
  25936353.551                   136296824.188 0                        37.000  
                  25936352.479   104435231.925          43.000  
  27776979.530                   145968883.418 0                        40.000  
                  27776978.583   111846286.678          44.000  
  23679710.254                   124438063.367 0                        49.000  
                  23679709.628    95348649.372          52.000  
  28481938.914                   149673583.06510                        35.000  
                  28481937.360   114685160.720          40.000  
  28404598.084                   149266371.50610                        37.000  
                  28404597.030   114372952.887          41.000  
 22  1 19  1  0 20.0010000  0  9G01G03G08G10G14G17G21G27G32
  20838397.421    20838394.098   109506271.703 0  85329565.601 0        49.000  
        48.000                                                  
  22884526.867    22884523.918   120258800.32510  93708202.323 0        43.000  
        46.000                                                  
  21887031.724    21887029.937   115016513.081 0  89623256.107 0        48.000  
        48.000                                                  
  24193412.482    24193409.623   127137593.513 0  99068256.876 0        41.000  
        40.000                                                  
  24599657.053    24599652.354   129271671.257 0 100730952.331 0        41.000  
        41.000                                                  
  25217140.798    25217133.668   132516229.358 0 103260444.281 0        42.000  
        38.000                                                  
  20841213.347                   109521314.847 0                        47.000  
                                                                
  24011518.211    24011514.977   126181362.169 0  98322658.974 0        43.000  
        40.000                                                  
  21570015.976    21570011.866   113350823.479 0  88325031.116 0        50.000  
        47.000                                                  
 22  1 19  1  0 19.0000000  0  0
 22  1 19  1  0 20.0010000  0  8E03E05E08E09E13E15E21E27
  24519536.375                   128851542.039 0                        47.000  
                  24519535.982    98730406.290          52.000  
  24158692.202                   126955071.555 0                        47.000  
                  24158690.898    97277363.833          51.000  
  26515942.351                   139341852.74710                        42.000  
                  26515940.225   106768433.733          43.000  
  25936870.252                   136299539.119 0                        37.000  
                  25936869.198   104437312.188          43.000  
  27776475.391                   145966233.775 0                        40.000  
                  27776474.390   111844256.435          44.000  
  23679447.919                   124436685.209 0                        49.000  
                  23679447.258    95347593.381          52.000  
  28482069.304                   149674266.88810                        34.000  
                  28482067.482   114685684.688          40.000  
  28405042.951                   149268710.74010                        37.000  
                  28405042.093   114374745.292          41.000  
 22  1 19  1  0 21.0010000  0  9G01G03G08G10G14G17G21G27G32
  20838021.403    20838018.151   109504295.642 0  85328025.805 0        49.000  
        48.000                                                  
  22883981.808    22883978.717   120255935.49110  93705969.985 0        43.000  
        46.000                                                  
  21887551.641    21887549.783   115019245.231 0  89625385.058 0        48.000  
        48.000                                                  
  24193990.241    24193987.203   127140629.259 0  99070622.392 0        41.000  
        40.000                                                  
  24599806.581    24599802.043   129272457.249 0 100731564.813 0        41.000  
        41.000                                                  
  25216520.743    25216513.792   132512971.516 0 103257905.700 0        42.000  
        38.000                                                  
  20841145.194                   109520956.977 0                        47.000  
                                                                
  24012238.172    24012234.920   126185145.721 0  98325607.180 0        43.000  
        40.000                                                  
  21570206.710    21570202.797   113351826.083 0  88325812.382 0        50.000  
        47.000                                                  
 22  1 19  1  0 20.0000000  0  0
 22  1 19  1  0 21.0010000  0  8E03E05E08E09E13E15E21E27
  24519137.592                   128849445.637 0                        47.000  
                  24519136.931    98728799.956          52.000  
  24158830.044                   126955795.798 0                        47.000  
                  24158828.686    97277918.770          51.000  
  26515340.362                   139338688.92410                        43.000  
                  26515338.128   106766009.505          43.000  
  25937386.899                   136302253.915 0                        37.000  
                  25937385.684   104439392.372          43.000  
  27775971.038                   145963583.831 0                        40.000  
                  27775970.198   111842225.951          44.000  
  23679185.655                   124435306.999 0                        49.000  
                  23679184.994    95346537.356          52.000  
  28482199.302                   149674950.90810                        34.000  
                  28482197.729   114686208.805          40.000  
  28405488.122                   149271049.88910                        37.000  
                  28405487.282   114376537.620          41.000  
 22  1 19  1  0 22.0010000  0  9G01G03G08G10G14G17G21G27G32
  20837645.475    20837642.205   109502319.863 0  85326486.239 0        49.000  
        48.000                                                  
  22883436.660    22883433.640   120253070.86810  93703737.802 0        43.000  
        46.000                                                  
  21888071.666    21888069.771   115021977.766 0  89627514.301 0        48.000  
        48.000                                                  
  24194567.929    24194564.784   127143665.016 0  99072987.920 0        41.000  
        40.000                                                  
  24599956.306    24599951.731   129273243.792 0 100732177.683 0        41.000  
        41.000                                                  
  25215900.741    25215894.076   132509713.803 0 103255367.231 0        42.000  
        38.000                                                  
  20841077.078                   109520599.391 0                        47.000  
                                                                
  24012958.169    24012954.881   126188929.334 0  98328555.457 0        43.000  
        40.000                                                  
  21570397.569    21570393.799   113352829.265 0  88326594.072 0        50.000  
        47.000                                                  
 22  1 19  1  0 21.0000000  0  0
 22  1 19  1  0 22.0010000  0  8E03E05E08E09E13E15E21E27
  24518738.559                   128847349.537 0                        47.000  
                  24518738.041    98727193.860          52.000  
  24158967.921                   126956520.451 0                        47.000  
                  24158966.617    97278474.021          51.000  
  26514738.194                   139335525.08710                        43.000  
                  26514736.157   106763585.264          43.000  
  25937903.582                   136304968.888 0                        37.000  
                  25937902.456   104441472.640          43.000  
  27775466.810                   145960933.839 0                        40.000  
                  27775465.899   111840195.438          44.000  
  23678923.463                   124433928.979 0                        49.000  
                  23678922.748    95345481.462          52.000  
  28482329.585                   149675635.33310                        34.000  
                  28482327.994   114686733.246          40.000  
  28405933.257                   149273389.15810                        37.000  
                  28405932.507   114378330.062          40.000  
 22  1 19  1  0 23.0010000  0  9G01G03G08G10G14G17G21G27G32
  20837269.582    20837266.312   109500344.683 0  85324947.142 0        49.000  
        48.000                                                  
  22882891.619    22882888.635   120250206.74910  93701506.028 0        43.000  
        46.000                                                  
  21888591.851    21888589.778   115024710.970 0  89629644.068 0        48.000  
        48.000                                                  
  24195145.759    24195142.454   127146701.090 0  99075353.701 0        40.000  
        40.000                                                  
  24600106.048    24600101.617   129274031.111 0 100732791.190 0        41.000  
        41.000                                                  
  25215280.918    25215274.307   132506456.512 0 103252829.101 0        42.000  
        38.000                                                  
  20841009.140                   109520242.380 0                        47.000  
                                                                
  24013678.308    24013674.913   126192713.294 0  98331503.981 0        43.000  
        40.000                                                  
  21570588.625    21570584.872   113353833.322 0  88327376.463 0        49.000  
        47.000                                                  
 22  1 19  1  0 22.0000000  0  0
 22  1 19  1  0 23.0010000  0  8E03E05E08E09E13E15E21E27
  24518339.704                   128845254.053 0                        47.000  
                  24518339.400    98725588.223          52.000  
  24159105.834                   126957245.788 0                        47.000  
                  24159104.637    97279029.801          51.000  
  26514135.972                   139332361.51710                        43.000  
                  26514134.096   106761161.245          43.000  
  25938420.211                   136307684.227 0                        37.000  
                  25938419.157   104443553.249          43.000  
  27774962.707                   145958284.070 0                        40.000  
                  27774961.599   111838165.113          44.000  
  23678661.289                   124432551.422 0                        49.000  
                  23678660.717    95344425.938          52.000  
  28482459.993                   149676320.47710                        35.000  
                  28482458.438   114687258.220          40.000  
  28406378.607                   149275728.84310                        37.000  
                  28406377.678   114380122.802          40.000  
 22  1 19  1  0 24.0010000  0  9G01G03G08G10G14G17G21G27G32
  20836893.725    20836890.544   109498369.688 0  85323408.189 0        49.000  
        48.000                                                  
  22882346.596    22882343.683   120247342.72210  93699274.323 0        43.000  
        46.000                                                  
  21889112.125    21889109.999   115027444.424 0  89631774.030 0        48.000  
        48.000                                                  
  24195723.501    24195720.052   127149737.065 0  99077719.377 0        40.000  
        40.000                                                  
  24600255.898    24600251.574   129274818.840 0 100733405.009 0        41.000  
        41.000                                                  
  25214661.096    25214654.556   132503199.268 0 103250290.962 0        42.000  
        38.000                                                  
  20840941.255                   109519885.536 0                        47.000  
                                                                
  24014398.341    24014394.910   126196497.201 0  98334452.502 0        43.000  
        40.000                                                  
  21570779.787    21570776.053   113354837.822 0  88328159.194 0        49.000  
        47.000                                                  
 22  1 19  1  0 23.0000000  0  0
 22  1 19  1  0 24.0010000  0  8E03E05E08E09E13E15E21E27
  24517941.118                   128843158.751 0                        47.000  
                  24517940.635    98723982.738          52.000  
  24159243.908                   126957971.403 0                        47.000  
                  24159242.800    97279585.790          51.000  
  26513533.982                   139329197.82010                        43.000  
                  26513531.999   106758737.110          43.000  
  25938936.965                   136310399.613 0                        37.000  
                  25938935.857   104445633.858          43.000  
  27774458.264                   145955634.149 0                        40.000  
                  27774457.371   111836134.641          44.000  
  23678399.311                   124431173.940 0                        49.000  
                  23678398.560    95343370.460          52.000  
  28482590.454                   149677005.91410                        34.000  
                  28482588.918   114687783.411          40.000  
  28406823.903                   149278068.56110                        37.000  
                  28406822.867   114381915.577          40.000  
 22  1 19  1  0 25.0010000  0  9G01G03G08G10G14G17G21G27G32
  20836517.993    20836514.795   109496394.948 0  85321869.426 0        49.000  
        48.000                                                  
  22881801.680    22881798.750   120244478.85010  93697042.739 0        43.000  
        46.000                                                  
  21889632.346    21889630.363   115030178.200 0  89633904.247 0        48.000  
        48.000                                                  
  24196301.278    24196297.740   127152772.995 0  99080085.056 0        40.000  
        40.000                                                  
  24600405.765    24600401.602   129275607.056 0 100734019.202 0        41.000  
        41.000                                                  
  25214041.291    25214034.733   132499942.089 0 103247752.912 0        42.000  
        38.000                                                  
  20840873.478                   109519528.924 0                        47.000  
                                                                
  24015118.444    24015114.978   126200281.151 0  98337401.021 0        43.000  
        40.000                                                  
  21570971.075    21570967.287   113355842.847 0  88328942.326 0        49.000  
        47.000                                                  
 22  1 19  1  0 24.0000000  0  0
 22  1 19  1  0 25.0010000  0  8E03E05E08E09E13E15E21E27
  24517542.317                   128841063.707 0                        47.000  
                  24517541.995    98722377.445          52.000  
  24159382.071                   126958697.365 0                        47.000  
                  24159380.821    97280142.049          51.000  
  26512931.921                   139326034.06210                        43.000  
                  26512930.009   106756312.932          43.000  
  25939453.559                   136313115.060 0                        37.000  
                  25939452.701   104447714.528          43.000  
  27773953.768                   145952984.101 0                        40.000  
                  27773952.964   111834104.085          44.000  
  23678137.119                   124429796.583 0                        49.000  
                  23678136.404    95342315.083          52.000  
  28482721.006                   149677691.71610                        34.000  
                  28482719.397   114688308.889          40.000  
  28407269.181                   149280408.38210                        37.000  
                  28407268.181   114383708.402          41.000  
 22  1 19  1  0 26.0000000  0  9G01G03G08G10G14G17G21G27G32
  20836142.190    20836139.080   109494420.299 0  85320330.741 0        49.000  
        48.000                                                  
  22881256.907    22881254.012   120241615.87910  93694811.845 0        43.000  
        46.000                                                  
  21890151.727    21890149.779   115032907.463 0  89636030.936 0        48.000  
        48.000                                                  
  24196878.143    24196874.427   127155803.744 0  99082446.682 0        40.000  
        40.000                                                  
  24600555.293    24600551.076   129276392.796 0 100734631.480 0        41.000  
        41.000                                                  
  25213421.754    25213415.214   132496686.116 0 103245215.781 0        43.000  
        38.000                                                  
  20840805.272                   109519170.766 0                        47.000  
                                                                
  24015837.369    24015833.974   126204059.160 0  98340344.929 0        43.000  
        40.000                                                  
  21571161.827    21571157.985   113356845.263 0  88329723.418 0        49.000  
        47.000                                                  
 22  1 19  1  0 25.0000000  0  0
 22  1 19  1  0 26.0000000  0  8E03E05E08E09E13E15E21E27
  24517143.802                   128838968.887 0                        47.000  
                  24517143.320    98720772.323          52.000  
  24159519.913                   126959420.813 0                        47.000  
                  24159518.484    97280696.381          51.000  
  26512330.039                   139322871.27010                        43.000  
                  26512328.145   106753889.493          43.000  
  25939969.312                   136315825.736 0                        37.000  
                  25939968.437   104449791.526          43.000  
  27773449.719                   145950334.470 0                        40.000  
                  27773448.790   111832073.841          44.000  
  23677874.784                   124428418.595 0                        49.000  
                  23677874.265    95341259.220          52.000  
  28482850.985                   149678375.01110                        34.000  
                  28482849.341   114688832.457          40.000  
  28407713.602                   149282743.76610                        37.000  
                  28407712.476   114385497.865          41.000  
 22  1 19  1  0 27.0000000  0  9G01G03G08G10G14G17G21G27G32
  20835766.619    20835763.313   109492446.243 0  85318792.518 0        49.000  
        48.000                                                  
  22880711.991    22880709.132   120238752.51110  93692580.657 0        43.000  
        46.000                                                  
  21890672.198    21890670.179   115035642.111 0  89638161.835 0        48.000  
        48.000                                                  
  24197455.867    24197452.150   127158839.800 0  99084812.415 0        40.000  
        40.000                                                  
  24600705.429    24600701.355   129277182.133 0 100735246.534 0        41.000  
        41.000                                                  
  25212802.020    25212795.462   132493429.295 0 103242678.007 0        43.000  
        38.000                                                  
  20840737.459                   109518814.806 0                        47.000  
                                                                
  24016557.526    24016554.131   126207843.313 0  98343293.610 0        43.000  
        40.000                                                  
  21571353.258    21571349.470   113357851.518 0  88330507.527 0        49.000  
        47.000                                                  
 22  1 19  1  0 26.0000000  0  0
 22  1 19  1  0 27.0000000  0  8E03E05E08E09E13E15E21E27
  24516745.287                   128836874.545 0                        47.000  
                  24516744.769    98719167.565          52.000  
  24159658.255                   126960147.652 0                        47.000  
                  24159656.772    97281253.308          51.000  
  26511728.282                   139319707.56210                        43.000  
                  26511726.156   106751465.349          43.000  
  25940486.138                   136318541.472 0                        37.000  
                  25940485.155   104451872.439          43.000  
  27772945.312                   145947684.384 0                        40.000  
                  27772944.347   111830043.265          44.000  
  23677612.842                   124427041.679 0                        49.000  
                  23677612.127    95340204.184          52.000  
  28482981.500                   149679061.69810                        34.000  
                  28482979.910   114689358.618          39.000  
  28408158.987                   149285083.90010                        37.000  
                  28408157.736   114387290.957          41.000  
 22  1 19  1  0 28.0000000  0  9G01G03G08G10G14G17G21G27G32
  20835391.244    20835387.849   109490473.372 0  85317255.216 0        49.000  
        48.000                                                  
  22880167.290    22880164.484   120235890.23610  93690350.308 0        43.000  
        46.000                                                  
  21891192.830    21891190.793   115038378.017 0  89640293.713 0        48.000  
        48.000                                                  
  24198033.804    24198030.016   127161876.723 0  99087178.857 0        40.000  
        40.000                                                  
  24600855.850    24600851.866   129277972.838 0 100735862.681 0        41.000  
        41.000                                                  
  25212182.376    25212175.854   132490173.463 0 103240140.993 0        43.000  
        38.000                                                  
  20840669.878                   109518460.010 0                        47.000  
                                                                
  24017277.773    24017274.431   126211628.408 0  98346243.044 0        43.000  
        40.000                                                  
  21571545.064    21571541.133   113358859.222 0  88331292.751 0        49.000  
        47.000                                                  
 22  1 19  1  0 27.0000000  0  0
 22  1 19  1  0 28.0000000  0  8E03E05E08E09E13E15E21E27
  24516346.897                   128834781.397 0                        47.000  
                  24516346.433    98717563.724          52.000  
  24159796.722                   126960875.768 0                        47.000  
                  24159795.453    97281811.212          51.000  
  26511126.292                   139316544.71910                        43.000  
                  26511124.202   106749041.892          43.000  
  25941003.071                   136321258.263 0                        37.000  
                  25941002.088   104453954.118          43.000  
  27772441.245                   145945035.138 0                        40.000  
                  27772440.262   111828013.319          44.000  
  23677351.025                   124425665.827 0                        49.000  
                  23677350.399    95339149.963          52.000  
  28483112.373                   149679749.67910                        34.000  
                  28483110.854   114689885.761          39.000  
  28408604.390                   149287425.05610                        37.000  
                  28408603.354   114389084.823          41.000  
 22  1 19  1  0 29.0000000  0  9G01G03G08G10G14G17G21G27G32
  20835015.798    20835012.331   109488500.296 0  85315717.756 0        49.000  
        48.000                                                  
  22879622.606    22879619.747   120233027.667 0  93688119.727 0        43.000  
        46.000                                                  
  21891713.515    21891711.335   115041113.806 0  89642425.492 0        48.000  
        48.000                                                  
  24198611.617    24198607.865   127164913.172 0  99089544.918 0        40.000  
        40.000                                                  
  24601006.254    24601002.251   129278763.572 0 100736478.829 0        41.000  
        41.000                                                  
  25211562.696    25211556.228   132486917.267 0 103237603.674 0        43.000  
        38.000                                                  
  20840602.351                   109518104.986 0                        47.000  
                                                                
  24017997.984    24017994.660   126215413.063 0  98349192.133 0        43.000  
        40.000                                                  
  21571736.799    21571733.011   113359867.006 0  88332078.030 0        49.000  
        47.000                                                  
 22  1 19  1  0 28.0000000  0  0
 22  1 19  1  0 29.0000000  0  8E03E05E08E09E13E15E21E27
  24515948.632                   128832688.038 0                        47.000  
                  24515947.953    98715959.722          52.000  
  24159935.207                   126961603.769 0                        47.000  
                  24159933.956    97282369.032          51.000  
  26510524.517                   139313381.36110                        43.000  
                  26510522.212   106746618.018          43.000  
  25941519.986                   136323974.650 0                        37.000  
                  25941519.218   104456035.499          43.000  
  27771937.035                   145942385.337 0                        40.000  
                  27771936.105   111825982.943          44.000  
  23677089.029                   124424289.650 0                        49.000  
                  23677088.493    95338095.487          52.000  
  28483243.335                   149680437.57310                        34.000  
                  28483241.620   114690412.832          39.000  
  28409049.686                   149289765.81510                        37.000  
                  28409048.811   114390878.395          41.000  
 22  1 19  1  0 30.0000000  0  9G01G03G08G10G14G17G21G27G32
  20834640.316    20834636.778   109486526.926 0  85314180.068 0        49.000  
        48.000                                                  
  22879077.833    22879074.831   120230164.698 0  93685888.855 0        43.000  
        46.000                                                  
  21892234.147    21892231.860   115043849.390 0  89644557.123 0        48.000  
        48.000                                                  
  24199189.305    24199185.660   127167949.035 0  99091910.532 0        40.000  
        40.000                                                  
  24601156.711    24601152.673   129279554.233 0 100737094.928 0        41.000  
        41.000                                                  
  25210942.927    25210936.476   132483660.587 0 103235066.031 0        43.000  
        38.000                                                  
  20840534.824                   109517749.657 0                        47.000  
                                                                
  24018718.123    24018714.728   126219197.187 0  98352140.773 0        43.000  
        40.000                                                  
  21571928.587    21571924.817   113360874.754 0  88332863.297 0        49.000  
        47.000                                                  
 22  1 19  1  0 29.0000000  0  0
 22  1 19  1  0 30.0000000  0  8E03E05E08E09E13E15E21E27
  24515550.189                   128830594.394 0                        47.000  
                  24515549.528    98714355.510          52.000  
  24160073.853                   126962331.574 0                        47.000  
                  24160072.370    97282926.705          51.000  
  26509922.403                   139310217.38310                        43.000  
                  26509920.044   106744193.675          43.000  
  25942036.937                   136326690.552 0                        37.000  
                  25942035.954   104458116.537          43.000  
  27771432.681                   145939734.855 0                        40.000  
                  27771431.627   111823952.056          44.000  
  23676827.248                   124422913.048 0                        49.000  
                  23676826.479    95337040.695          52.000  
  28483374.226                   149681125.24610                        34.000  
                  28483372.385   114690939.758          39.000  
  28409495.107                   149292106.13510                        37.000  
                  28409494.178   114392671.626          41.000  
 22  1 19  1  0 31.0000000  0  9G01G03G08G10G14G17G21G27G32
  20834264.852    20834261.368   109484553.909 0  85312642.647 0        48.000  
        48.000                                                  
  22878533.078    22878530.112   120227302.006 0  93683658.181 0        43.000  
        46.000                                                  
  21892754.851    21892752.474   115046585.423 0  89646689.092 0        48.000  
        48.000                                                  
  24199767.064    24199763.347   127170984.963 0  99094276.176 0        40.000  
        40.000                                                  
  24601307.222    24601303.148   129280345.448 0 100737711.462 0        41.000  
        41.000                                                  
  25210323.265    25210316.761   132480404.094 0 103232528.473 0        43.000  
        38.000                                                  
  20840467.297                   109517394.650 0                        47.000  
                                                                
  24019438.263    24019434.886   126222981.422 0  98355089.533 0        43.000  
        39.000                                                  
  21572120.375    21572116.730   113361883.130 0  88333649.031 0        49.000  
        46.000                                                  
 22  1 19  1  0 30.0000000  0  0
 22  1 19  1  0 31.0000000  0  8E03E05E08E09E13E15E21E27
  24515151.871                   128828501.128 0                        47.000  
                  24515151.227    98712751.571          52.000  
  24160212.409                   126963059.834 0                        47.000  
                  24160210.997    97283484.726          51.000  
  26509320.199                   139307053.46010                        43.000  
                  26509318.037   106741769.364          43.000  
  25942554.013                   136329406.637 0                        37.000  
                  25942552.887   104460197.697          43.000  
  27770928.400                   145937084.391 0                        40.000  
                  27770927.292   111821921.188          44.000  
  23676565.288                   124421536.697 0                        49.000  
                  23676564.537    95335986.080          52.000  
  28483505.384                   149681813.38310                        34.000  
                  28483503.329   114691467.049          39.000  
  28409940.261                   149294446.61610                        37.000  
                  28409939.546   114394464.984          41.000  
 22  1 19  1  0 32.0000000  0  9G01G03G08G10G14G17G21G27G32
  20833889.460    20833886.011   109482581.566 0  85311105.752 0        49.000  
        48.000                                                  
  22877988.466    22877985.500   120224439.895 0  93681427.955 0        43.000  
        46.000                                                  
  21893275.625    21893273.177   115049322.221 0  89648821.655 0        48.000  
        48.000                                                  
  24200344.841    24200341.231   127174021.286 0  99096642.159 0        40.000  
        40.000                                                  
  24601457.840    24601453.819   129281137.552 0 100738328.695 0        41.000  
        41.000                                                  
  25209703.728    25209697.153   132477148.119 0 103229991.339 0        43.000  
        38.000                                                  
  20840399.878                   109517040.313 0                        47.000  
                                                                
  24020158.474    24020155.114   126226766.103 0  98358038.651 0        43.000  
        39.000                                                  
  21572312.360    21572308.786   113362892.437 0  88334435.518 0        49.000  
        46.000                                                  
 22  1 19  1  0 31.0000000  0  0
 22  1 19  1  0 32.0000000  0  8E03E05E08E09E13E15E21E27
  24514753.642                   128826408.520 0                        47.000  
                  24514753.123    98711148.144          52.000  
  24160351.234                   126963788.854 0                        47.000  
                  24160349.697    97284043.319          51.000  
  26508718.281                   139303889.88110                        43.000  
                  26508715.994   106739345.317          43.000  
  25943071.017                   136332123.240 0                        37.000  
                  25943069.802   104462279.233          43.000  
  27770424.136                   145934434.226 0                        39.000  
                  27770422.957   111819890.535          44.000  
  23676303.471                   124420160.893 0                        49.000  
                  23676302.756    95334931.890          52.000  
  28483636.686                   149682502.32710                        34.000  
                  28483634.506   114691994.930          39.000  
  28410385.860                   149296787.62810                        37.000  
                  28410385.146   114396258.726          41.000  
 22  1 19  1  0 33.0000000  0  9G01G03G08G10G14G17G21G27G32
  20833514.157    20833510.779   109480609.816 0  85309569.335 0        49.000  
        48.000                                                  
  22877443.872    22877440.924   120221578.279 0  93679198.145 0        43.000  
        46.000                                                  
  21893796.525    21893794.131   115052059.701 0  89650954.763 0        48.000  
        48.000                                                  
  24200922.743    24200919.098   127177057.933 0  99099008.395 0        40.000  
        40.000                                                  
  24601608.744    24601604.723   129281930.502 0 100738946.569 0        41.000  
        41.000                                                  
  25209084.191    25209077.580   132473892.574 0 103227454.572 0        43.000  
        39.000                                                  
  20840332.493                   109516686.556 0                        47.000  
                                                                
  24020878.738    24020875.504   126230551.143 0  98360988.032 0        43.000  
        39.000                                                  
  21572504.523    21572501.093   113363902.635 0  88335222.676 0        49.000  
        47.000                                                  
 22  1 19  1  0 32.0000000  0  0
 22  1 19  1  0 33.0000000  0  8E03E05E08E09E13E15E21E27
  24514355.430                   128824316.540 0                        47.000  
                  24514354.859    98709545.207          52.000  
  24160489.915                   126964518.578 0                        47.000  
                  24160488.539    97284602.458          51.000  
  26508116.238                   139300726.59910                        43.000  
                  26508114.058   106736921.519          43.000  
  25943588.022                   136334840.261 0                        37.000  
                  25943586.735   104464361.115          43.000  
  27769919.801                   145931784.313 0                        40.000  
                  27769918.728   111817860.087          44.000  
  23676041.583                   124418785.570 0                        49.000  
                  23676041.064    95333878.075          52.000  
  28483768.148                   149683191.96310                        35.000  
                  28483765.664   114692523.362          39.000  
  28410831.389                   149299129.03610                        37.000  
                  28410830.567   114398052.810          41.000  
 22  1 19  1  0 34.0000000  0  9G01G03G08G10G14G17G21G27G32
  20833139.068    20833135.673   109478638.398 0  85308033.167 0        49.000  
        48.000                                                  
  22876899.421    22876896.455   120218716.902 0  93676968.498 0        43.000  
        46.000                                                  
  21894317.550    21894315.245   115054797.585 0  89653088.179 0        48.000  
        48.000                                                  
  24201500.609    24201497.018   127180094.603 0  99101374.624 0        40.000  
        40.000                                                  
  24601759.666    24601755.663   129282723.953 0 100739564.845 0        41.000  
        41.000                                                  
  25208464.708    25208458.204   132470637.176 0 103224917.882 0        43.000  
        39.000                                                  
  20840265.342                   109516333.110 0                        47.000  
                                                                
  24021599.164    24021595.786   126234336.264 0  98363937.478 0        43.000  
        39.000                                                  
  21572696.830    21572693.453   113364913.424 0  88336010.313 0        49.000  
        47.000                                                  
 22  1 19  1  0 33.0000000  0  0
 22  1 19  1  0 34.0000000  0  8E03E05E08E09E13E15E21E27
  24513957.469                   128822224.886 0                        47.000  
                  24513956.880    98707942.506          52.000  
  24160628.954                   126965248.727 0                        47.000  
                  24160627.471    97285161.926          51.000  
  26507514.248                   139297563.32210                        43.000  
                  26507512.140   106734497.691          43.000  
  25944104.955                   136337557.405 0                        37.000  
                  25944103.757   104466443.084          43.000  
  27769415.412                   145929134.369 0                        40.000  
                  27769414.393   111815829.610          44.000  
  23675779.962                   124417410.455 0                        49.000  
                  23675779.373    95332824.416          52.000  
  28483899.557                   149683882.02810                        35.000  
                  28483896.930   114693052.111          38.000  
  28411276.971                   149301470.61410                        37.000  
                  28411276.149   114399847.011          41.000  
 22  1 19  1  0 35.0000000  0  9G01G03G08G10G14G17G21G27G32
  20832763.890    20832760.531   109476666.921 0  85306496.945 0        49.000  
        48.000                                                  
  22876354.970    22876351.914   120215855.374 0  93674738.730 0        43.000  
        46.000                                                  
  21894838.575    21894836.306   115057535.490 0  89655221.609 0        48.000  
        48.000                                                  
  24202078.440    24202074.920   127183130.918 0  99103740.598 0        40.000  
        40.000                                                  
  24601910.748    24601906.585   129283517.593 0 100740183.263 0        41.000  
        41.000                                                  
  25207845.064    25207838.649   132467381.529 0 103222381.017 0        43.000  
        39.000                                                  
  20840198.065                   109515979.565 0                        47.000  
                                                                
  24022319.428    24022315.926   126238121.092 0  98366886.683 0        43.000  
        39.000                                                  
  21572889.208    21572885.848   113365924.412 0  88336798.091 0        49.000  
        47.000                                                  
 22  1 19  1  0 34.0000000  0  0
 22  1 19  1  0 35.0000000  0  8E03E05E08E09E13E15E21E27
  24513559.401                   128820133.176 0                        47.000  
                  24513558.865    98706339.763          52.000  
  24160767.689                   126965978.891 0                        47.000  
                  24160766.492    97285721.404          51.000  
  26506912.044                   139294399.66110                        43.000  
                  26506909.953   106732073.596          43.000  
  25944621.852                   136340274.325 0                        37.000  
                  25944620.941   104468524.865          43.000  
  27768911.094                   145926483.995 0                        40.000  
                  27768910.129   111813798.804          44.000  
  23675518.235                   124416035.155 0                        49.000  
                  23675517.627    95331770.608          52.000  
  28484031.091                   149684572.17010                        35.000  
                  28484028.196   114693580.913          38.000  
  28411722.767                   149303811.97510                        37.000  
                  28411721.677   114401641.030          41.000  
 22  1 19  1  0 36.0000000  0  9G01G03G08G10G14G17G21G27G32
  20832388.819    20832385.496   109474695.896 0  85304961.090 0        49.000  
        48.000                                                  
  22875810.536    22875807.373   120212994.211 0  93672509.251 0        44.000  
        46.000                                                  
  21895359.797    21895357.384   115060273.941 0  89657355.476 0        48.000  
        48.000                                                  
  24202656.181    24202652.750   127186167.435 0  99106106.688 0        40.000  
        40.000                                                  
  24602061.956    24602057.739   129284311.874 0 100740802.181 0        41.000  
        41.000                                                  
  25207225.456    25207219.291   132464126.163 0 103219844.373 0        43.000  
        40.000                                                  
  20840130.895                   109515626.457 0                        47.000  
                                                                
  24023039.675    24023036.173   126241906.155 0  98369836.108 0        43.000  
        39.000                                                  
  21573081.568    21573078.405   113366936.136 0  88337586.450 0        49.000  
        47.000                                                  
 22  1 19  1  0 35.0000000  0  0
 22  1 19  1  0 36.0000000  0  8E03E05E08E09E13E15E21E27
  24513161.440                   128818041.927 0                        47.000  
                  24513160.958    98704737.375          52.000  
  24160906.907                   126966709.625 0                        47.000  
                  24160905.495    97286281.317          51.000  
  26506310.108                   139291236.14610                        43.000  
                  26506308.125   106729649.609          43.000  
  25945138.767                   136342991.513 0                        37.000  
                  25945137.981   104470606.868          43.000  
  27768406.705                   145923833.713 0                        40.000  
                  27768405.794   111811768.084          44.000  
  23675256.561                   124414660.181 0                        49.000  
                  23675256.007    95330717.065          52.000  
  28484162.786                   149685262.84210                        35.000  
                  28484159.533   114694110.134          38.000  
  28412168.260                   149306153.59810                        37.000  
                  28412167.348   114403435.269          41.000  
 22  1 19  1  0 37.0000000  0  9G01G03G08G10G14G17G21G27G32
  20832013.766    20832010.407   109472725.253 0  85303425.513 0        49.000  
        48.000                                                  
  22875266.121    22875263.029   120210133.332 0  93670280.000 0        43.000  
        46.000                                                  
  21895880.983    21895878.588   115063012.844 0  89659489.679 0        48.000  
        48.000                                                  
  24203233.976    24203230.599   127189204.002 0  99108472.855 0        40.000  
        40.000                                                  
  24602213.092    24602208.893   129285106.764 0 100741421.566 0        41.000  
        41.000                                                  
  25206605.990    25206599.915   132460871.018 0 103217307.914 0        43.000  
        40.000                                                  
  20840063.797                   109515273.701 0                        47.000  
                                                                
  24023760.011    24023756.402   126245691.327 0  98372785.592 0        43.000  
        39.000                                                  
  21573274.142    21573271.033   113367948.486 0  88338375.296 0        49.000  
        47.000                                                  
 22  1 19  1  0 36.0000000  0  0
 22  1 19  1  0 37.0000000  0  8E03E05E08E09E13E15E21E27
  24512763.604                   128815951.053 0                        47.000  
                  24512763.068    98703135.284          52.000  
  24161045.838                   126967440.816 0                        47.000  
                  24161044.641    97286841.574          51.000  
  26505708.315                   139288072.68810                        43.000  
                  26505706.207   106727225.656          43.000  
  25945655.825                   136345708.883 0                        37.000  
                  25945655.021   104472689.033          43.000  
  27767902.245                   145921183.457 0                        40.000  
                  27767901.494   111809737.367          44.000  
  23674994.976                   124413285.466 0                        49.000  
                  23674994.422    95329663.710          52.000  
  28484294.355                   149685954.01310                        35.000  
                  28484290.960   114694639.717          38.000  
  28412614.020                   149308495.42610                        37.000  
                  28412613.073   114405229.661          41.000  
 22  1 19  1  0 38.0000000  0  9G01G03G08G10G14G17G21G27G32
  20831638.785    20831635.443   109470754.900 0  85301890.173 0        49.000  
        48.000                                                  
  22874721.687    22874718.650   120207272.647 0  93668050.897 0        44.000  
        46.000                                                  
  21896402.186    21896399.917   115065752.113 0  89661624.175 0        48.000  
        48.000                                                  
  24203811.914    24203808.429   127192240.575 0  99110839.019 0        40.000  
        40.000                                                  
  24602364.460    24602360.154   129285902.149 0 100742041.363 0        41.000  
        41.000                                                  
  25205986.561    25205980.557   132457615.987 0 103214771.531 0        43.000  
        40.000                                                  
  20839996.681                   109514921.224 0                        47.000  
                                                                
  24024480.329    24024476.666   126249476.589 0  98375735.136 0        43.000  
        39.000                                                  
  21573466.806    21573463.733   113368961.413 0  88339164.581 0        49.000  
        46.000                                                  
 22  1 19  1  0 37.0000000  0  0
 22  1 19  1  0 38.0000000  0  8E03E05E08E09E13E15E21E27
  24512365.733                   128813860.493 0                        47.000  
                  24512365.250    98701533.424          52.000  
  24161185.127                   126968172.391 0                        47.000  
                  24161183.823    97287402.138          51.000  
  26505106.433                   139284909.19710                        43.000  
                  26505104.235   106724801.691          43.000  
  25946172.937                   136348426.405 0                        37.000  
                  25946172.079   104474771.273          43.000  
  27767398.017                   145918533.142 0                        40.000  
                  27767397.088   111807706.595          44.000  
  23674733.463                   124411910.926 0                        49.000  
                  23674732.766    95328610.491          52.000  
  28484426.032                   149686645.56310                        35.000  
                  28484422.405   114695169.644          38.000  
  28413059.638                   149310837.41210                        37.000  
                  28413058.602   114407024.143          41.000  
 22  1 19  1  0 39.0000000  0  9G01G03G08G10G14G17G21G27G32
  20831263.911    20831260.480   109468784.784 0  85300355.015 0        49.000  
        48.000                                                  
  22874177.325    22874174.341   120204412.117 0  93665821.915 0        44.000  
        46.000                                                  
  21896923.497    21896921.228   115068491.702 0  89663758.920 0        48.000  
        48.000                                                  
  24204389.691    24204386.314   127195277.125 0  99113205.129 0        40.000  
        40.000                                                  
  24602516.008    24602511.540   129286698.018 0 100742661.498 0        41.000  
        41.000                                                  
  25205367.131    25205361.163   132454361.032 0 103212235.193 0        42.000  
        40.000                                                  
  20839929.654                   109514568.970 0                        47.000  
                                                                
  24025200.594    24025196.949   126253261.828 0  98378684.670 0        43.000  
        39.000                                                  
  21573659.649    21573656.557   113369974.845 0  88339954.280 0        49.000  
        47.000                                                  
 22  1 19  1  0 38.0000000  0  0
 22  1 19  1  0 39.0000000  0  8E03E05E08E09E13E15E21E27
  24511968.147                   128811770.165 0                        47.000  
                  24511967.378    98699931.744          52.000  
  24161324.559                   126968904.307 0                        47.000  
                  24161323.058    97287962.957          51.000  
  26504504.443                   139281745.64710                        43.000  
                  26504502.281   106722377.664          43.000  
  25946689.941                   136351143.962 0                        37.000  
                  25946689.262   104476853.557          43.000  
  27766893.735                   145915882.705 0                        40.000  
                  27766892.842   111805675.735          44.000  
  23674471.914                   124410536.504 0                        49.000  
                  23674471.253    95327557.358          52.000  
  28484557.673                   149687337.48210                        35.000  
                  28484554.046   114695699.771          38.000  
  28413505.560                   149313179.40410                        38.000  
                  28413504.273   114408818.668          41.000  
 22  1 19  1  0 40.0000000  0  9G01G03G08G10G14G17G21G27G32
  20830889.233    20830885.766   109466815.362 0  85298820.405 0        49.000  
        48.000                                                  
  22873633.124    22873630.015   120201552.183 0  93663593.388 0        43.000  
        46.000                                                  
  21897444.969    21897442.735   115071232.072 0  89665894.273 0        48.000  
        48.000                                                  
  24204967.575    24204964.073   127198314.059 0  99115571.587 0        40.000  
        40.000                                                  
  24602667.555    24602663.141   129287494.744 0 100743282.351 0        41.000  
        41.000                                                  
  25204747.773    25204741.912   132451106.591 0 103209699.260 0        42.000  
        40.000                                                  
  20839862.735                   109514217.391 0                        47.000  
                                                                
  24025921.001    24025917.338   126257047.507 0  98381634.568 0        43.000  
        39.000                                                  
  21573852.598    21573849.614   113370989.261 0  88340744.726 0        49.000  
        46.000                                                  
 22  1 19  1  0 39.0000000  0  0
 22  1 19  1  0 40.0000000  0  8E03E05E08E09E13E15E21E27
  24511570.221                   128809680.562 0                        47.000  
                  24511569.775    98698330.615          52.000  
  24161463.884                   126969637.013 0                        47.000  
                  24161462.651    97288524.374          51.000  
  26503902.597                   139278582.47610                        43.000  
                  26503900.202   106719953.946          43.000  
  25947207.142                   136353862.033 0                        37.000  
                  25947206.463   104478936.232          43.000  
  27766389.328                   145913232.595 0                        40.000  
                  27766388.578   111803645.146          45.000  
  23674210.276                   124409162.663 0                        49.000  
                  23674209.865    95326504.679          52.000  
  28484689.439                   149688030.17910                        35.000  
                  28484685.776   114696230.578          38.000  
  28413951.106                   149315521.96510                        38.000  
                  28413950.016   114410613.606          41.000  
 22  1 19  1  0 41.0000000  0  9G01G03G08G10G14G17G21G27G32
  20830514.537    20830511.089   109464846.168 0  85297285.964 0        49.000  
        48.000                                                  
  22873088.941    22873085.903   120198692.387 0  93661364.982 0        43.000  
        46.000                                                  
  21897966.619    21897964.332   115073972.736 0  89668029.862 0        48.000  
        48.000                                                  
  24205545.441    24205541.850   127201350.952 0  99117937.995 0        40.000  
        40.000                                                  
  24602819.281    24602814.867   129288291.943 0 100743903.527 0        41.000  
        41.000                                                  
  25204128.450    25204122.589   132447852.217 0 103207163.385 0        42.000  
        40.000                                                  
  20839795.905                   109513866.011 0                        47.000  
                                                                
  24026641.427    24026637.674   126260833.213 0  98384584.455 0        43.000  
        39.000                                                  
  21574045.727    21574042.796   113372004.137 0  88341535.546 0        49.000  
        46.000                                                  
 22  1 19  1  0 40.0000000  0  0
 22  1 19  1  0 41.0000000  0  8E03E05E08E09E13E15E21E27
  24511172.564                   128807591.156 0                        47.000  
                  24511172.135    98696729.650          52.000  
  24161603.370                   126970370.026 0                        47.000  
                  24161602.137    97289086.040          51.000  
  26503300.500                   139275419.20210                        43.000  
                  26503298.284   106717530.132          43.000  
  25947724.343                   136356580.131 0                        37.000  
                  25947723.736   104481018.939          43.000  
  27765884.922                   145910582.337 0                        39.000  
                  27765884.350   111801614.435          45.000  
  23673949.049                   124407788.909 0                        49.000  
                  23673948.548    95325452.058          52.000  
  28484821.241                   149688723.21710                        35.000  
                  28484817.703   114696761.588          38.000  
  28414396.920                   149317864.57410                        38.000  
                  28414395.651   114412408.578          41.000  
 22  1 19  1  0 42.0000000  0  9G01G03G08G10G14G17G21G27G32
  20830139.753    20830136.447   109462877.346 0  85295751.831 0        49.000  
        48.000                                                  
  22872544.811    22872541.738   120195832.878 0  93659136.792 0        44.000  
        46.000                                                  
  21898488.305    21898485.947   115076713.886 0  89670165.812 0        48.000  
        48.000                                                  
  24206123.343    24206119.752   127204387.907 0  99120304.467 0        40.000  
        40.000                                                  
  24602971.114    24602966.611   129289089.720 0 100744525.189 0        41.000  
        41.000                                                  
  25203509.217    25203503.338   132444598.043 0 103204627.690 0        42.000  
        40.000                                                  
  20839728.985                   109513515.004 0                        47.000  
                                                                
  24027361.959    24027358.010   126264619.059 0  98387534.451 0        43.000  
        39.000                                                  
  21574238.998    21574236.050   113373019.688 0  88342326.882 0        49.000  
        46.000                                                  
 22  1 19  1  0 41.0000000  0  0
 22  1 19  1  0 42.0000000  0  8E03E05E08E09E13E15E21E27
  24510775.050                   128805502.166 0                        47.000  
                  24510774.675    98695128.991          52.000  
  24161742.802                   126971103.530 0                        47.000  
                  24161741.676    97289648.075          51.000  
  26502698.564                   139272255.98410                        43.000  
                  26502696.402   106715106.375          43.000  
  25948241.633                   136359298.469 0                        37.000  
                  25948240.954   104483101.820          43.000  
  27765380.640                   145907932.137 0                        39.000  
                  27765379.997   111799583.753          45.000  
  23673687.732                   124406415.429 0                        49.000  
                  23673687.107    95324399.653          52.000  
  28484953.293                   149689416.76210                        35.000  
                  28484949.684   114697292.997          37.000  
  28414842.573                   149320207.37310                        38.000  
                  28414841.501   114414203.719          41.000  
 22  1 19  1  0 43.0000000  0  9G01G03G08G10G14G17G21G27G32
  20829765.182    20829761.787   109460908.719 0  85294217.833 0        49.000  
        48.000                                                  
  22872000.646    22871997.698   120192973.452 0  93656908.676 0        43.000  
        46.000                                                  
  21899010.009    21899007.633   115079455.292 0  89672301.979 0        48.000  
        48.000                                                  
  24206701.281    24206697.672   127207424.782 0  99122670.859 0        40.000  
        40.000                                                  
  24603122.929    24603118.337   129289887.937 0 100745147.151 0        41.000  
        41.000                                                  
  25202889.841    25202884.069   132441343.883 0 103202091.974 0        42.000  
        41.000                                                  
  20839662.155                   109513164.159 0                        47.000  
                                                                
  24028082.367    24028078.346   126268404.835 0  98390484.402 0        43.000  
        39.000                                                  
  21574432.323    21574429.339   113374035.682 0  88343118.577 0        49.000  
        46.000                                                  
 22  1 19  1  0 42.0000000  0  0
 22  1 19  1  0 43.0000000  0  8E03E05E08E09E13E15E21E27
  24510377.643                   128803413.364 0                        47.000  
                  24510377.196    98693528.485          52.000  
  24161882.591                   126971837.312 0                        47.000  
                  24161881.304    97290210.320          51.000  
  26502096.485                   139269092.66410                        43.000  
                  26502094.377   106712682.525          43.000  
  25948758.745                   136362016.801 0                        37.000  
                  25948758.352   104485184.697          43.000  
  27764876.322                   145905281.740 0                        39.000  
                  27764875.679   111797552.932          45.000  
  23673426.415                   124405042.016 0                        49.000  
                  23673425.736    95323347.300          52.000  
  28485085.310                   149690110.57410                        35.000  
                  28485081.718   114697824.631          37.000  
  28415288.441                   149322550.17510                        38.000  
                  28415287.405   114415998.862          41.000  
 22  1 19  1  0 44.0000000  0  9G01G03G08G10G14G17G21G27G32
  20829390.612    20829387.181   109458940.467 0  85292684.128 0        49.000  
        48.000                                                  
  22871456.481    22871453.497   120190114.316 0  93654680.778 0        43.000  
        45.000                                                  
  21899531.713    21899529.390   115082197.141 0  89674438.491 0        48.000  
        48.000                                                  
  24207279.219    24207275.610   127210461.748 0  99125037.326 0        40.000  
        40.000                                                  
  24603274.994    24603270.295   129290686.700 0 100745769.582 0        41.000  
        41.000                                                  
  25202270.519    25202264.908   132438089.912 0 103199556.439 0        43.000  
        41.000                                                  
  20839595.450                   109512813.665 0                        47.000  
                                                                
  24028802.757    24028798.736   126272190.749 0  98393434.467 0        43.000  
        39.000                                                  
  21574625.791    21574622.771   113375052.322 0  88343910.759 0        49.000  
        46.000                                                  
 22  1 19  1  0 43.0000000  0  0
 22  1 19  1  0 44.0000000  0  8E03E05E08E09E13E15E21E27
  24509980.218                   128801324.934 0                        47.000  
                  24509979.807    98691928.258          52.000  
  24162022.255                   126972571.540 0                        47.000  
                  24162020.987    97290772.921          51.000  
  26501494.407                   139265929.36910                        43.000  
                  26501492.387   106710258.715          43.000  
  25949276.232                   136364735.318 0                        37.000  
                  25949275.696   104487267.721          43.000  
  27764372.005                   145902631.343 0                        39.000  
                  27764371.183   111795522.122          45.000  
  23673165.009                   124403668.841 0                        49.000  
                  23673164.330    95322295.129          52.000  
  28485217.469                   149690804.88510                        35.000  
                  28485213.752   114698356.660          37.000  
  28415734.363                   149324893.19410                        38.000  
                  28415733.344   114417794.167          41.000  
 22  1 19  1  0 45.0000000  0  9G01G03G08G10G14G17G21G27G32
  20829016.113    20829012.771   109456972.329 0  85291150.510 0        49.000  
        48.000                                                  
  22870912.423    22870909.492   120187255.189 0  93652452.885 0        43.000  
        46.000                                                  
  21900053.471    21900051.237   115084939.177 0  89676575.134 0        48.000  
        48.000                                                  
  24207857.139    24207853.458   127213498.533 0  99127403.626 0        40.000  
        40.000                                                  
  24603427.060    24603422.360   129291485.806 0 100746392.260 0        41.000  
        41.000                                                  
  25201651.232    25201645.657   132434835.902 0 103197020.834 0        43.000  
        41.000                                                  
  20839528.691                   109512463.277 0                        47.000  
                                                                
  24029523.200    24029519.090   126275976.525 0  98396384.441 0        43.000  
        39.000                                                  
  21574819.277    21574816.293   113376069.346 0  88344703.250 0        49.000  
        46.000                                                  
 22  1 19  1  0 44.0000000  0  0
 22  1 19  1  0 45.0000000  0  8E03E05E08E09E13E15E21E27
  24509582.918                   128799236.623 0                        47.000  
                  24509582.382    98690328.118          52.000  
  24162161.991                   126973306.000 0                        47.000  
                  24162160.669    97291335.685          51.000  
  26500892.435                   139262765.87810                        43.000  
                  26500890.380   106707834.740          43.000  
  25949793.612                   136367453.773 0                        37.000  
                  25949792.879   104489350.689          43.000  
  27763867.616                   145899980.726 0                        39.000  
                  27763866.937   111793491.114          45.000  
  23672903.729                   124402295.666 0                        49.000  
                  23672903.067    95321242.956          52.000  
  28485349.342                   149691499.42210                        35.000  
                  28485345.894   114698888.797          37.000  
  28416180.374                   149327236.14510                        38.000  
                  28416179.105   114419589.406          41.000  
 22  1 19  1  0 46.0000000  0  9G01G03G08G10G14G17G21G27G32
  20828641.685    20828638.308   109455004.840 0  85289617.406 0        49.000  
        48.000                                                  
  22870368.489    22870365.541   120184396.646 0  93650225.458 0        43.000  
        45.000                                                  
  21900575.318    21900573.227   115087681.956 0  89678712.369 0        48.000  
        49.000                                                  
  24208435.113    24208431.432   127216535.675 0  99129770.247 0        40.000  
        40.000                                                  
  24603579.393    24603574.604   129292285.792 0 100747015.621 0        41.000  
        41.000                                                  
  25201032.160    25201026.584   132431582.385 0 103194485.635 0        43.000  
        40.000                                                  
  20839462.147                   109512113.523 0                        47.000  
                                                                
  24030243.661    24030239.640   126279762.767 0  98399334.750 0        42.000  
        39.000                                                  
  21575012.941    21575009.903   113377087.303 0  88345496.459 0        49.000  
        46.000                                                  
 22  1 19  1  0 45.0000000  0  0
 22  1 19  1  0 46.0000000  0  8E03E05E08E09E13E15E21E27
  24509185.386                   128797148.991 0                        47.000  
                  24509185.172    98688728.505          52.000  
  24162301.798                   126974041.206 0                        47.000  
                  24162300.708    97291899.024          51.000  
  26500290.517                   139259602.74610                        43.000  
                  26500288.426   106705411.045          43.000  
  25950311.027                   136370172.707 0                        37.000  
                  25950310.277   104491434.028          43.000  
  27763363.299                   145897330.403 0                        39.000  
                  27763362.620   111791460.358          45.000  
  23672642.519                   124400923.039 0                        49.000  
                  23672641.947    95320191.197          52.000  
  28485481.645                   149692194.67510                        35.000  
                  28485478.124   114699421.553          37.000  
  28416626.313                   149329579.59910                        38.000  
                  28416625.187   114421385.035          41.000  
 22  1 19  1  0 47.0000000  0  9G01G03G08G10G14G17G21G27G32
  20828267.329    20828264.023   109453037.572 0  85288084.472 0        49.000  
        48.000                                                  
  22869824.539    22869821.537   120181538.212 0  93647998.100 0        43.000  
        45.000                                                  
  21901097.326    21901095.306   115090425.020 0  89680849.817 0        48.000  
        49.000                                                  
  24209013.086    24209009.441   127219572.770 0  99132136.796 0        40.000  
        40.000                                                  
  24603731.709    24603726.848   129293086.186 0 100747639.323 0        41.000  
        41.000                                                  
  25200413.087    25200407.476   132428328.886 0 103191950.454 0        43.000  
        40.000                                                  
  20839395.567                   109511763.969 0                        47.000  
                                                                
  24030964.104    24030960.084   126283548.936 0  98402285.024 0        42.000  
        39.000                                                  
  21575206.856    21575203.747   113378105.738 0  88346290.047 0        49.000  
        46.000                                                  
 22  1 19  1  0 46.0000000  0  0
 22  1 19  1  0 47.0000000  0  8E03E05E08E09E13E15E21E27
  24508788.158                   128795061.566 0                        47.000  
                  24508787.907    98687129.053          52.000  
  24162441.498                   126974776.705 0                        47.000  
                  24162440.605    97292462.586          51.000  
  26499688.402                   139256439.49810                        43.000  
                  26499686.472   106702987.249          43.000  
  25950828.246                   136372891.691 0                        37.000  
                  25950827.549   104493517.383          43.000  
  27762858.928                   145894679.936 0                        39.000  
                  27762858.195   111789429.480          45.000  
  23672381.542                   124399550.486 0                        49.000  
                  23672380.809    95319139.509          52.000  
  28485613.893                   149692890.30710                        35.000  
                  28485610.623   114699954.551          37.000  
  28417072.359                   149331923.06410                        38.000  
                  28417071.180   114423180.695          41.000  
 22  1 19  1  0 48.0000000  0  9G01G03G08G10G14G17G21G27G32
  20827893.080    20827889.739   109451070.854 0  85286551.960 0        49.000  
        48.000                                                  
  22869280.713    22869277.746   120178680.229 0  93645771.114 0        43.000  
        45.000                                                  
  21901619.441    21901617.386   115093168.709 0  89682987.756 0        48.000  
        49.000                                                  
  24209591.042    24209587.522   127222610.080 0  99134503.558 0        40.000  
        40.000                                                  
  24603884.149    24603879.343   129293887.358 0 100748263.595 0        41.000  
        41.000                                                  
  25199794.104    25199788.368   132425075.786 0 103189415.564 0        43.000  
        40.000                                                  
  20839329.148                   109511414.940 0                        47.000  
                                                                
  24031684.565    24031680.652   126287335.437 0  98405235.539 0        42.000  
        39.000                                                  
  21575400.878    21575397.786   113379124.984 0  88347084.269 0        49.000  
        46.000                                                  
 22  1 19  1  0 47.0000000  0  0
 22  1 19  1  0 48.0000000  0  8E03E05E08E09E13E15E21E27
  24508391.144                   128792974.683 0                        47.000  
                  24508390.715    98685530.013          52.000  
  24162581.574                   126975512.861 0                        47.000  
                  24162580.644    97293026.656          51.000  
  26499086.645                   139253276.48810                        43.000  
                  26499084.537   106700563.651          43.000  
  25951345.840                   136375610.985 0                        37.000  
                  25951345.179   104495601.036          43.000  
  27762354.467                   145892029.650 0                        39.000  
                  27762353.842   111787398.747          45.000  
  23672120.476                   124398178.371 0                        49.000  
                  23672119.636    95318088.143          52.000  
  28485746.178                   149693586.56610                        35.000  
                  28485743.086   114700488.028          37.000  
  28417518.406                   149334266.94010                        38.000  
                  28417517.155   114424976.632          41.000  
 22  1 19  1  0 49.0000000  0  9G01G03G08G10G14G17G21G27G32
  20827518.831    20827515.544   109449104.307 0  85285019.590 0        49.000  
        48.000                                                  
  22868736.851    22868733.867   120175822.332 0  93643544.176 0        43.000  
        45.000                                                  
  21902141.556    21902139.501   115095912.653 0  89685125.889 0        48.000  
        49.000                                                  
  24210168.997    24210165.531   127225647.266 0  99136870.195 0        40.000  
        40.000                                                  
  24604036.626    24604031.873   129294688.903 0 100748888.171 0        41.000  
        41.000                                                  
  25199175.103    25199169.332   132421822.685 0 103186880.667 0        43.000  
        40.000                                                  
  20839262.747                   109511066.051 0                        47.000  
                                                                
  24032405.116    24032401.203   126291121.870 0  98408185.997 0        42.000  
        39.000                                                  
  21575594.864    21575591.951   113380144.678 0  88347878.825 0        49.000  
        46.000                                                  
 22  1 19  1  0 48.0000000  0  0
 22  1 19  1  0 49.0000000  0  8E03E05E08E09E13E15E21E27
  24507993.826                   128790887.996 0                        47.000  
                  24507993.683    98683931.128          52.000  
  24162721.828                   126976249.267 0                        47.000  
                  24162720.880    97293590.918          51.000  
  26498484.906                   139250113.32910                        43.000  
                  26498482.547   106698139.918          43.000  
  25951863.399                   136378330.312 0                        37.000  
                  25951862.541   104497684.661          43.000  
  27761850.168                   145889379.174 0                        39.000  
                  27761849.506   111785367.851          45.000  
  23671859.159                   124396806.308 0                        49.000  
                  23671858.534    95317036.818          52.000  
  28485878.605                   149694283.08410                        35.000  
                  28485875.567   114701021.751          37.000  
  28417964.470                   149336610.78410                        38.000  
                  28417963.023   114426772.564          41.000  
 22  1 19  1  0 50.0000000  0  9G01G03G08G10G14G17G21G27G32
  20827144.672    20827141.438   109447137.998 0  85283487.397 0        49.000  
        48.000                                                  
  22868193.025    22868190.113   120172964.581 0  93641317.357 0        43.000  
        45.000                                                  
  21902663.706    21902661.759   115098656.931 0  89687264.291 0        48.000  
        49.000                                                  
  24210746.917    24210743.487   127228684.456 0  99139236.827 0        40.000  
        40.000                                                  
  24604189.245    24604184.528   129295490.896 0 100749513.119 0        41.000  
        41.000                                                  
  25198556.067    25198550.224   132418569.656 0 103184345.836 0        44.000  
        40.000                                                  
  20839196.309                   109510717.404 0                        47.000  
                                                                
  24033125.631    24033121.717   126294908.292 0  98411136.485 0        42.000  
        39.000                                                  
  21575788.975    21575786.116   113381164.869 0  88348673.781 0        49.000  
        46.000                                                  
 22  1 19  1  0 49.0000000  0  0
 22  1 19  1  0 50.0000000  0  8E03E05E08E09E13E15E21E27
  24507597.026                   128788801.551 0                        47.000  
                  24507596.776    98682332.418          52.000  
  24162861.885                   126976986.019 0                        47.000  
                  24162861.009    97294155.435          51.000  
  26497883.059                   139246950.09410                        43.000  
                  26497880.736   106695716.147          43.000  
  25952380.850                   136381049.683 0                        37.000  
                  25952380.099   104499768.341          43.000  
  27761345.707                   145886728.590 0                        40.000  
                  27761345.225   111783336.882          45.000  
  23671598.146                   124395434.353 0                        49.000  
                  23671597.467    95315985.584          52.000  
  28486011.122                   149694979.97410                        35.000  
                  28486008.137   114701555.705          37.000  
  28418410.535                   149338954.71010                        38.000  
                  28418408.891   114428568.564          41.000  
 22  1 19  1  0 51.0000000  0  9G01G03G08G10G14G17G21G27G32
  20826770.566    20826767.314   109445171.780 0  85281955.290 0        49.000  
        48.000                                                  
  22867649.253    22867646.376   120170106.845 0  93639090.543 0        43.000  
        45.000                                                  
  21903186.018    21903183.999   115101401.398 0  89689402.838 0        48.000  
        49.000                                                  
  24211324.855    24211321.406   127231721.422 0  99141603.306 0        40.000  
        40.000                                                  
  24604341.954    24604337.147   129296293.216 0 100750138.307 0        41.000  
        41.000                                                  
  25197936.977    25197931.241   132415316.547 0 103181810.962 0        43.000  
        40.000                                                  
  20839130.069                   109510368.826 0                        47.000  
                                                                
  24033846.074    24033842.268   126298694.593 0  98414086.829 0        42.000  
        39.000                                                  
  21575983.104    21575980.299   113382185.437 0  88349469.031 0        49.000  
        46.000                                                  
 22  1 19  1  0 50.0000000  0  0
 22  1 19  1  0 51.0000000  0  8E03E05E08E09E13E15E21E27
  24507200.048                   128786715.223 0                        47.000  
                  24507199.637    98680733.805          52.000  
  24163002.032                   126977722.965 0                        47.000  
                  24163001.263    97294720.119          51.000  
  26497280.945                   139243786.65210                        42.000  
                  26497278.711   106693292.225          43.000  
  25952898.194                   136383768.993 0                        37.000  
                  25952897.568   104501851.966          43.000  
  27760841.408                   145884077.747 0                        40.000  
                  27760840.586   111781305.728          45.000  
  23671337.133                   124394062.399 0                        49.000  
                  23671336.365    95314934.340          52.000  
  28486143.692                   149695677.06110                        35.000  
                  28486140.761   114702089.852          37.000  
  28418856.546                   149341298.55010                        38.000  
                  28418855.205   114430364.516          41.000  
 22  1 19  1  0 52.0000000  0  9G01G03G08G10G14G17G21G27G32
  20826396.532    20826393.297   109443206.327 0  85280423.766 0        49.000  
        48.000                                                  
  22867105.552    22867102.604   120167249.757 0  93636864.241 0        43.000  
        45.000                                                  
  21903708.454    21903706.417   115104146.697 0  89691542.035 0        48.000  
        49.000                                                  
  24211902.829    24211899.398   127234758.887 0  99143970.132 0        40.000  
        40.000                                                  
  24604494.752    24604489.927   129297096.506 0 100750764.237 0        41.000  
        41.000                                                  
  25197318.226    25197312.204   132412064.027 0 103179276.525 0        43.000  
        40.000                                                  
  20839063.846                   109510020.986 0                        47.000  
                                                                
  24034566.642    24034562.800   126302481.402 0  98417037.587 0        42.000  
        39.000                                                  
  21576177.555    21576174.624   113383207.028 0  88350265.080 0        49.000  
        46.000                                                  
 22  1 19  1  0 51.0000000  0  0
 22  1 19  1  0 52.0000000  0  8E03E05E08E09E13E15E21E27
  24506803.249                   128784629.651 0                        47.000  
                  24506802.820    98679135.764          52.000  
  24163142.411                   126978460.746 0                        47.000  
                  24163141.624    97295285.428          51.000  
  26496678.937                   139240623.65210                        42.000  
                  26496676.864   106690868.607          43.000  
  25953415.931                   136386488.868 0                        37.000  
                  25953415.144   104503936.028          43.000  
  27760336.912                   145881427.274 0                        40.000  
                  27760336.197   111779274.848          45.000  
  23671076.067                   124392691.055 0                        49.000  
                  23671075.442    95313883.577          52.000  
  28486276.512                   149696375.02610                        35.000  
                  28486273.564   114702624.654          37.000  
  28419302.789                   149343642.98710                        38.000  
                  28419301.234   114432160.878          41.000  
 22  1 19  1  0 53.0000000  0  9G01G03G08G10G14G17G21G27G32
  20826022.622    20826019.388   109441241.415 0  85278892.663 0        49.000  
        48.000                                                  
  22866561.959    22866558.850   120164393.122 0  93634638.301 0        43.000  
        45.000                                                  
  21904231.034    21904228.908   115106892.607 0  89693681.698 0        48.000  
        49.000                                                  
  24212480.802    24212477.479   127237796.561 0  99146337.178 0        40.000  
        40.000                                                  
  24604647.764    24604642.940   129297900.548 0 100751390.765 0        41.000  
        41.000                                                  
  25196699.315    25196693.239   132408811.878 0 103176742.355 0        44.000  
        40.000                                                  
  20838997.820                   109509673.664 0                        47.000  
                                                                
  24035287.318    24035283.422   126306268.498 0  98419988.581 0        42.000  
        39.000                                                  
  21576372.059    21576369.164   113384229.430 0  88351061.749 0        49.000  
        46.000                                                  
 22  1 19  1  0 52.0000000  0  0
 22  1 19  1  0 53.0000000  0  8E03E05E08E09E13E15E21E27
  24506406.378                   128782544.620 0                        47.000  
                  24506406.074    98677538.140          52.000  
  24163283.058                   126979199.165 0                        47.000  
                  24163282.200    97295851.234          51.000  
  26496076.876                   139237460.84110                        42.000  
                  26496075.071   106688445.170          43.000  
  25953933.471                   136389209.105 0                        37.000  
                  25953932.685   104506020.343          43.000  
  27759832.630                   145878777.015 0                        40.000  
                  27759831.862   111777244.121          45.000  
  23670815.197                   124391320.136 0                        49.000  
                  23670814.482    95312833.130          52.000  
  28486409.619                   149697073.59510                        35.000  
                  28486406.563   114703159.930          37.000  
  28419749.014                   149345987.78710                        38.000  
                  28419747.406   114433957.534          41.000  
 22  1 19  1  0 54.0000000  0  9G01G03G08G10G14G17G21G27G32
  20825648.856    20825645.658   109439276.681 0  85277361.700 0        49.000  
        48.000                                                  
  22866018.437    22866015.256   120161536.571 0  93632412.417 0        43.000  
        45.000                                                  
  21904753.578    21904751.451   115109638.767 0  89695821.568 0        48.000  
        48.000                                                  
  24213058.812    24213055.506   127240834.126 0  99148704.127 0        40.000  
        40.000                                                  
  24604800.902    24604796.023   129298704.960 0 100752017.588 0        41.000  
        41.000                                                  
  25196080.510    25196074.328   132405559.720 0 103174208.227 0        43.000  
        40.000                                                  
  20838931.794                   109509326.505 0                        47.000  
                                                                
  24036007.975    24036004.151   126310055.539 0  98422939.526 0        42.000  
        39.000                                                  
  21576566.635    21576563.812   113385252.265 0  88351858.769 0        49.000  
        46.000                                                  
 22  1 19  1  0 53.0000000  0  0
 22  1 19  1  0 54.0000000  0  8E03E05E08E09E13E15E21E27
  24506009.632                   128780459.765 0                        47.000  
                  24506009.310    98675940.665          52.000  
  24163423.580                   126979937.863 0                        47.000  
                  24163422.758    97296417.251          51.000  
  26495474.958                   139234297.91410                        42.000  
                  26495473.082   106686021.635          43.000  
  25954451.190                   136391929.336 0                        37.000  
                  25954450.422   104508104.687          43.000  
  27759328.384                   145876126.533 0                        40.000  
                  27759327.508   111775213.253          45.000  
  23670554.381                   124389949.271 0                        49.000  
                  23670553.720    95311782.733          52.000  
  28486542.653                   149697772.47810                        35.000  
                  28486539.366   114703695.435          37.000  
  28420195.150                   149348332.57610                        38.000  
                  28420193.685   114435754.195          41.000  
 22  1 19  1  0 55.0000000  0  9G01G03G08G10G14G17G21G27G32
  20825274.965    20825271.766   109437312.135 0  85275830.889 0        49.000  
        48.000                                                  
  22865474.843    22865471.680   120158680.132 0  93630186.616 0        43.000  
        45.000                                                  
  21905276.283    21905274.138   115112385.194 0  89697961.638 0        48.000  
        48.000                                                  
  24213636.857    24213633.497   127243871.632 0  99151070.990 0        39.000  
        40.000                                                  
  24604954.021    24604949.143   129299509.794 0 100752644.723 0        41.000  
        41.000                                                  
  25195461.599    25195455.363   132402307.594 0 103171674.089 0        43.000  
        40.000                                                  
  20838865.768                   109508979.515 0                        47.000  
                                                                
  24036728.615    24036724.791   126313842.550 0  98425890.423 0        42.000  
        39.000                                                  
  21576761.425    21576758.548   113386275.571 0  88352656.153 0        49.000  
        46.000                                                  
 22  1 19  1  0 54.0000000  0  0
 22  1 19  1  0 55.0000000  0  8E03E05E08E09E13E15E21E27
  24505612.796                   128778375.112 0                        47.000  
                  24505612.653    98674343.336          52.000  
  24163564.084                   126980676.833 0                        47.000  
                  24163563.387    97296983.475          51.000  
  26494872.951                   139231134.87210                        42.000  
                  26494871.128   106683598.010          43.000  
  25954968.838                   136394649.561 0                        37.000  
                  25954967.998   104510189.029          43.000  
  27758824.192                   145873475.931 0                        40.000  
                  27758823.173   111773182.256          45.000  
  23670293.529                   124388578.493 0                        49.000  
                  23670292.832    95310732.393          52.000  
  28486675.545                   149698471.64510                        35.000  
                  28486672.275   114704231.184          37.000  
  28420641.393                   149350677.39110                        38.000  
                  28420639.856   114437550.871          41.000  
 22  1 19  1  0 56.0000000  0  9G01G03G08G10G14G17G21G27G32
  20824901.163    20824897.982   109435347.792 0  85274300.228 0        49.000  
        48.000                                                  
  22864931.285    22864928.122   120155823.778 0  93627960.895 0        43.000  
        45.000                                                  
  21905798.862    21905796.700   115115131.914 0  89700101.942 0        48.000  
        48.000                                                  
  24214214.812    24214211.649   127246909.044 0  99153437.798 0        39.000  
        40.000                                                  
  24605107.230    24605102.459   129300315.033 0 100753272.184 0        41.000  
        41.000                                                  
  25194842.705    25194836.505   132399055.515 0 103169140.001 0        43.000  
        40.000                                                  
  20838799.814                   109508632.719 0                        47.000  
                                                                
  24037449.291    24037445.413   126317629.506 0  98428841.289 0        42.000  
        39.000                                                  
  21576956.215    21576953.446   113387299.348 0  88353453.897 0        49.000  
        46.000                                                  
 22  1 19  1  0 55.0000000  0  0
 22  1 19  1  0 56.0000000  0  8E03E05E08E09E13E15E21E27
  24505216.158                   128776290.686 0                        47.000  
                  24505215.979    98672746.173          52.000  
  24163704.606                   126981416.112 0                        47.000  
                  24163704.159    97297549.931          51.000  
  26494271.068                   139227971.71010                        42.000  
                  26494269.192   106681174.277          43.000  
  25955486.504                   136397369.832 0                        37.000  
                  25955485.718   104512273.377          43.000  
  27758319.678                   145870825.132 0                        40.000  
                  27758318.838   111771151.140          45.000  
  23670032.695                   124387207.788 0                        49.000  
                  23670031.980    95309682.111          52.000  
  28486808.723                   149699171.13010                        35.000  
                  28486805.346   114704767.123          37.000  
  28421087.493                   149353022.24710                        38.000  
                  28421086.064   114439347.581          41.000  
 22  1 19  1  0 57.0000000  0  9G01G03G08G10G14G17G21G27G32
  20824527.503    20824524.216   109433383.625 0  85272769.713 0        49.000  
        48.000                                                  
  22864387.710    22864384.529   120152967.524 0  93625735.249 0        43.000  
        45.000                                                  
  21906321.638    21906319.369   115117878.877 0  89702242.433 0        48.000  
        48.000                                                  
  24214792.786    24214789.641   127249946.322 0  99155804.526 0        40.000  
        40.000                                                  
  24605260.547    24605255.829   129301120.677 0 100753899.977 0        41.000  
        41.000                                                  
  25194223.812    25194217.629   132395803.415 0 103166605.904 0        43.000  
        40.000                                                  
  20838733.859                   109508286.069 0                        47.000  
                                                                
  24038169.895    24038166.053   126321416.388 0  98431792.124 0        42.000  
        39.000                                                  
  21577151.131    21577148.289   113388323.561 0  88354251.985 0        49.000  
        46.000                                                  
 22  1 19  1  0 56.0000000  0  0
 22  1 19  1  0 57.0000000  0  8E03E05E08E09E13E15E21E27
  24504819.680                   128774206.423 0                        47.000  
                  24504819.358    98671149.143          52.000  
  24163845.378                   126982155.640 0                        47.000  
                  24163844.753    97298116.591          51.000  
  26493669.222                   139224808.40110                        42.000  
                  26493667.203   106678750.463          43.000  
  25956004.187                   136400090.093 0                        37.000  
                  25956003.365   104514357.730          43.000  
  27757815.110                   145868174.172 0                        40.000  
                  27757814.288   111769119.878          45.000  
  23669771.807                   124385837.125 0                        49.000  
                  23669771.235    95308631.862          52.000  
  28486941.901                   149699870.89010                        35.000  
                  28486938.542   114705303.303          36.000  
  28421533.861                   149355367.08010                        38.000  
                  28421532.253   114441144.271          41.000  
 22  1 19  1  0 58.0000000  0  9G01G03G08G10G14G17G21G27G32
  20824153.773    20824150.521   109431420.095 0  85271239.682 0        49.000  
        48.000                                                  
  22863844.223    22863841.078   120150111.801 0  93623510.008 0        43.000  
        45.000                                                  
  21906844.504    21906842.216   115120626.566 0  89704383.484 0        47.000  
        48.000                                                  
  24215370.902    24215367.704   127252983.916 0  99158171.503 0        40.000  
        40.000                                                  
  24605414.042    24605409.288   129301927.154 0 100754528.394 0        41.000  
        41.000                                                  
  25193605.025    25193598.843   132392551.809 0 103164072.167 0        43.000  
        40.000                                                  
  20838668.012                   109507940.045 0                        47.000  
                                                                
  24038890.642    24038886.729   126325203.681 0  98434743.255 0        42.000  
        39.000                                                  
  21577346.153    21577343.348   113389348.678 0  88355050.780 0        49.000  
        46.000                                                  
 22  1 19  1  0 57.0000000  0  0
 22  1 19  1  0 58.0000000  0  8E03E05E08E09E13E15E21E27
  24504423.256                   128772122.818 0                        47.000  
                  24504422.755    98669552.610          52.000  
  24163986.114                   126982895.913 0                        47.000  
                  24163985.739    97298683.802          51.000  
  26493067.286                   139221645.42310                        42.000  
                  26493065.463   106676326.870          43.000  
  25956521.996                   136402810.793 0                        37.000  
                  25956521.102   104516442.429          43.000  
  27757310.793                   145865523.456 0                        40.000  
                  27757310.006   111767088.825          45.000  
  23669511.169                   124384466.984 0                        49.000  
                  23669510.437    95307582.018          52.000  
  28487075.115                   149700571.38110                        35.000  
                  28487071.827   114705840.063          36.000  
  28421980.373                   149357712.40210                        38.000  
                  28421978.621   114442941.321          41.000  
 22  1 19  1  0 59.0000000  0  9G01G03G08G10G14G17G21G27G32
  20823780.257    20823777.022   109429457.122 0  85269710.100 0        49.000  
        48.000                                                  
  22863300.916    22863297.681   120147256.550 0  93621285.144 0        43.000  
        45.000                                                  
  21907367.566    21907365.314   115123374.908 0  89706525.059 0        47.000  
        48.000                                                  
  24215948.912    24215945.767   127256021.842 0  99160538.677 0        40.000  
        41.000                                                  
  24605567.519    24605562.855   129302734.400 0 100755157.421 0        41.000  
        41.000                                                  
  25192986.400    25192980.128   132389300.572 0 103161538.740 0        43.000  
        40.000                                                  
  20838602.343                   109507594.546 0                        47.000  
                                                                
  24039611.371    24039607.547   126328991.294 0  98437694.641 0        42.000  
        39.000                                                  
  21577541.390    21577538.585   113390374.620 0  88355850.215 0        49.000  
        46.000                                                  
 22  1 19  1  0 58.0000000  0  0
 22  1 19  1  0 59.0000000  0  8E03E05E08E09E13E15E21E27
  24504026.796                   128770039.767 0                        47.000  
                  24504026.456    98667956.506          52.000  
  24164127.137                   126983636.829 0                        47.000  
                  24164126.601    97299251.530          51.000  
  26492465.368                   139218482.66010                        42.000  
                  26492463.599   106673903.481          43.000  
  25957039.822                   136405531.863 0                        38.000  
                  25957038.911   104518527.409          43.000  
  27756806.350                   145862872.983 0                        40.000  
                  27756805.457   111765057.935          45.000  
  23669250.478                   124383097.284 0                        49.000  
                  23669249.799    95306532.507          52.000  
  28487208.489                   149701272.56710                        36.000  
                  28487205.165   114706377.327          36.000  
  28422426.794                   149360058.07710                        39.000  
                  28422425.007   114444738.674          41.000  
 22  1 19  1  1  0.0000000  0  9G01G03G08G10G14G17G21G27G32
  20823406.794    20823403.578   109427494.281 0  85268180.611 0        49.000  
        48.000                                                  
  22862757.590    22862754.231   120144401.335 0  93619060.301 0        43.000  
        45.000                                                  
  21907890.646    21907888.269   115126123.462 0  89708666.782 0        47.000  
        48.000                                                  
  24216527.010    24216523.865   127259059.548 0  99162905.750 0        40.000  
        41.000                                                  
  24605721.246    24605716.493   129303542.002 0 100755786.728 0        41.000  
        41.000                                                  
  25192367.649    25192361.431   132386049.294 0 103159005.295 0        43.000  
        40.000                                                  
  20838536.639                   109507249.164 0                        47.000  
                                                                
  24040332.100    24040328.330   126332778.795 0  98440645.950 0        42.000  
        39.000                                                  
  21577736.752    21577733.875   113391400.970 0  88356649.975 0        49.000  
        46.000                                                  
 22  1 19  1  0 59.0000000  0  0
 22  1 19  1  1  0.0000000  0  8E03E05E08E09E13E15E21E27
  24503630.479                   128767956.843 0                        47.000  
                  24503630.139    98666360.506          52.000  
  24164268.356                   126984377.968 0                        47.000  
                  24164267.659    97299819.409          51.000  
  26491863.575                   139215319.74110                        42.000  
                  26491861.752   106671479.923          43.000  
  25957557.577                   136408252.883 0                        37.000  
                  25957556.648   104520612.347          43.000  
  27756301.943                   145860222.260 0                        40.000  
                  27756301.086   111763026.859          45.000  
  23668989.805                   124381727.583 0                        49.000  
                  23668989.090    95305483.001          52.000  
  28487342.149                   149701973.98010                        36.000  
                  28487338.718   114706914.746          36.000  
  28422873.037                   149362403.70510                        39.000  
                  28422871.268   114446535.983          41.000  
 22  1 19  1  1  1.0000000  0  9G01G03G08G10G14G17G21G27G32
  20823033.314    20823030.187   109425531.725 0  85266651.349 0        49.000  
        48.000                                                  
  22862214.318    22862210.941   120141546.325 0  93616835.600 0        43.000  
        45.000                                                  
  21908413.761    21908411.385   115128872.354 0  89710808.776 0        48.000  
        48.000                                                  
  24217105.091    24217101.910   127262097.289 0  99165272.828 0        40.000  
        41.000                                                  
  24605875.009    24605870.256   129304350.102 0 100756416.400 0        41.000  
        41.000                                                  
  25191748.970    25191742.787   132382798.145 0 103156471.916 0        43.000  
        40.000                                                  
  20838470.952                   109506904.059 0                        47.000  
                                                                
  24041052.865    24041049.023   126336566.332 0  98443597.268 0        42.000  
        39.000                                                  
  21577932.221    21577929.344   113392427.868 0  88357450.149 0        49.000  
        46.000                                                  
 22  1 19  1  1  0.0000000  0  0
 22  1 19  1  1  1.0000000  0  8E03E05E08E09E13E15E21E27
  24503234.144                   128765874.230 0                        47.000  
                  24503233.786    98664764.731          52.000  
  24164409.146                   126985119.479 0                        47.000  
                  24164408.860    97300387.587          51.000  
  26491261.603                   139212156.76410                        42.000  
                  26491259.834   106669056.359          43.000  
  25958075.421                   136410974.020 0                        38.000  
                  25958074.439   104522697.381          43.000  
  27755797.536                   145857571.458 0                        40.000  
                  27755796.714   111760995.723          45.000  
  23668729.167                   124380358.061 0                        49.000  
                  23668728.471    95304433.625          52.000  
  28487475.988                   149702675.75310                        36.000  
                  28487472.289   114707452.504          36.000  
  28423319.513                   149364749.46510                        39.000  
                  28423317.708   114448333.374          41.000  
 22  1 19  1  1  2.0000000  0  9G01G03G08G10G14G17G21G27G32
  20822659.958    20822656.778   109423569.565 0  85265122.393 0        49.000  
        48.000                                                  
  22861671.011    22861667.741   120138691.609 0  93614611.141 0        43.000  
        45.000                                                  
  21908936.895    21908934.625   115131621.733 0  89712951.146 0        47.000  
        48.000                                                  
  24217683.154    24217679.955   127265135.135 0  99167639.956 0        40.000  
        40.000                                                  
  24606028.915    24606024.144   129305158.803 0 100757046.562 0        41.000  
        41.000                                                  
  25191130.326    25191124.269   132379547.217 0 103153938.746 0        43.000  
        40.000                                                  
  20838405.319                   109506559.328 0                        47.000  
                                                                
  24041773.612    24041769.878   126340354.036 0  98446548.728 0        42.000  
        39.000                                                  
  21578127.691    21578124.867   113393455.430 0  88358250.842 0        49.000  
        46.000                                                  
 22  1 19  1  1  1.0000000  0  0
 22  1 19  1  1  2.0000000  0  8E03E05E08E09E13E15E21E27
  24502837.862                   128763791.995 0                        47.000  
                  24502837.594    98663169.259          52.000  
  24164550.400                   126985861.499 0                        47.000  
                  24164549.972    97300956.139          51.000  
  26490659.560                   139208993.89510                        42.000  
                  26490657.881   106666632.857          43.000  
  25958593.194                   136413695.358 0                        38.000  
                  25958592.497   104524782.566          43.000  
  27755292.933                   145854920.683 0                        40.000  
                  27755292.290   111758964.625          45.000  
  23668468.655                   124378988.809 0                        49.000  
                  23668467.958    95303384.453          52.000  
  28487609.613                   149703378.02810                        36.000  
                  28487605.825   114707990.618          36.000  
  28423765.810                   149367095.44510                        39.000  
                  28423764.058   114450130.941          41.000  
 22  1 19  1  1  3.0000000  0  9G01G03G08G10G14G17G21G27G32
  20822286.674    20822283.476   109421607.862 0  85263593.791 0        49.000  
        48.000                                                  
  22861127.739    22861124.629   120135837.235 0  93612386.956 0        43.000  
        45.000                                                  
  21909460.171    21909457.956   115134371.628 0  89715093.926 0        47.000  
        48.000                                                  
  24218261.199    24218258.054   127268173.140 0  99170007.226 0        40.000  
        40.000                                                  
  24606182.838    24606178.157   129305968.183 0 100757677.232 0        41.000  
        41.000                                                  
  25190511.737    25190505.733   132376296.564 0 103151405.765 0        43.000  
        41.000                                                  
  20838339.847                   109506215.035 0                        47.000  
                                                                
  24042494.431    24042490.803   126344141.939 0  98449500.332 0        42.000  
        39.000                                                  
  21578323.374    21578320.515   113394483.708 0  88359052.097 0        49.000  
        46.000                                                  
 22  1 19  1  1  2.0000000  0  0
 22  1 19  1  1  3.0000000  0  8E03E05E08E09E13E15E21E27
  24502441.724                   128761710.251 0                        47.000  
                  24502441.545    98661574.154          52.000  
  24164691.655                   126986604.040 0                        47.000  
                  24164691.280    97301525.108          51.000  
  26490057.785                   139205831.15010                        42.000  
                  26490055.963   106664209.446          43.000  
  25959111.181                   136416416.979 0                        38.000  
                  25959110.199   104526867.958          43.000  
  27754788.437                   145852270.034 0                        40.000  
                  27754787.883   111756933.595          45.000  
  23668207.982                   124377619.889 0                        49.000  
                  23668207.535    95302335.538          52.000  
  28487743.255                   149704080.90210                        36.000  
                  28487739.413   114708529.154          36.000  
  28424212.482                   149369441.68910                        39.000  
                  28424210.570   114451928.712          41.000  
 22  1 19  1  1  4.0000000  0  9G01G03G08G10G14G17G21G27G32
  20821913.480    20821910.210   109419646.504 0  85262065.464 0        49.000  
        48.000                                                  
  22860584.610    22860581.501   120132983.132 0  93610162.989 0        43.000  
        45.000                                                  
  21909983.501    21909981.321   115137121.966 0  89717237.043 0        48.000  
        48.000                                                  
  24218839.315    24218836.188   127271211.204 0  99172374.546 0        40.000  
        40.000                                                  
  24606336.887    24606332.188   129306778.100 0 100758308.354 0        41.000  
        41.000                                                  
  25189893.165    25189887.178   132373046.096 0 103148872.924 0        43.000  
        41.000                                                  
  20838274.411                   109505871.071 0                        47.000  
                                                                
  24043215.303    24043211.747   126347929.945 0  98452452.041 0        42.000  
        39.000                                                  
  21578519.147    21578516.288   113395512.613 0  88359853.830 0        49.000  
        46.000                                                  
 22  1 19  1  1  3.0000000  0  0
 22  1 19  1  1  4.0000000  0  8E03E05E08E09E13E15E21E27
  24502045.800                   128759628.846 0                        47.000  
                  24502045.443    98659979.314          52.000  
  24164833.106                   126987347.034 0                        47.000  
                  24164832.713    97302094.415          51.000  
  26489455.885                   139202668.44510                        42.000  
                  26489454.044   106661786.093          43.000  
  25959629.169                   136419138.762 0                        38.000  
                  25959628.114   104528953.489          43.000  
  27754284.245                   145849619.359 0                        40.000  
                  27754283.548   111754902.567          45.000  
  23667947.576                   124376251.198 0                        49.000  
                  23667947.148    95301286.808          52.000  
  28487877.291                   149704784.21610                        35.000  
                  28487873.306   114709068.048          36.000  
  28424658.885                   149371788.13610                        39.000  
                  28424657.009   114453726.634          41.000  
 22  1 19  1  1  5.0000000  0  9G01G03G08G10G14G17G21G27G32
  20821540.250    20821536.962   109417685.244 0  85260537.220 0        49.000  
        48.000                                                  
  22860041.481    22860038.300   120130129.041 0  93607939.017 0        43.000  
        45.000                                                  
  21910506.867    21910504.741   115139872.471 0  89719380.298 0        48.000  
        48.000                                                  
  24219417.360    24219414.323   127274249.057 0  99174741.724 0        40.000  
        40.000                                                  
  24606491.008    24606486.344   129307588.342 0 100758939.707 0        41.000  
        41.000                                                  
  25189274.521    25189268.589   132369795.557 0 103146340.055 0        43.000  
        41.000                                                  
  20838208.885                   109505527.177 0                        47.000  
                                                                
  24043936.157    24043932.512   126351717.828 0  98455403.634 0        42.000  
        39.000                                                  
  21578715.063    21578712.204   113396541.883 0  88360655.861 0        49.000  
        46.000                                                  
 22  1 19  1  1  4.0000000  0  0
 22  1 19  1  1  5.0000000  0  8E03E05E08E09E13E15E21E27
  24501649.751                   128757547.542 0                        47.000  
                  24501649.322    98658384.550          52.000  
  24164974.557                   126988090.221 0                        47.000  
                  24164974.093    97302663.870          51.000  
  26488854.110                   139199505.50910                        42.000  
                  26488852.198   106659362.540          43.000  
  25960147.084                   136421860.478 0                        38.000  
                  25960146.048   104531038.941          43.000  
  27753779.891                   145846968.407 0                        40.000  
                  27753778.927   111752871.316          45.000  
  23667687.243                   124374882.483 0                        49.000  
                  23667686.510    95300238.048          52.000  
  28488011.076                   149705487.70310                        36.000  
                  28488007.109   114709607.106          36.000  
  28425105.272                   149374134.47110                        39.000  
                  28425103.556   114455524.480          41.000  
 22  1 19  1  1  6.0000000  0  9G01G03G08G10G14G17G21G27G32
  20821167.144    20821163.785   109415724.367 0  85259009.258 0        49.000  
        48.000                                                  
  22859498.352    22859495.278   120127275.222 0  93605715.271 0        43.000  
        45.000                                                  
  21911030.251    21911028.196   115142623.446 0  89721523.917 0        48.000  
        48.000                                                  
  24219995.513    24219992.332   127277287.009 0  99177108.965 0        40.000  
        40.000                                                  
  24606645.324    24606640.589   129308399.168 0 100759571.540 0        40.000  
        41.000                                                  
  25188656.038    25188650.106   132366545.233 0 103143807.342 0        43.000  
        41.000                                                  
  20838143.467                   109505183.647 0                        47.000  
                                                                
  24044656.976    24044653.402   126355505.846 0  98458355.331 0        42.000  
        39.000                                                  
  21578911.122    21578908.209   113397571.783 0  88361458.390 0        49.000  
        46.000                                                  
 22  1 19  1  1  5.0000000  0  0
 22  1 19  1  1  6.0000000  0  8E03E05E08E09E13E15E21E27
  24501253.720                   128755466.636 0                        47.000  
                  24501253.416    98656790.086          52.000  
  24165116.044                   126988833.881 0                        47.000  
                  24165115.598    97303233.680          51.000  
  26488252.245                   139196342.64310                        42.000  
                  26488250.298   106656939.057          43.000  
  25960665.036                   136424582.381 0                        38.000  
                  25960664.089   104533124.555          43.000  
  27753275.324                   145844317.497 0                        40.000  
                  27753274.466   111750840.099          45.000  
  23667426.748                   124373514.024 0                        49.000  
                  23667426.176    95299189.494          52.000  
  28488145.183                   149706191.69810                        36.000  
                  28488140.859   114710146.528          35.000  
  28425551.568                   149376481.02310                        39.000  
                  28425550.139   114457322.494          41.000  
 22  1 19  1  1  7.0000000  0  9G01G03G08G10G14G17G21G27G32
  20820794.039    20820790.769   109413763.879 0  85257481.604 0        49.000  
        48.000                                                  
  22858955.348    22858952.239   120124421.709 0  93603491.747 0        43.000  
        45.000                                                  
  21911553.920    21911551.794   115145374.876 0  89723667.884 0        47.000  
        48.000                                                  
  24220573.647    24220570.431   127280325.073 0  99179476.278 0        40.000  
        40.000                                                  
  24606799.749    24606794.977   129309210.602 0 100760203.808 0        40.000  
        41.000                                                  
  25188037.556    25188031.820   132363295.123 0 103141274.788 0        43.000  
        41.000                                                  
  20838078.245                   109504840.475 0                        47.000  
                                                                
  24045377.830    24045374.256   126359294.008 0  98461307.150 0        42.000  
        39.000                                                  
  21579107.199    21579104.286   113398602.335 0  88362261.431 0        49.000  
        47.000                                                  
 22  1 19  1  1  6.0000000  0  0
 22  1 19  1  1  7.0000000  0  8E03E05E08E09E13E15E21E27
  24500857.706                   128753386.110 0                        47.000  
                  24500857.438    98655195.916          52.000  
  24165257.621                   126989578.004 0                        47.000  
                  24165257.227    97303803.862          51.000  
  26487650.363                   139193179.86210                        42.000  
                  26487648.505   106654515.607          43.000  
  25961183.023                   136427304.455 0                        38.000  
                  25961182.058   104535210.320          43.000  
  27752770.989                   145841666.613 0                        40.000  
                  27752769.970   111748808.887          45.000  
  23667166.396                   124372145.831 0                        49.000  
                  23667165.914    95298141.139          52.000  
  28488279.201                   149706896.18810                        36.000  
                  28488274.912   114710686.326          35.000  
  28425998.079                   149378827.79810                        39.000  
                  28425996.668   114459120.664          41.000  
 22  1 19  1  1  8.0000000  0  9G01G03G08G10G14G17G21G27G32
  20820421.113    20820417.771   109411804.035 0  85255954.456 0        49.000  
        48.000                                                  
  22858412.398    22858409.324   120121568.765 0  93601268.676 0        43.000  
        45.000                                                  
  21912077.715    21912075.499   115148127.042 0  89725812.441 0        48.000  
        48.000                                                  
  24221151.764    24221148.565   127283363.500 0  99181843.861 0        40.000  
        40.000                                                  
  24606954.262    24606949.634   129310022.904 0 100760836.782 0        40.000  
        41.000                                                  
  25187419.216    25187413.427   132360045.500 0 103138742.615 0        43.000  
        41.000                                                  
  20838013.130                   109504497.958 0                        47.000  
                                                                
  24046098.738    24046095.200   126363082.586 0  98464259.291 0        42.000  
        39.000                                                  
  21579303.579    21579300.595   113399633.832 0  88363065.176 0        49.000  
        47.000                                                  
 22  1 19  1  1  7.0000000  0  0
 22  1 19  1  1  8.0000000  0  8E03E05E08E09E13E15E21E27
  24500462.033                   128751306.258 0                        47.000  
                  24500461.693    98653602.265          52.000  
  24165399.411                   126990322.893 0                        47.000  
                  24165398.965    97304374.612          51.000  
  26487048.481                   139190017.40110                        42.000  
                  26487046.658   106652092.438          43.000  
  25961701.010                   136430027.039 0                        37.000  
                  25961700.135   104537296.438          43.000  
  27752266.528                   145839015.993 0                        40.000  
                  27752265.617   111746777.917          45.000  
  23666906.188                   124370778.179 0                        49.000  
                  23666905.509    95297093.191          52.000  
  28488413.487                   149707601.43010                        36.000  
                  28488409.073   114711226.695          35.000  
  28426444.769                   149381175.05810                        39.000  
                  28426443.322   114460919.195          41.000  
 22  1 19  1  1  9.0000000  0  9G01G03G08G10G14G17G21G27G32
  20820048.275    20820044.916   109409844.419 0  85254427.472 0        49.000  
        48.000                                                  
  22857869.519    22857866.410   120118715.908 0  93599045.669 0        43.000  
        45.000                                                  
  21912601.563    21912599.151   115150879.502 0  89727957.210 0        48.000  
        48.000                                                  
  24221730.005    24221726.717   127286401.843 0  99184211.394 0        40.000  
        40.000                                                  
  24607108.918    24607104.255   129310835.617 0 100761470.053 0        40.000  
        41.000                                                  
  25186800.805    25186795.069   132356795.922 0 103136210.469 0        44.000  
        41.000                                                  
  20837947.908                   109504155.604 0                        47.000  
                                                                
  24046819.628    24046816.090   126366871.112 0  98467211.387 0        42.000  
        39.000                                                  
  21579500.085    21579497.047   113400665.781 0  88363869.303 0        49.000  
        47.000                                                  
 22  1 19  1  1  8.0000000  0  0
 22  1 19  1  1  9.0000000  0  8E03E05E08E09E13E15E21E27
  24500066.234                   128749226.605 0                        47.000  
                  24500065.948    98652008.765          52.000  
  24165541.184                   126991068.058 0                        47.000  
                  24165540.809    97304945.592          51.000  
  26486446.706                   139186854.82310                        42.000  
                  26486444.865   106649669.175          43.000  
  25962219.123                   136432749.641 0                        37.000  
                  25962218.229   104539382.599          43.000  
  27751762.050                   145836365.238 0                        40.000  
                  27751761.139   111744746.833          45.000  
  23666645.872                   124369410.605 0                        49.000  
                  23666645.371    95296045.312          52.000  
  28488547.701                   149708306.97410                        36.000  
                  28488543.251   114711767.316          35.000  
  28426891.477                   149383522.32610                        39.000  
                  28426890.030   114462717.774          41.000  
 22  1 19  1  1 10.0000000  0  9G01G03G08G10G14G17G21G27G32
  20819675.260    20819671.918   109407884.577 0  85252900.338 0        49.000  
        48.000                                                  
  22857326.515    22857323.442   120115862.762 0  93596822.452 0        43.000  
        45.000                                                  
  21913125.269    21913122.874   115153631.868 0  89730101.901 0        48.000  
        48.000                                                  
  24222308.211    24222304.727   127289439.678 0  99186578.554 0        40.000  
        40.000                                                  
  24607263.485    24607258.929   129311648.336 0 100762103.341 0        40.000  
        41.000                                                  
  25186182.430    25186176.658   132353545.964 0 103133678.039 0        43.000  
        41.000                                                  
  20837882.686                   109503813.046 0                        47.000  
                                                                
  24047540.464    24047536.980   126370659.220 0  98470163.153 0        42.000  
        39.000                                                  
  21579696.555    21579693.499   113401697.815 0  88364673.474 0        49.000  
        47.000                                                  
 22  1 19  1  1  9.0000000  0  0
 22  1 19  1  1 10.0000000  0  8E03E05E08E09E13E15E21E27
  24499670.524                   128747146.774 0                        47.000  
                  24499670.185    98650415.124          52.000  
  24165683.064                   126991813.138 0                        47.000  
                  24165682.528    97305516.484          51.000  
  26485844.716                   139183691.74610                        42.000  
                  26485843.037   106647245.512          43.000  
  25962737.074                   136435471.849 0                        38.000  
                  25962736.181   104541468.440          43.000  
  27751257.590                   145833713.929 0                        40.000  
                  27751256.517   111742715.303          45.000  
  23666385.734                   124368042.712 0                        49.000  
                  23666385.055    95294997.184          52.000  
  28488682.058                   149709012.43610                        36.000  
                  28488677.358   114712307.876          35.000  
  28427337.988                   149385869.22110                        38.000  
                  28427336.559   114464516.038          41.000  
 22  1 19  1  1 11.0000000  0  9G01G03G08G10G14G17G21G27G32
  20819302.405    20819298.938   109405925.111 0  85251373.472 0        49.000  
        48.000                                                  
  22856783.690    22856780.456   120113009.906 0  93594599.433 0        43.000  
        45.000                                                  
  21913649.028    21913646.669   115156384.639 0  89732246.918 0        48.000  
        48.000                                                  
  24222886.292    24222882.772   127292477.566 0  99188945.746 0        40.000  
        40.000                                                  
  24607418.231    24607413.675   129312461.630 0 100762737.083 0        40.000  
        40.000                                                  
  25185564.090    25185558.193   132350296.183 0 103131145.746 0        43.000  
        41.000                                                  
  20837817.518                   109503470.827 0                        47.000  
                                                                
  24048261.426    24048257.977   126374447.423 0  98473115.009 0        42.000  
        39.000                                                  
  21579893.096    21579889.969   113402730.450 0  88365478.132 0        49.000  
        47.000                                                  
 22  1 19  1  1 10.0000000  0  0
 22  1 19  1  1 11.0000000  0  8E03E05E08E09E13E15E21E27
  24499274.851                   128745067.283 0                        47.000  
                  24499274.350    98648821.754          52.000  
  24165824.855                   126992558.647 0                        47.000  
                  24165824.372    97306087.728          51.000  
  26485242.905                   139180528.70710                        42.000  
                  26485241.029   106644821.891          43.000  
  25963254.972                   136438194.243 0                        38.000  
                  25963254.293   104543554.437          43.000  
  27750753.254                   145831062.614 0                        40.000  
                  27750752.021   111740683.769          45.000  
  23666125.508                   124366675.045 0                        49.000  
                  23666124.757    95293949.238          52.000  
  28488816.594                   149709718.36210                        36.000  
                  28488811.465   114712848.759          35.000  
  28427784.571                   149388216.30210                        38.000  
                  28427783.159   114466314.446          40.000  
 22  1 19  1  1 12.0000000  0  9G01G03G08G10G14G17G21G27G32
  20818929.603    20818926.190   109403966.381 0  85249847.192 0        49.000  
        48.000                                                  
  22856240.936    22856237.684   120110157.692 0  93592376.927 0        44.000  
        45.000                                                  
  21914172.947    21914170.571   115159138.229 0  89734392.576 0        48.000  
        48.000                                                  
  24223464.480    24223460.924   127295515.961 0  99191313.313 0        40.000  
        40.000                                                  
  24607573.191    24607568.635   129313275.907 0 100763371.569 0        40.000  
        40.000                                                  
  25184945.786    25184939.871   132347047.024 0 103128613.929 0        43.000  
        40.000                                                  
  20837752.546                   109503129.334 0                        47.000  
                                                                
  24048982.334    24048978.938   126378236.142 0  98476067.257 0        42.000  
        39.000                                                  
  21580089.799    21580086.564   113403764.118 0  88366283.592 0        49.000  
        47.000                                                  
 22  1 19  1  1 11.0000000  0  0
 22  1 19  1  1 12.0000000  0  8E03E05E08E09E13E15E21E27
  24498879.302                   128742988.575 0                        47.000  
                  24498878.980    98647228.976          52.000  
  24165966.985                   126993305.009 0                        47.000  
                  24165966.449    97306659.612          51.000  
  26484641.112                   139177366.09310                        42.000  
                  26484639.200   106642398.592          43.000  
  25963773.067                   136440917.188 0                        37.000  
                  25963772.531   104545640.856          43.000  
  27750248.758                   145828411.704 0                        40.000  
                  27750247.507   111738652.548          45.000  
  23665865.353                   124365308.029 0                        49.000  
                  23665864.602    95292901.782          52.000  
  28488950.951                   149710425.13810                        36.000  
                  28488945.823   114713390.336          34.000  
  28428231.368                   149390563.95710                        38.000  
                  28428229.974   114468113.310          40.000  
 22  1 19  1  1 13.0000000  0  9G01G03G08G10G14G17G21G27G32
  20818556.980    20818553.532   109402008.156 0  85248321.307 0        49.000  
        48.000                                                  
  22855698.254    22855694.966   120107305.884 0  93590154.743 0        43.000  
        45.000                                                  
  21914697.153    21914694.705   115161892.384 0  89736538.667 0        48.000  
        48.000                                                  
  24224042.543    24224039.040   127298554.515 0  99193681.017 0        40.000  
        40.000                                                  
  24607728.241    24607723.756   129314090.865 0 100764006.604 0        40.000  
        40.000                                                  
  25184327.554    25184321.585   132343798.158 0 103126082.348 0        43.000  
        40.000                                                  
  20837687.592                   109502788.310 0                        47.000  
                                                                
  24049703.331    24049699.971   126382025.111 0  98479019.694 0        42.000  
        40.000                                                  
  21580286.590    21580283.392   113404798.535 0  88367089.624 0        49.000  
        47.000                                                  
 22  1 19  1  1 12.0000000  0  0
 22  1 19  1  1 13.0000000  0  8E03E05E08E09E13E15E21E27
  24498483.878                   128740910.346 0                        47.000  
                  24498483.539    98645636.567          52.000  
  24166109.008                   126994051.952 0                        47.000  
                  24166108.597    97307231.947          51.000  
  26484039.480                   139174203.66810                        42.000  
                  26484037.515   106639975.428          43.000  
  25964291.483                   136443640.465 0                        37.000  
                  25964290.696   104547727.498          43.000  
  27749744.369                   145825760.896 0                        40.000  
                  27749743.065   111736621.419          45.000  
  23665605.215                   124363941.369 0                        49.000  
                  23665604.590    95291854.598          52.000  
  28489085.541                   149711132.50510                        36.000  
                  28489080.341   114713932.326          34.000  
  28428678.165                   149392911.92410                        38.000  
                  28428676.574   114469912.392          41.000  
 22  1 19  1  1 14.0000000  0  9G01G03G08G10G14G17G21G27G32
  20818184.358    20818180.998   109400050.154 0  85246795.596 0        49.000  
        48.000                                                  
  22855155.625    22855152.230   120104454.196 0  93587932.646 0        43.000  
        45.000                                                  
  21915221.323    21915218.893   115164646.884 0  89738685.030 0        48.000  
        48.000                                                  
  24224620.802    24224617.264   127301593.060 0  99196048.685 0        40.000  
        40.000                                                  
  24607883.398    24607878.930   129314906.261 0 100764641.988 0        40.000  
        40.000                                                  
  25183709.339    25183703.281   132340549.357 0 103123550.812 0        43.000  
        40.000                                                  
  20837622.710                   109502447.512 0                        47.000  
                                                                
  24050424.364    24050421.040   126385814.076 0  98481972.127 0        42.000  
        40.000                                                  
  21580483.650    21580480.415   113405833.465 0  88367896.061 0        49.000  
        47.000                                                  
 22  1 19  1  1 13.0000000  0  0
 22  1 19  1  1 14.0000000  0  8E03E05E08E09E13E15E21E27
  24498088.383                   128738832.369 0                        47.000  
                  24498088.008    98644044.351          52.000  
  24166251.406                   126994799.215 0                        47.000  
                  24166250.817    97307804.532          51.000  
  26483437.670                   139171041.14810                        42.000  
                  26483435.740   106637552.199          43.000  
  25964809.702                   136446363.771 0                        37.000  
                  25964808.880   104549814.205          43.000  
  27749239.873                   145823109.980 0                        40.000  
                  27749238.408   111734590.197          45.000  
  23665345.257                   124362574.822 0                        49.000  
                  23665344.524    95290807.511          52.000  
  28489219.880                   149711840.19410                        36.000  
                  28489214.734   114714474.626          34.000  
  28429125.069                   149395259.93810                        38.000  
                  28429123.479   114471711.524          40.000  
