     2.11           OBSERVATION DATA    M (Mixed)           RINEX VERSION / TYPE
RTCM3TORINEX on                         2022-01-08 21:59    PGM / RUN BY / DATE
RTCM3TORINEX                                                MARKER NAME
                                                            OBSERVER / AGENCY
                                                            REC # / TYPE / VERS
                                                            ANT # / TYPE
         .0000         .0000         .0000                  APPROX POSITION XYZ
         .0000         .0000         .0000                  ANTENNA: DELTA H/E/N
     1     1                                                WAVELENGTH FACT L1/2
     9    C1    C2    L1    L2    S1    S2    C7    L7    S7# / TYPES OF OBSERV
  2022     1     8    21    59   20.0010000     GPS         TIME OF FIRST OBS
                                                            END OF HEADER
 22  1  8 21 59 20.0010000  0  6E02E04E09E11E25E30
  24691075.118                   129752714.967 0                        47.000  
                  24691073.367    99420913.420          52.000  
  27331619.060                   143627939.609 0                        39.000  
                  27331617.344   110052582.180          44.000  
  25106244.301                   131934712.323 0                        40.000  
                  25106243.854   101092831.828          46.000  
  25080359.878                   131797899.622 0                        38.000  
                  25080355.482   100988048.167          42.000  
  27873291.294                   146475007.222 0                        40.000  
                  27873291.562   112234102.334          44.000  
  25088853.775                   131843154.610 0                        47.000  
                  25088852.327   101023001.280          51.000  
 22  1  8 21 59 21.0010000  0  9G08G10G13G15G16G18G23G26G27
  23686140.851    23686138.295   124471771.411 0  96990992.855 0        42.000  
        43.000                                                  
  21467232.838    21467230.050   112810608.269 0  87904645.427 0        50.000  
        47.000                                                  
  25119829.923                   132005300.474 0                        36.000  
                                                                
  23865267.084    23865262.474   125412703.964 0  97724188.616 0        40.000  
        38.000                                                  
  21046764.453                   110600740.865 0                        49.000  
                                                                
  21791133.109    21791127.266   114512876.114 0  89230820.655 0        46.000  
        44.000                                                  
  20754378.758    20754373.612   109064913.282 0  84986251.705 0        47.000  
        49.000                                                  
  22266034.970    22266032.611   117008244.238 0  91175644.237 0        45.000  
        45.000                                                  
  21091621.829    21091618.113   110837810.422 0  86367127.890 0        48.000  
        48.000                                                  
 22  1  8 21 59 20.0000000  0  0
 22  1  8 21 59 21.0010000  0  6E02E04E09E11E25E30
  24691480.727                   129754846.177 0                        47.000  
                  24691478.886    99422546.432          52.000  
  27331588.808                   143627779.937 0                        39.000  
                  27331586.949   110052459.829          44.000  
  25105801.953                   131932388.354 0                        40.000  
                  25105801.596   101091051.125          46.000  
  25080783.248                   131800125.272 0                        38.000  
                  25080779.014   100989753.528          42.000  
  27873908.115                   146478248.159 0                        40.000  
                  27873908.276   112236585.633          44.000  
  25088746.168                   131842587.809 0                        47.000  
                  25088744.452   101022566.972          51.000  
 22  1  8 21 59 22.0010000  0  9G08G10G13G15G16G18G23G26G27
  23685546.044    23685543.650   124468645.983 0  96988557.459 0        43.000  
        43.000                                                  
  21466811.486    21466808.770   112808394.600 0  87902920.495 0        50.000  
        47.000                                                  
  25119898.897                   132005663.037 0                        36.000  
                                                                
  23865250.466    23865245.928   125412616.565 0  97724120.501 0        40.000  
        37.000                                                  
  21046933.208                   110601627.086 0                        49.000  
                                                                
  21791592.808    21791587.054   114515291.898 0  89232703.078 0        46.000  
        44.000                                                  
  20754376.632    20754371.450   109064901.826 0  84986242.782 0        47.000  
        49.000                                                  
  22266600.828    22266598.559   117011217.767 0  91177961.294 0        46.000  
        45.000                                                  
  21091236.359    21091232.714   110835784.825 0  86365549.500 0        48.000  
        48.000                                                  
 22  1  8 21 59 21.0000000  0  0
 22  1  8 21 59 22.0010000  0  6E02E04E09E11E25E30
  24691886.371                   129756977.441 0                        47.000  
                  24691884.442    99424179.478          52.000  
  27331558.394                   143627620.405 0                        39.000  
                  27331556.679   110052337.589          44.000  
  25105359.606                   131930064.312 0                        40.000  
                  25105359.391   101089270.363          46.000  
  25081206.762                   131802350.620 0                        38.000  
                  25081202.456   100991458.683          42.000  
  27874524.775                   146481488.749 0                        39.000  
                  27874524.829   112239068.694          44.000  
  25088638.417                   131842021.170 0                        47.000  
                  25088636.666   101022132.798          51.000  
 22  1  8 21 59 23.0010000  0  9G08G10G13G15G16G18G23G26G27
  23684951.417    23684949.094   124465520.978 0  96986122.392 0        43.000  
        43.000                                                  
  21466390.581    21466387.526   112806181.768 0  87901196.206 0        50.000  
        47.000                                                  
  25119967.961                   132006026.568 0                        36.000  
                                                                
  23865234.027    23865229.524   125412530.136 0  97724053.180 0        40.000  
        37.000                                                  
  21047102.070                   110602514.305 0                        49.000  
                                                                
  21792052.614    21792046.860   114517708.220 0  89234585.926 0        46.000  
        44.000                                                  
  20754374.738    20754369.466   109064891.368 0  84986234.631 0        47.000  
        49.000                                                  
  22267166.776    22267164.542   117014191.995 0  91180278.862 0        46.000  
        45.000                                                  
  21090851.067    21090847.440   110833759.891 0  86363971.635 0        48.000  
        48.000                                                  
 22  1  8 21 59 22.0000000  0  0
 22  1  8 21 59 23.0010000  0  6E02E04E09E11E25E30
  24692292.034                   129759109.382 0                        47.000  
                  24692290.176    99425813.041          52.000  
  27331528.232                   143627461.672 0                        39.000  
                  27331526.409   110052215.971          44.000  
  25104917.580                   131927740.816 0                        40.000  
                  25104917.222   101087490.031          46.000  
  25081630.115                   131804576.352 0                        38.000  
                  25081626.005   100993164.091          42.000  
  27875141.578                   146484729.663 0                        40.000  
                  27875141.614   112241551.989          44.000  
  25088530.667                   131841455.332 0                        47.000  
                  25088528.898   101021699.236          51.000  
 22  1  8 21 59 24.0010000  0  9G08G10G13G15G16G18G23G26G27
  23684356.682    23684354.377   124462395.746 0  96983687.139 0        43.000  
        43.000                                                  
  21465969.498    21465966.478   112803969.091 0  87899472.047 0        50.000  
        47.000                                                  
  25120037.186                   132006390.407 0                        36.000  
                                                                
  23865217.677    23865213.191   125412444.069 0  97723986.089 0        40.000  
        37.000                                                  
  21047270.897                   110603401.870 0                        49.000  
                                                                
  21792512.455    21792506.648   114520124.445 0  89236468.703 0        46.000  
        44.000                                                  
  20754372.719    20754367.608   109064881.250 0  84986226.744 0        47.000  
        49.000                                                  
  22267732.724    22267730.579   117017166.229 0  91182596.440 0        46.000  
        45.000                                                  
  21090465.650    21090462.166   110831734.972 0  86362393.773 0        48.000  
        48.000                                                  
 22  1  8 21 59 23.0000000  0  0
 22  1  8 21 59 24.0010000  0  6E02E04E09E11E25E30
  24692697.643                   129761241.367 0                        47.000  
                  24692695.838    99427446.638          52.000  
  27331497.944                   143627303.074 0                        39.000  
                  27331496.174   110052094.454          44.000  
  25104475.411                   131925417.261 0                        40.000  
                  25104474.982   101085709.640          46.000  
  25082053.593                   131806801.762 0                        38.000  
                  25082049.465   100994869.289          42.000  
  27875758.309                   146487970.265 0                        39.000  
                  27875758.363   112244035.053          44.000  
  25088423.078                   131840889.670 0                        47.000  
                  25088421.273   101021265.809          51.000  
 22  1  8 21 59 25.0010000  0  9G08G10G13G15G16G18G23G26G27
  23683761.965    23683759.642   124459270.729 0  96981252.068 0        42.000  
        43.000                                                  
  21465548.504    21465545.627   112801757.021 0  87897748.356 0        50.000  
        47.000                                                  
  25120106.464                   132006754.925 0                        35.000  
                                                                
  23865201.380    23865196.984   125412358.721 0  97723919.590 0        40.000  
        37.000                                                  
  21047440.009                   110604290.195 0                        49.000  
                                                                
  21792972.332    21792966.543   114522540.978 0  89238351.707 0        46.000  
        44.000                                                  
  20754371.021    20754365.803   109064871.895 0  84986219.461 0        47.000  
        49.000                                                  
  22268298.796    22268296.599   117020140.888 0  91184914.375 0        46.000  
        45.000                                                  
  21090080.358    21090076.963   110829710.491 0  86360816.255 0        48.000  
        48.000                                                  
 22  1  8 21 59 24.0000000  0  0
 22  1  8 21 59 25.0010000  0  6E02E04E09E11E25E30
  24693103.323                   129763373.796 0                        47.000  
                  24693101.644    99429080.586          52.000  
  27331467.995                   143627145.051 0                        39.000  
                  27331466.119   110051973.367          44.000  
  25104033.438                   131923094.032 0                        40.000  
                  25104032.920   101083929.506          46.000  
  25082476.910                   131809027.327 0                        38.000  
                  25082472.997   100996574.596          42.000  
  27876375.005                   146491210.988 0                        39.000  
                  27876375.005   112246518.191          44.000  
  25088315.649                   131840324.586 0                        47.000  
                  25088313.719   101020832.823          51.000  
 22  1  8 21 59 26.0010000  0  9G08G10G13G15G16G18G23G26G27
  23683167.463    23683165.015   124456145.899 0  96978817.136 0        43.000  
        43.000                                                  
  21465127.795    21465124.758   112799545.553 0  87896025.135 0        50.000  
        47.000                                                  
  25120175.921                   132007120.216 0                        35.000  
                                                                
  23865185.226    23865180.831   125412274.126 0  97723853.687 0        40.000  
        37.000                                                  
  21047609.318                   110605179.277 0                        49.000  
                                                                
  21793432.227    21793426.527   114524957.813 0  89240234.959 0        46.000  
        44.000                                                  
  20754369.324    20754364.195   109064863.306 0  84986212.766 0        47.000  
        49.000                                                  
  22268864.941    22268862.761   117023116.017 0  91187232.650 0        46.000  
        45.000                                                  
  21089695.156    21089691.796   110827686.431 0  86359239.068 0        48.000  
        48.000                                                  
 22  1  8 21 59 25.0000000  0  0
 22  1  8 21 59 26.0010000  0  6E02E04E09E11E25E30
  24693509.254                   129765506.688 0                        47.000  
                  24693507.610    99430714.875          52.000  
  27331437.975                   143626987.594 0                        39.000  
                  27331436.170   110051852.726          44.000  
  25103591.609                   131920771.152 0                        40.000  
                  25103590.876   101082149.628          46.000  
  25082900.692                   131811253.021 0                        38.000  
                  25082896.618   100998279.987          42.000  
  27876991.612                   146494451.778 0                        39.000  
                  27876991.683   112249001.393          44.000  
  25088208.274                   131839760.078 0                        47.000  
                  25088206.309   101020400.273          51.000  
 22  1  8 21 59 27.0010000  0  9G08G10G13G15G16G18G23G26G27
  23682572.818    23682570.441   124453021.210 0  96976382.322 0        43.000  
        43.000                                                  
  21464707.051    21464704.032   112797334.631 0  87894302.327 0        50.000  
        47.000                                                  
  25120245.485                   132007486.148 0                        35.000  
                                                                
  23865169.252    23865164.927   125412190.239 0  97723788.306 0        40.000  
        37.000                                                  
  21047778.609                   110606069.075 0                        49.000  
                                                                
  21793892.265    21793886.440   114527374.915 0  89242118.422 0        46.000  
        44.000                                                  
  20754367.840    20754362.676   109064855.430 0  84986206.634 0        47.000  
        49.000                                                  
  22269431.210    22269428.959   117026091.521 0  91189551.225 0        46.000  
        45.000                                                  
  21089310.096    21089306.701   110825662.771 0  86357662.181 0        48.000  
        48.000                                                  
 22  1  8 21 59 26.0000000  0  0
 22  1  8 21 59 27.0010000  0  6E02E04E09E11E25E30
  24693915.042                   129767639.982 0                        47.000  
                  24693913.415    99432349.484          52.000  
  27331407.991                   143626830.684 0                        39.000  
                  27331406.347   110051732.479          44.000  
  25103149.547                   131918448.524 0                        40.000  
                  25103148.940   101080369.963          46.000  
  25083324.224                   131813478.785 0                        38.000  
                  25083320.042   100999985.447          42.000  
  27877608.450                   146497692.606 0                        39.000  
                  27877608.361   112251484.639          44.000  
  25088100.792                   131839196.097 0                        47.000  
                  25088099.023   101019968.137          51.000  
 22  1  8 21 59 28.0010000  0  9G08G10G13G15G16G18G23G26G27
  23681978.137    23681975.778   124449896.442 0  96973947.434 0        42.000  
        43.000                                                  
  21464286.397    21464283.430   112795124.015 0  87892579.770 0        50.000  
        47.000                                                  
  25120315.138                   132007852.531 0                        35.000  
                                                                
  23865153.330    23865149.042   125412106.839 0  97723723.322 0        40.000  
        37.000                                                  
  21047947.900                   110606959.346 0                        49.000  
                                                                
  21794352.268    21794346.460   114529792.047 0  89244001.899 0        46.000  
        44.000                                                  
  20754366.393    20754361.247   109064848.032 0  84986200.865 0        47.000  
        49.000                                                  
  22269997.604    22269995.192   117029067.187 0  91191869.909 0        46.000  
        45.000                                                  
  21088925.036    21088921.552   110823639.237 0  86356085.417 0        48.000  
        48.000                                                  
 22  1  8 21 59 27.0000000  0  0
 22  1  8 21 59 28.0010000  0  6E02E04E09E11E25E30
  24694321.222                   129769773.452 0                        47.000  
                  24694319.543    99433984.216          52.000  
  27331378.203                   143626674.028 0                        39.000  
                  27331376.559   110051612.445          44.000  
  25102707.664                   131916125.973 0                        40.000  
                  25102706.967   101078590.353          46.000  
  25083747.827                   131815704.376 0                        38.000  
                  25083743.502   101001690.782          42.000  
  27878224.985                   146500933.270 0                        39.000  
                  27878224.949   112253967.743          44.000  
  25087993.685                   131838632.422 0                        47.000  
                  25087991.702   101019536.223          51.000  
 22  1  8 21 59 29.0010000  0  9G08G10G13G15G16G18G23G26G27
  23681383.527    23681381.133   124446771.613 0  96971512.508 0        42.000  
        43.000                                                  
  21463865.956    21463862.865   112792913.779 0  87890857.511 0        50.000  
        47.000                                                  
  25120385.042                   132008219.393 0                        35.000  
                                                                
  23865137.534    23865133.245   125412023.950 0  97723658.742 0        40.000  
        37.000                                                  
  21048117.424                   110607850.165 0                        49.000  
                                                                
  21794812.127    21794806.462   114532209.269 0  89245885.443 0        46.000  
        45.000                                                  
  20754365.214    20754359.924   109064841.192 0  84986195.532 0        47.000  
        49.000                                                  
  22270563.892    22270561.533   117032043.061 0  91194188.783 0        46.000  
        45.000                                                  
  21088540.066    21088536.492   110821615.938 0  86354508.818 0        48.000  
        48.000                                                  
 22  1  8 21 59 28.0000000  0  0
 22  1  8 21 59 29.0010000  0  6E02E04E09E11E25E30
  24694727.153                   129771907.166 0                        47.000  
                  24694725.527    99435619.135          52.000  
  27331348.576                   143626517.728 0                        39.000  
                  27331346.754   110051492.686          44.000  
  25102265.656                   131913803.542 0                        40.000  
                  25102265.066   101076810.814          46.000  
  25084171.251                   131817929.900 0                        38.000  
                  25084167.034   101003396.035          42.000  
  27878841.502                   146504173.805 0                        39.000  
                  27878841.609   112256450.741          44.000  
  25087886.525                   131838069.105 0                        47.000  
                  25087884.523   101019104.586          51.000  
 22  1  8 21 59 30.0010000  0  9G08G10G13G15G16G18G23G26G27
  23680788.953    23680786.612   124443647.132 0  96969077.832 0        42.000  
        43.000                                                  
  21463445.427    21463442.371   112790704.272 0  87889135.822 0        50.000  
        47.000                                                  
  25120454.892                   132008587.088 0                        35.000  
                                                                
  23865121.934    23865117.592   125411941.964 0  97723594.852 0        40.000  
        37.000                                                  
  21048287.019                   110608741.876 0                        49.000  
                                                                
  21795272.165    21795266.411   114534626.944 0  89247769.342 0        46.000  
        44.000                                                  
  20754364.124    20754358.888   109064835.232 0  84986190.893 0        47.000  
        49.000                                                  
  22271130.322    22271128.052   117035019.519 0  91196508.101 0        46.000  
        45.000                                                  
  21088155.185    21088151.486   110819593.196 0  86352932.653 0        48.000  
        48.000                                                  
 22  1  8 21 59 29.0000000  0  0
 22  1  8 21 59 30.0010000  0  6E02E04E09E11E25E30
  24695133.244                   129774041.452 0                        47.000  
                  24695131.708    99437254.504          52.000  
  27331318.932                   143626362.123 0                        39.000  
                  27331317.145   110051373.468          44.000  
  25101823.791                   131911481.574 0                        40.000  
                  25101823.237   101075031.646          46.000  
  25084594.568                   131820155.679 0                        38.000  
                  25084590.637   101005101.491          42.000  
  27879458.341                   146507414.578 0                        39.000  
                  27879458.269   112258933.928          44.000  
  25087779.328                   131837506.498 0                        47.000  
                  25087777.488   101018673.504          51.000  
 22  1  8 21 59 31.0010000  0  9G08G10G13G15G16G18G23G26G27
  23680194.433    23680192.074   124440522.743 0  96966643.257 0        42.000  
        43.000                                                  
  21463025.201    21463022.020   112788495.283 0  87887414.530 0        50.000  
        47.000                                                  
  25120524.903                   132008955.447 0                        35.000  
                                                                
  23865106.478    23865102.153   125411860.660 0  97723531.498 0        40.000  
        37.000                                                  
  21048456.953                   110609634.271 0                        49.000  
                                                                
  21795732.364    21795726.538   114537044.841 0  89249653.421 0        46.000  
        44.000                                                  
  20754363.123    20754357.923   109064829.959 0  84986186.788 0        47.000  
        49.000                                                  
  22271696.770    22271694.590   117037996.338 0  91198827.696 0        46.000  
        45.000                                                  
  21087770.304    21087766.606   110817570.824 0  86351356.786 0        48.000  
        48.000                                                  
 22  1  8 21 59 30.0000000  0  0
 22  1  8 21 59 31.0010000  0  6E02E04E09E11E25E30
  24695539.461                   129776176.128 0                        47.000  
                  24695537.924    99438890.161          52.000  
  27331289.448                   143626207.034 0                        39.000  
                  27331287.732   110051254.623          44.000  
  25101381.872                   131909159.853 0                        40.000  
                  25101381.479   101073252.663          46.000  
  25085018.046                   131822381.494 0                        38.000  
                  25085014.204   101006806.994          42.000  
  27880074.894                   146510655.356 0                        39.000  
                  27880074.929   112261417.120          44.000  
  25087672.221                   131836944.387 0                        47.000  
                  25087670.524   101018242.798          51.000  
 22  1  8 21 59 32.0010000  0  9G08G10G13G15G16G18G23G26G27
  23679599.931    23679597.554   124437398.324 0  96964208.636 0        42.000  
        43.000                                                  
  21462605.082    21462601.687   112786286.680 0  87885693.535 0        50.000  
        47.000                                                  
  25120595.164                   132009324.310 0                        35.000  
                                                                
  23865091.128    23865086.732   125411779.889 0  97723468.562 0        40.000  
        37.000                                                  
  21048626.923                   110610527.212 0                        49.000  
                                                                
  21796192.491    21796186.719   114539462.844 0  89251537.581 0        46.000  
        44.000                                                  
  20754362.212    20754357.012   109064825.246 0  84986183.116 0        47.000  
        49.000                                                  
  22272263.254    22272261.074   117040973.383 0  91201147.471 0        46.000  
        45.000                                                  
  21087385.441    21087381.814   110815548.669 0  86349781.081 0        48.000  
        48.000                                                  
 22  1  8 21 59 31.0000000  0  0
 22  1  8 21 59 32.0010000  0  6E02E04E09E11E25E30
  24695945.785                   129778311.045 0                        47.000  
                  24695944.176    99440526.006          52.000  
  27331259.857                   143626052.254 0                        39.000  
                  27331258.159   110051136.038          44.000  
  25100939.917                   131906838.279 0                        40.000  
                  25100939.649   101071473.795          46.000  
  25085441.649                   131824607.249 0                        38.000  
                  25085437.754   101008512.443          42.000  
  27880691.750                   146513896.023 0                        39.000  
                  27880691.732   112263900.233          44.000  
  25087565.365                   131836382.645 0                        47.000  
                  25087563.596   101017812.375          51.000  
 22  1  8 21 59 33.0010000  0  9G08G10G13G15G16G18G23G26G27
  23679005.357    23679002.998   124434274.252 0  96961774.307 0        42.000  
        43.000                                                  
  21462184.839    21462181.497   112784078.839 0  87883973.140 0        51.000  
        47.000                                                  
  25120665.371                   132009694.030 0                        35.000  
                                                                
  23865075.975    23865071.562   125411700.037 0  97723406.330 0        40.000  
        37.000                                                  
  21048796.911                   110611421.078 0                        49.000  
                                                                
  21796652.726    21796646.918   114541881.314 0  89253422.108 0        46.000  
        44.000                                                  
  20754361.408    20754356.315   109064821.463 0  84986180.166 0        47.000  
        49.000                                                  
  22272829.934    22272827.736   117043951.041 0  91203467.722 0        46.000  
        45.000                                                  
  21087000.704    21086997.165   110813527.125 0  86348205.847 0        48.000  
        48.000                                                  
 22  1  8 21 59 32.0000000  0  0
 22  1  8 21 59 33.0010000  0  6E02E04E09E11E25E30
  24696352.001                   129780446.575 0                        47.000  
                  24696350.572    99442162.324          52.000  
  27331230.480                   143625898.219 0                        39.000  
                  27331228.943   110051018.020          44.000  
  25100498.445                   131904517.201 0                        40.000  
                  25100497.927   101069695.306          46.000  
  25085865.199                   131826833.278 0                        38.000  
                  25085861.393   101010218.104          42.000  
  27881308.357                   146517136.942 0                        39.000  
                  27881308.428   112266383.550          44.000  
  25087458.687                   131835821.664 0                        47.000  
                  25087456.792   101017382.527          51.000  
 22  1  8 21 59 34.0010000  0  9G08G10G13G15G16G18G23G26G27
  23678410.711    23678408.478   124431149.921 0  96959339.766 0        42.000  
        43.000                                                  
  21461764.899    21461761.254   112781871.112 0  87882252.834 0        51.000  
        47.000                                                  
  25120735.703                   132010064.017 0                        35.000  
                                                                
  23865060.840    23865056.498   125411620.457 0  97723344.346 0        40.000  
        37.000                                                  
  21048966.988                   110612315.233 0                        49.000  
                                                                
  21797112.871    21797107.171   114544299.637 0  89255306.506 0        46.000  
        44.000                                                  
  20754360.764    20754355.743   109064817.966 0  84986177.443 0        47.000  
        49.000                                                  
  22273396.507    22273394.434   117046928.655 0  91205787.939 0        46.000  
        45.000                                                  
  21086616.091    21086612.481   110811505.531 0  86346630.581 0        48.000  
        48.000                                                  
 22  1  8 21 59 33.0000000  0  0
 22  1  8 21 59 34.0010000  0  6E02E04E09E11E25E30
  24696758.575                   129782582.094 0                        47.000  
                  24696756.877    99443798.630          52.000  
  27331201.121                   143625744.316 0                        39.000  
                  27331199.692   110050900.086          44.000  
  25100056.687                   131902195.967 0                        40.000  
                  25100056.241   101067916.714          46.000  
  25086289.034                   131829058.975 0                        38.000  
                  25086284.906   101011923.517          42.000  
  27881925.070                   146520377.507 0                        39.000  
                  27881925.142   112268866.571          44.000  
  25087352.044                   131835260.782 0                        47.000  
                  25087350.222   101016952.763          51.000  
 22  1  8 21 59 35.0010000  0  9G08G10G13G15G16G18G23G26G27
  23677816.209    23677813.904   124428025.494 0  96956905.129 0        42.000  
        43.000                                                  
  21461344.905    21461341.117   112779663.700 0  87880532.770 0        50.000  
        47.000                                                  
  25120806.143                   132010434.356 0                        35.000  
                                                                
  23865045.794    23865041.470   125411541.353 0  97723282.683 0        40.000  
        37.000                                                  
  21049137.173                   110613209.856 0                        49.000  
                                                                
  21797573.034    21797567.334   114546717.966 0  89257190.923 0        46.000  
        44.000                                                  
  20754360.139    20754355.261   109064814.937 0  84986175.081 0        47.000  
        49.000                                                  
  22273963.152    22273960.990   117049906.395 0  91208108.263 0        46.000  
        45.000                                                  
  21086231.317    21086227.850   110809484.074 0  86345055.420 0        48.000  
        48.000                                                  
 22  1  8 21 59 34.0000000  0  0
 22  1  8 21 59 35.0010000  0  6E02E04E09E11E25E30
  24697164.917                   129784717.774 0                        47.000  
                  24697163.398    99445435.058          52.000  
  27331172.066                   143625590.647 0                        39.000  
                  27331170.386   110050782.351          45.000  
  25099614.947                   131899874.786 0                        40.000  
                  25099614.465   101066138.142          46.000  
  25086712.405                   131831284.484 0                        38.000  
                  25086708.331   101013628.766          42.000  
  27882541.641                   146523617.865 0                        39.000  
                  27882541.730   112271349.432          44.000  
  25087245.295                   131834700.191 0                        47.000  
                  25087243.472   101016523.215          51.000  
 22  1  8 21 59 36.0010000  0  9G08G10G13G15G16G18G23G26G27
  23677221.760    23677219.437   124424901.679 0  96954470.990 0        42.000  
        43.000                                                  
  21460924.930    21460921.213   112777457.315 0  87878813.511 0        51.000  
        47.000                                                  
  25120876.851                   132010805.901 0                        35.000  
                                                                
  23865030.910    23865026.621   125411463.441 0  97723221.961 0        40.000  
        37.000                                                  
  21049307.661                   110614105.669 0                        49.000  
                                                                
  21798033.429    21798027.640   114549137.046 0  89259075.918 0        46.000  
        44.000                                                  
  20754359.781    20754354.903   109064813.109 0  84986173.657 0        47.000  
        49.000                                                  
  22274529.975    22274527.849   117052885.048 0  91210429.293 0        46.000  
        45.000                                                  
  21085846.776    21085843.309   110807463.492 0  86343480.943 0        48.000  
        48.000                                                  
 22  1  8 21 59 35.0000000  0  0
 22  1  8 21 59 36.0010000  0  6E02E04E09E11E25E30
  24697571.276                   129786854.337 0                        47.000  
                  24697569.900    99447072.167          52.000  
  27331143.226                   143625438.012 0                        39.000  
                  27331141.385   110050665.388          44.000  
  25099173.511                   131897554.374 0                        40.000  
                  25099173.011   101064360.162          46.000  
  25087136.044                   131833510.568 0                        38.000  
                  25087131.862   101015334.487          42.000  
  27883158.426                   146526858.749 0                        39.000  
                  27883158.569   112273832.707          44.000  
  25087138.777                   131834140.615 0                        47.000  
                  25087136.955   101016094.449          51.000  
 22  1  8 21 59 37.0010000  0  9G08G10G13G15G16G18G23G26G27
  23676627.311    23676625.078   124421777.962 0  96952036.932 0        42.000  
        43.000                                                  
  21460505.276    21460501.398   112775251.428 0  87877094.631 0        51.000  
        47.000                                                  
  25120947.648                   132011178.063 0                        35.000  
                                                                
  23865016.203    23865011.897   125411386.183 0  97723161.764 0        40.000  
        37.000                                                  
  21049478.186                   110615002.164 0                        49.000  
                                                                
  21798493.717    21798487.981   114551556.349 0  89260961.091 0        46.000  
        44.000                                                  
  20754359.621    20754354.689   109064811.947 0  84986172.760 0        47.000  
        49.000                                                  
  22275096.834    22275094.672   117055864.027 0  91212750.571 0        46.000  
        45.000                                                  
  21085462.288    21085458.786   110805443.259 0  86341906.733 0        48.000  
        48.000                                                  
 22  1  8 21 59 36.0000000  0  0
 22  1  8 21 59 37.0010000  0  6E02E04E09E11E25E30
  24697978.225                   129788991.269 0                        47.000  
                  24697976.635    99448709.561          52.000  
  27331114.349                   143625285.852 0                        39.000  
                  27331112.509   110050548.795          45.000  
  25098731.985                   131895234.214 0                        40.000  
                  25098731.503   101062582.364          46.000  
  25087559.647                   131835736.705 0                        38.000  
                  25087555.447   101017040.202          42.000  
  27883774.961                   146530099.619 0                        39.000  
                  27883775.247   112276315.989          44.000  
  25087032.475                   131833581.526 0                        47.000  
                  25087030.563   101015666.054          51.000  
 22  1  8 21 59 38.0010000  0  9G08G10G13G15G16G18G23G26G27
  23676032.809    23676030.718   124418654.054 0  96949602.718 0        42.000  
        43.000                                                  
  21460085.604    21460081.637   112773045.706 0  87875375.887 0        51.000  
        47.000                                                  
  25121018.570                   132011550.491 0                        34.000  
                                                                
  23865001.497    23864997.209   125411309.236 0  97723101.815 0        40.000  
        37.000                                                  
  21049648.853                   110615898.975 0                        49.000  
                                                                
  21798954.041    21798948.323   114553975.520 0  89262846.162 0        46.000  
        44.000                                                  
  20754359.370    20754354.510   109064811.122 0  84986172.113 0        47.000  
        49.000                                                  
  22275663.854    22275661.549   117058843.017 0  91215071.855 0        46.000  
        45.000                                                  
  21085077.836    21085074.298   110803423.021 0  86340332.519 0        48.000  
        48.000                                                  
 22  1  8 21 59 37.0000000  0  0
 22  1  8 21 59 38.0010000  0  6E02E04E09E11E25E30
  24698384.745                   129791128.220 0                        47.000  
                  24698383.262    99450346.960          52.000  
  27331085.187                   143625133.783 0                        39.000  
                  27331083.489   110050432.295          45.000  
  25098290.388                   131892913.958 0                        40.000  
                  25098289.941   101060804.516          46.000  
  25087983.268                   131837962.505 0                        38.000  
                  25087978.979   101018745.696          42.000  
  27884391.674                   146533340.183 0                        39.000  
                  27884391.960   112278799.011          44.000  
  25086926.136                   131833022.578 0                        47.000  
                  25086924.224   101015237.771          51.000  
 22  1  8 21 59 39.0010000  0  9G08G10G13G15G16G18G23G26G27
  23675438.396    23675436.287   124415530.395 0  96947168.696 0        42.000  
        43.000                                                  
  21459665.843    21459662.037   112770840.647 0  87873657.661 0        51.000  
        47.000                                                  
  25121089.617                   132011923.709 0                        35.000  
                                                                
  23864987.005    23864982.699   125411233.096 0  97723042.501 0        40.000  
        37.000                                                  
  21049819.680                   110616796.609 0                        49.000  
                                                                
  21799414.580    21799408.879   114556395.058 0  89264731.514 0        46.000  
        44.000                                                  
  20754359.299    20754354.546   109064811.125 0  84986172.106 0        47.000  
        49.000                                                  
  22276230.749    22276228.515   117061822.492 0  91217393.530 0        46.000  
        45.000                                                  
  21084693.509    21084689.971   110801403.278 0  86338758.691 0        48.000  
        48.000                                                  
 22  1  8 21 59 38.0000000  0  0
 22  1  8 21 59 39.0010000  0  6E02E04E09E11E25E30
  24698791.426                   129793265.684 0                        47.000  
                  24698790.086    99451984.757          52.000  
  27331056.525                   143624982.383 0                        39.000  
                  27331054.774   110050316.276          45.000  
  25097848.916                   131890594.088 0                        40.000  
                  25097848.541   101059026.949          46.000  
  25088406.781                   131840188.501 0                        38.000  
                  25088402.618   101020451.331          42.000  
  27885008.352                   146536580.914 0                        39.000  
                  27885008.567   112281282.154          44.000  
  25086819.798                   131832464.270 0                        47.000  
                  25086817.975   101014809.981          51.000  
 22  1  8 21 59 40.0010000  0  9G08G10G13G15G16G18G23G26G27
  23674843.983    23674841.803   124412406.736 0  96944734.694 0        42.000  
        43.000                                                  
  21459246.385    21459242.472   112768636.005 0  87871939.760 0        51.000  
        47.000                                                  
  25121160.808                   132012297.464 0                        35.000  
                                                                
  23864972.692    23864968.279   125411157.554 0  97722983.623 0        39.000  
        37.000                                                  
  21049990.562                   110617694.826 0                        49.000  
                                                                
  21799874.921    21799869.310   114558814.748 0  89266616.982 0        46.000  
        44.000                                                  
  20754359.317    20754354.582   109064811.698 0  84986172.564 0        47.000  
        49.000                                                  
  22276797.786    22276795.499   117064802.245 0  91219715.407 0        46.000  
        45.000                                                  
  21084309.146    21084305.608   110799383.794 0  86337185.069 0        48.000  
        48.000                                                  
 22  1  8 21 59 39.0000000  0  0
 22  1  8 21 59 40.0010000  0  6E02E04E09E11E25E30
  24699198.233                   129795403.430 0                        47.000  
                  24699196.839    99453622.773          52.000  
  27331027.863                   143624831.368 0                        39.000  
                  27331025.969   110050200.554          44.000  
  25097407.462                   131888274.398 0                        40.000  
                  25097407.051   101057249.522          46.000  
  25088830.509                   131842414.462 0                        38.000  
                  25088826.149   101022156.927          42.000  
  27885625.102                   146539821.534 0                        39.000  
                  27885625.352   112283765.233          44.000  
  25086713.691                   131831906.373 0                        47.000  
                  25086711.797   101014382.501          51.000  
 22  1  8 21 59 41.0010000  0  9G08G10G13G15G16G18G23G26G27
  23674249.623    23674247.408   124409283.154 0  96942300.720 0        42.000  
        43.000                                                  
  21458827.053    21458823.050   112766431.838 0  87870222.221 0        51.000  
        47.000                                                  
  25121231.962                   132012671.817 0                        35.000  
                                                                
  23864958.486    23864954.001   125411082.638 0  97722925.229 0        39.000  
        37.000                                                  
  21050161.622                   110618593.671 0                        49.000  
                                                                
  21800335.335    21800329.742   114561234.591 0  89268502.581 0        46.000  
        44.000                                                  
  20754359.603    20754354.742   109064812.912 0  84986173.510 0        47.000  
        49.000                                                  
  22277364.788    22277362.698   117067782.298 0  91222037.542 0        46.000  
        45.000                                                  
  21083924.944    21083921.335   110797364.620 0  86335611.692 0        48.000  
        48.000                                                  
 22  1  8 21 59 40.0000000  0  0
 22  1  8 21 59 41.0010000  0  6E02E04E09E11E25E30
  24699605.128                   129797541.504 0                        47.000  
                  24699603.699    99455261.031          52.000  
  27330999.130                   143624680.778 0                        39.000  
                  27330997.486   110050085.171          45.000  
  25096966.097                   131885954.884 0                        40.000  
                  25096965.686   101055472.236          46.000  
  25089254.023                   131844640.406 0                        38.000  
                  25089249.627   101023862.533          42.000  
  27886241.833                   146543062.119 0                        39.000  
                  27886242.047   112286248.269          44.000  
  25086607.657                   131831348.927 0                        47.000  
                  25086605.673   101013955.366          51.000  
 22  1  8 21 59 42.0010000  0  9G08G10G13G15G16G18G23G26G27
  23673655.300    23673653.066   124406159.962 0  96939867.066 0        42.000  
        43.000                                                  
  21458407.774    21458403.736   112764228.466 0  87868505.313 0        51.000  
        47.000                                                  
  25121303.277                   132013047.054 0                        35.000  
                                                                
  23864944.370    23864939.938   125411008.669 0  97722867.609 0        39.000  
        37.000                                                  
  21050333.004                   110619493.487 0                        49.000  
                                                                
  21800795.873    21800790.369   114563654.980 0  89270388.589 0        46.000  
        44.000                                                  
  20754359.978    20754355.189   109064815.102 0  84986175.211 0        47.000  
        49.000                                                  
  22277932.023    22277929.860   117070763.005 0  91224360.164 0        46.000  
        45.000                                                  
  21083540.671    21083537.133   110795346.084 0  86334038.800 0        48.000  
        48.000                                                  
 22  1  8 21 59 41.0000000  0  0
 22  1  8 21 59 42.0010000  0  6E02E04E09E11E25E30
  24700012.077                   129799680.233 0                        47.000  
                  24700010.630    99456899.790          52.000  
  27330970.611                   143624530.997 0                        39.000  
                  27330968.842   110049970.378          45.000  
  25096524.768                   131883635.933 0                        40.000  
                  25096524.446   101053695.371          46.000  
  25089677.608                   131846866.719 0                        38.000  
                  25089673.338   101025568.383          42.000  
  27886858.672                   146546303.012 0                        39.000  
                  27886858.654   112288731.555          44.000  
  25086501.836                   131830792.266 0                        47.000  
                  25086499.763   101013528.830          51.000  
 22  1  8 21 59 43.0010000  0  9G08G10G13G15G16G18G23G26G27
  23673060.905    23673058.635   124403036.479 0  96937433.197 0        42.000  
        43.000                                                  
  21457988.442    21457984.564   112762025.212 0  87866788.491 0        51.000  
        47.000                                                  
  25121374.575                   132013422.575 0                        34.000  
                                                                
  23864930.468    23864925.929   125410934.979 0  97722810.175 0        39.000  
        37.000                                                  
  21050504.189                   110620393.579 0                        49.000  
                                                                
  21801256.376    21801250.854   114566075.187 0  89272274.471 0        46.000  
        45.000                                                  
  20754360.425    20754355.725   109064817.575 0  84986177.141 0        47.000  
        49.000                                                  
  22278499.239    22278497.112   117073743.680 0  91226682.754 0        46.000  
        45.000                                                  
  21083156.630    21083153.074   110793327.497 0  86332465.893 0        48.000  
        48.000                                                  
 22  1  8 21 59 42.0000000  0  0
 22  1  8 21 59 43.0010000  0  6E02E04E09E11E25E30
  24700419.044                   129801818.941 0                        47.000  
                  24700417.776    99458538.547          52.000  
  27330941.967                   143624381.258 0                        39.000  
                  27330940.466   110049855.676          45.000  
  25096083.492                   131881316.844 0                        40.000  
                  25096083.331   101051918.414          46.000  
  25090101.229                   131849092.633 0                        38.000  
                  25090096.976   101027273.973          42.000  
  27887475.367                   146549543.559 0                        39.000  
                  27887475.278   112291214.558          44.000  
  25086395.801                   131830235.721 0                        47.000  
                  25086393.943   101013102.385          51.000  
 22  1  8 21 59 44.0010000  0  9G08G10G13G15G16G18G23G26G27
  23672466.491    23672464.115   124399913.032 0  96934999.324 0        42.000  
        43.000                                                  
  21457569.306    21457565.268   112759822.404 0  87865072.012 0        51.000  
        47.000                                                  
  25121446.015                   132013798.660 0                        34.000  
                                                                
  23864916.584    23864911.991   125410861.897 0  97722753.200 0        39.000  
        37.000                                                  
  21050675.624                   110621294.282 0                        49.000  
                                                                
  21801716.896    21801711.482   114568495.552 0  89274160.466 0        46.000  
        44.000                                                  
  20754360.997    20754356.261   109064820.648 0  84986179.538 0        47.000  
        49.000                                                  
  22279066.420    22279064.454   117076724.607 0  91229005.566 0        46.000  
        45.000                                                  
  21082772.482    21082769.051   110791309.204 0  86330893.188 0        48.000  
        48.000                                                  
 22  1  8 21 59 43.0000000  0  0
 22  1  8 21 59 44.0010000  0  6E02E04E09E11E25E30
  24700826.190                   129803957.948 0                        47.000  
                  24700824.796    99460177.525          52.000  
  27330913.466                   143624231.962 0                        39.000  
                  27330912.018   110049741.276          45.000  
  25095642.145                   131878997.923 0                        40.000  
                  25095642.056   101050141.578          46.000  
  25090525.011                   131851318.539 0                        38.000  
                  25090520.490   101028979.528          42.000  
  27888091.724                   146552783.985 0                        39.000  
                  27888091.920   112293697.498          44.000  
  25086289.963                   131829679.584 0                        47.000  
                  25086288.033   101012676.252          51.000  
 22  1  8 21 59 45.0010000  0  9G08G10G13G15G16G18G23G26G27
  23671872.257    23671869.898   124396790.356 0  96932566.084 0        42.000  
        42.000                                                  
  21457150.349    21457146.239   112757620.778 0  87863356.455 0        51.000  
        47.000                                                  
  25121517.831                   132014176.042 0                        34.000  
                                                                
  23864902.949    23864898.393   125410790.141 0  97722697.327 0        39.000  
        37.000                                                  
  21050847.256                   110622196.340 0                        48.000  
                                                                
  21802177.577    21802172.324   114570916.818 0  89276047.165 0        46.000  
        44.000                                                  
  20754361.854    20754357.173   109064825.099 0  84986183.004 0        47.000  
        49.000                                                  
  22279633.868    22279631.956   117079706.582 0  91231329.176 0        46.000  
        45.000                                                  
  21082388.602    21082385.296   110789291.938 0  86329321.297 0        48.000  
        48.000                                                  
 22  1  8 21 59 44.0000000  0  0
 22  1  8 21 59 45.0010000  0  6E02E04E09E11E25E30
  24701233.514                   129806098.000 0                        47.000  
                  24701231.942    99461817.305          52.000  
  27330885.268                   143624083.817 0                        39.000  
                  27330883.857   110049627.764          45.000  
  25095201.048                   131876679.932 0                        40.000  
                  25095200.888   101048365.464          46.000  
  25090948.435                   131853545.186 0                        38.000  
                  25090944.308   101030685.652          42.000  
  27888708.491                   146556025.124 0                        39.000  
                  27888708.795   112296180.964          44.000  
  25086184.125                   131829124.624 0                        47.000  
                  25086182.535   101012251.025          51.000  
 22  1  8 21 59 46.0010000  0  9G08G10G13G15G16G18G23G26G27
  23671277.951    23671275.575   124393667.510 0  96930132.686 0        42.000  
        43.000                                                  
  21456731.231    21456727.228   112755419.393 0  87861641.093 0        51.000  
        47.000                                                  
  25121589.664                   132014553.770 0                        34.000  
                                                                
  23864889.512    23864884.830   125410718.798 0  97722641.727 0        39.000  
        37.000                                                  
  21051018.906                   110623098.788 0                        48.000  
                                                                
  21802638.294    21802633.094   114573338.035 0  89277933.836 0        46.000  
        44.000                                                  
  20754362.748    20754358.120   109064829.941 0  84986186.766 0        47.000  
        49.000                                                  
  22280201.406    22280199.351   117082688.630 0  91233652.856 0        46.000  
        45.000                                                  
  21082004.632    21082001.398   110787274.731 0  86327749.452 0        48.000  
        48.000                                                  
 22  1  8 21 59 45.0000000  0  0
 22  1  8 21 59 46.0010000  0  6E02E04E09E11E25E30
  24701640.571                   129808238.152 0                        47.000  
                  24701639.248    99463457.162          52.000  
  27330857.053                   143623935.882 0                        39.000  
                  27330855.731   110049514.401          45.000  
  25094759.880                   131874361.929 0                        40.000  
                  25094759.737   101046589.332          46.000  
  25091372.003                   131855771.543 0                        38.000  
                  25091367.929   101032391.596          42.000  
  27889325.294                   146559265.997 0                        39.000  
                  27889325.544   112298664.236          44.000  
  25086078.626                   131828569.887 0                        47.000  
                  25086076.839   101011825.967          51.000  
 22  1  8 21 59 47.0010000  0  9G08G10G13G15G16G18G23G26G27
  23670683.717    23670681.322   124390544.500 0  96927699.183 0        42.000  
        42.000                                                  
  21456312.560    21456308.343   112753218.248 0  87859925.915 0        51.000  
        47.000                                                  
  25121661.498                   132014931.868 0                        34.000  
                                                                
  23864876.021    23864871.375   125410647.837 0  97722586.423 0        39.000  
        37.000                                                  
  21051190.681                   110624001.654 0                        48.000  
                                                                
  21803099.119    21803093.811   114575759.201 0  89279820.452 0        46.000  
        44.000                                                  
  20754363.784    20754359.049   109064835.179 0  84986190.859 0        47.000  
        49.000                                                  
  22280768.891    22280766.925   117085670.775 0  91235976.594 0        46.000  
        46.000                                                  
  21081620.805    21081617.535   110785257.623 0  86326177.668 0        48.000  
        48.000                                                  
 22  1  8 21 59 46.0000000  0  0
 22  1  8 21 59 47.0010000  0  6E02E04E09E11E25E30
  24702047.788                   129810378.389 0                        47.000  
                  24702046.573    99465097.086          52.000  
  27330828.981                   143623788.156 0                        39.000  
                  27330827.569   110049401.204          45.000  
  25094318.801                   131872043.905 0                        40.000  
                  25094318.783   101044813.173          46.000  
  25091795.713                   131857997.736 0                        38.000  
                  25091791.567   101034097.364          42.000  
  27889941.954                   146562506.637 0                        39.000  
                  27889942.132   112301147.291          44.000  
  25085972.877                   131828015.368 0                        47.000  
                  25085971.305   101011401.080          51.000  
 22  1  8 21 59 48.0010000  0  9G08G10G13G15G16G18G23G26G27
  23670089.429    23670086.963   124387421.211 0  96925265.444 0        42.000  
        42.000                                                  
  21455893.835    21455889.439   112751017.239 0  87858210.845 0        51.000  
        47.000                                                  
  25121733.545                   132015310.215 0                        34.000  
                                                                
  23864862.601    23864857.848   125410577.161 0  97722531.353 0        39.000  
        37.000                                                  
  21051362.545                   110624904.806 0                        48.000  
                                                                
  21803559.871    21803554.493   114578180.224 0  89281706.972 0        45.000  
        44.000                                                  
  20754364.892    20754360.067   109064840.725 0  84986195.178 0        47.000  
        49.000                                                  
  22281336.357    22281334.392   117088652.879 0  91238300.316 0        46.000  
        45.000                                                  
  21081236.979    21081233.619   110783240.483 0  86324605.871 0        48.000  
        48.000                                                  
 22  1  8 21 59 47.0000000  0  0
 22  1  8 21 59 48.0010000  0  6E02E04E09E11E25E30
  24702455.023                   129812518.626 0                        47.000  
                  24702453.861    99466737.003          52.000  
  27330800.962                   143623640.516 0                        39.000  
                  27330799.676   110049288.103          45.000  
  25093877.526                   131869725.752 0                        40.000  
                  25093877.526   101043036.933          46.000  
  25092219.298                   131860223.554 0                        38.000  
                  25092215.081   101035802.865          42.000  
  27890558.435                   146565746.879 0                        39.000  
                  27890558.614   112303630.089          44.000  
  25085867.611                   131827460.974 0                        47.000  
                  25085865.931   101010976.284          51.000  
 22  1  8 21 59 49.0010000  0  9G08G10G13G15G16G18G23G26G27
  23669495.159    23669492.729   124384298.512 0  96922832.184 0        43.000  
        42.000                                                  
  21455475.074    21455470.768   112748817.230 0  87856496.546 0        51.000  
        47.000                                                  
  25121805.879                   132015689.677 0                        34.000  
                                                                
  23864849.432    23864844.625   125410507.635 0  97722477.177 0        39.000  
        37.000                                                  
  21051534.660                   110625809.118 0                        48.000  
                                                                
  21804020.749    21804015.424   114580601.954 0  89283594.023 0        46.000  
        44.000                                                  
  20754366.214    20754361.443   109064847.439 0  84986200.405 0        47.000  
        49.000                                                  
  22281904.038    22281901.948   117091635.830 0  91240624.694 0        46.000  
        45.000                                                  
  21080853.349    21080849.918   110781224.171 0  86323034.723 0        48.000  
        48.000                                                  
 22  1  8 21 59 48.0000000  0  0
 22  1  8 21 59 49.0010000  0  6E02E04E09E11E25E30
  24702862.508                   129814659.711 0                        47.000  
                  24702861.364    99468377.581          52.000  
  27330773.033                   143623493.866 0                        39.000  
                  27330771.657   110049175.725          45.000  
  25093436.482                   131867408.331 0                        40.000  
                  25093436.447   101041261.243          46.000  
  25092642.865                   131862449.923 0                        38.000  
                  25092638.756   101037508.780          42.000  
  27891175.256                   146568987.625 0                        39.000  
                  27891175.470   112306113.256          44.000  
  25085762.273                   131826907.561 0                        47.000  
                  25085760.593   101010552.229          51.000  
 22  1  8 21 59 50.0010000  0  9G08G10G13G15G16G18G23G26G27
  23668900.996    23668898.602   124381176.062 0  96920399.079 0        43.000  
        42.000                                                  
  21455056.492    21455052.311   112746617.849 0  87854782.745 0        51.000  
        47.000                                                  
  25121878.088                   132016069.888 0                        34.000  
                                                                
  23864836.334    23864831.581   125410438.916 0  97722423.644 0        39.000  
        37.000                                                  
  21051706.882                   110626714.228 0                        49.000  
                                                                
  21804481.591    21804476.284   114583024.021 0  89285481.353 0        46.000  
        44.000                                                  
  20754367.662    20754362.819   109064854.951 0  84986206.261 0        47.000  
        49.000                                                  
  22282471.791    22282469.664   117094619.246 0  91242949.422 0        46.000  
        45.000                                                  
  21080469.790    21080466.323   110779208.340 0  86321463.939 0        49.000  
        48.000                                                  
 22  1  8 21 59 49.0000000  0  0
 22  1  8 21 59 50.0010000  0  6E02E04E09E11E25E30
  24703270.351                   129816801.295 0                        47.000  
                  24703268.814    99470018.526          52.000  
  27330745.318                   143623347.825 0                        39.000  
                  27330743.906   110049063.809          45.000  
  25092995.439                   131865091.287 0                        40.000  
                  25092995.600   101039485.849          46.000  
  25093066.647                   131864676.429 0                        38.000  
                  25093062.412   101039214.818          42.000  
  27891791.916                   146572228.506 0                        39.000  
                  27891792.202   112308596.510          44.000  
  25085656.971                   131826354.752 0                        47.000  
                  25085655.416   101010128.655          51.000  
 22  1  8 21 59 51.0010000  0  9G08G10G13G15G16G18G23G26G27
  23668306.815    23668304.403   124378053.645 0  96917966.056 0        43.000  
        42.000                                                  
  21454638.268    21454633.783   112744418.944 0  87853069.317 0        51.000  
        47.000                                                  
  25121950.475                   132016450.715 0                        34.000  
                                                                
  23864823.397    23864818.536   125410370.828 0  97722370.572 0        40.000  
        37.000                                                  
  21051879.300                   110627619.984 0                        48.000  
                                                                
  21804942.594    21804937.269   114585446.291 0  89287368.831 0        45.000  
        44.000                                                  
  20754369.216    20754364.374   109064863.094 0  84986212.606 0        47.000  
        49.000                                                  
  22283039.507    22283037.488   117097602.993 0  91245274.424 0        46.000  
        45.000                                                  
  21080086.374    21080082.836   110777192.808 0  86319893.406 0        49.000  
        48.000                                                  
 22  1  8 21 59 50.0000000  0  0
 22  1  8 21 59 51.0010000  0  6E02E04E09E11E25E30
  24703677.604                   129818943.205 0                        47.000  
                  24703676.514    99471659.737          52.000  
  27330717.496                   143623202.200 0                        38.000  
                  27330716.192   110048952.262          45.000  
  25092554.575                   131862774.470 0                        40.000  
                  25092554.807   101037710.629          46.000  
  25093490.232                   131866902.969 0                        38.000  
                  25093486.158   101040920.856          42.000  
  27892408.719                   146575469.352 0                        39.000  
                  27892409.005   112311079.774          44.000  
  25085551.651                   131825802.412 0                        47.000  
                  25085550.239   101009705.436          51.000  
 22  1  8 21 59 52.0010000  0  9G08G10G13G15G16G18G23G26G27
  23667712.527    23667710.222   124374931.060 0  96915532.875 0        43.000  
        42.000                                                  
  21454219.865    21454215.380   112742220.261 0  87851356.053 0        51.000  
        47.000                                                  
  25122022.988                   132016831.841 0                        35.000  
                                                                
  23864810.656    23864805.706   125410303.093 0  97722317.796 0        40.000  
        37.000                                                  
  21052051.646                   110628526.107 0                        49.000  
                                                                
  21805403.543    21805398.236   114587868.472 0  89289256.250 0        45.000  
        44.000                                                  
  20754370.878    20754366.018   109064871.625 0  84986219.249 0        47.000  
        49.000                                                  
  22283607.385    22283605.330   117100586.773 0  91247599.457 0        45.000  
        45.000                                                  
  21079702.869    21079699.314   110775177.347 0  86318322.891 0        49.000  
        48.000                                                  
 22  1  8 21 59 51.0000000  0  0
 22  1  8 21 59 52.0010000  0  6E02E04E09E11E25E30
  24704085.321                   129821085.176 0                        47.000  
                  24704084.017    99473300.985          52.000  
  27330689.853                   143623056.789 0                        38.000  
                  27330688.441   110048840.832          45.000  
  25092113.531                   131860457.582 0                        40.000  
                  25092113.728   101035935.347          46.000  
  25093914.139                   131869129.226 0                        38.000  
                  25093909.743   101042626.676          42.000  
  27893025.522                   146578709.881 0                        39.000  
                  27893025.539   112313562.788          43.000  
  25085446.706                   131825250.263 0                        47.000  
                  25085445.187   101009282.359          51.000  
 22  1  8 21 59 53.0010000  0  9G08G10G13G15G16G18G23G26G27
  23667118.364    23667116.024   124371808.493 0  96913099.688 0        43.000  
        42.000                                                  
  21453801.354    21453797.012   112740021.978 0  87849643.103 0        51.000  
        47.000                                                  
  25122095.608                   132017213.507 0                        35.000  
                                                                
  23864797.808    23864792.966   125410235.941 0  97722265.462 0        40.000  
        37.000                                                  
  21052224.225                   110629432.819 0                        49.000  
                                                                
  21805864.439    21805859.132   114590290.783 0  89291143.770 0        45.000  
        44.000                                                  
  20754372.665    20754367.733   109064880.725 0  84986226.344 0        47.000  
        49.000                                                  
  22284175.191    22284173.190   117103570.813 0  91249924.665 0        45.000  
        45.000                                                  
  21079319.454    21079315.791   110773162.123 0  86316752.599 0        49.000  
        48.000                                                  
 22  1  8 21 59 52.0000000  0  0
 22  1  8 21 59 53.0010000  0  6E02E04E09E11E25E30
  24704492.931                   129823227.420 0                        47.000  
                  24704491.681    99474942.443          52.000  
  27330662.263                   143622911.748 0                        39.000  
                  27330660.816   110048729.695          45.000  
  25091672.506                   131858140.858 0                        40.000  
                  25091672.971   101034160.198          46.000  
  25094337.814                   131871355.422 0                        38.000  
                  25094333.436   101044332.474          42.000  
  27893642.217                   146581950.360 0                        39.000  
                  27893642.164   112316045.739          43.000  
  25085341.779                   131824698.511 0                        47.000  
                  25085340.225   101008859.585          51.000  
 22  1  8 21 59 54.0010000  0  9G08G10G13G15G16G18G23G26G27
  23666524.166    23666521.861   124368686.231 0  96910666.763 0        43.000  
        42.000                                                  
  21453383.058    21453378.895   112737824.420 0  87847930.724 0        51.000  
        47.000                                                  
  25122168.299                   132017596.024 0                        35.000  
                                                                
  23864785.193    23864780.439   125410169.660 0  97722213.831 0        40.000  
        37.000                                                  
  21052396.858                   110630340.406 0                        49.000  
                                                                
  21806325.478    21806320.260   114592713.531 0  89293031.628 0        45.000  
        44.000                                                  
  20754374.577    20754369.717   109064890.725 0  84986234.137 0        47.000  
        49.000                                                  
  22284743.247    22284741.139   117106555.417 0  91252250.339 0        45.000  
        45.000                                                  
  21078935.967    21078932.536   110771147.457 0  86315182.734 0        49.000  
        48.000                                                  
 22  1  8 21 59 53.0000000  0  0
 22  1  8 21 59 54.0010000  0  6E02E04E09E11E25E30
  24704900.756                   129825370.257 0                        47.000  
                  24704899.487    99476584.352          52.000  
  27330634.762                   143622767.394 0                        38.000  
                  27330633.494   110048619.095          45.000  
  25091231.659                   131855824.601 0                        40.000  
                  25091232.106   101032385.415          46.000  
  25094761.327                   131873581.905 0                        38.000  
                  25094757.075   101046038.478          42.000  
  27894258.717                   146585191.047 0                        39.000  
                  27894258.770   112318528.863          43.000  
  25085237.013                   131824147.468 0                        47.000  
                  25085235.369   101008437.355          51.000  
 22  1  8 21 59 55.0010000  0  9G08G10G13G15G16G18G23G26G27
  23665930.110    23665927.680   124365564.189 0  96908233.992 0        43.000  
        42.000                                                  
  21452965.120    21452960.813   112735627.480 0  87846218.819 0        51.000  
        47.000                                                  
  25122241.187                   132017979.292 0                        35.000  
                                                                
  23864772.702    23864767.949   125410104.140 0  97722162.783 0        40.000  
        37.000                                                  
  21052569.777                   110631248.773 0                        49.000  
                                                                
  21806786.570    21806781.334   114595136.608 0  89294919.733 0        45.000  
        44.000                                                  
  20754376.614    20754371.664   109064901.501 0  84986242.538 0        47.000  
        49.000                                                  
  22285311.304    22285309.141   117109540.476 0  91254576.359 0        45.000  
        45.000                                                  
  21078552.748    21078549.317   110769133.252 0  86313613.223 0        49.000  
        48.000                                                  
 22  1  8 21 59 54.0000000  0  0
 22  1  8 21 59 55.0010000  0  6E02E04E09E11E25E30
  24705308.563                   129827513.561 0                        47.000  
                  24705307.348    99478226.626          52.000  
  27330607.334                   143622623.632 0                        38.000  
                  27330606.101   110048508.944          45.000  
  25090790.973                   131853508.705 0                        40.000  
                  25090791.527   101030610.892          46.000  
  25095185.073                   131875808.509 0                        38.000  
                  25095180.785   101047744.579          42.000  
  27894875.537                   146588431.846 0                        39.000  
                  27894875.466   112321012.073          43.000  
  25085132.104                   131823597.013 0                        47.000  
                  25085130.657   101008015.587          51.000  
 22  1  8 21 59 56.0010000  0  9G08G10G13G15G16G18G23G26G27
  23665336.072    23665333.535   124362442.074 0  96905801.175 0        43.000  
        42.000                                                  
  21452547.217    21452542.893   112733430.872 0  87844507.181 0        51.000  
        47.000                                                  
  25122314.164                   132018362.977 0                        35.000  
                                                                
  23864760.408    23864755.584   125410039.151 0  97722112.120 0        40.000  
        37.000                                                  
  21052742.659                   110632157.645 0                        49.000  
                                                                
  21807247.662    21807242.427   114597559.735 0  89296807.881 0        45.000  
        44.000                                                  
  20754378.901    20754373.880   109064912.783 0  84986251.323 0        47.000  
        49.000                                                  
  22285879.324    22285877.198   117112525.705 0  91256902.509 0        45.000  
        45.000                                                  
  21078169.582    21078166.134   110767119.225 0  86312043.852 0        49.000  
        48.000                                                  
 22  1  8 21 59 55.0000000  0  0
 22  1  8 21 59 56.0010000  0  6E02E04E09E11E25E30
  24705716.370                   129829657.049 0                        47.000  
                  24705715.280    99479869.037          52.000  
  27330579.976                   143622480.199 0                        39.000  
                  27330578.815   110048399.025          45.000  
  25090350.306                   131851192.877 0                        40.000  
                  25090350.806   101028836.422          46.000  
  25095608.909                   131878034.995 0                        38.000  
                  25095604.263   101049450.577          42.000  
  27895492.126                   146591672.484 0                        39.000  
                  27895492.054   112323495.159          43.000  
  25085027.427                   131823046.889 0                        47.000  
                  25085025.962   101007594.059          51.000  
 22  1  8 21 59 57.0010000  0  9G08G10G13G15G16G18G23G26G27
  23664742.017    23664739.354   124359319.982 0  96903368.390 0        43.000  
        42.000                                                  
  21452129.171    21452125.043   112731234.684 0  87842795.874 0        51.000  
        47.000                                                  
  25122387.159                   132018747.208 0                        35.000  
                                                                
  23864748.186    23864743.326   125409974.707 0  97722061.918 0        40.000  
        37.000                                                  
  21052915.667                   110633067.092 0                        49.000  
                                                                
  21807708.701    21807703.573   114599982.988 0  89298696.135 0        45.000  
        44.000                                                  
  20754381.135    20754376.078   109064924.644 0  84986260.567 0        47.000  
        49.000                                                  
  22286447.523    22286445.308   117115511.210 0  91259228.881 0        45.000  
        46.000                                                  
  21077786.310    21077782.932   110765105.445 0  86310474.668 0        49.000  
        48.000                                                  
 22  1  8 21 59 56.0000000  0  0
 22  1  8 21 59 57.0010000  0  6E02E04E09E11E25E30
  24706124.570                   129831800.811 0                        47.000  
                  24706123.230    99481511.664          52.000  
  27330552.797                   143622337.119 0                        39.000  
                  27330551.672   110048289.412          45.000  
  25089909.584                   131848877.189 0                        40.000  
                  25089910.191   101027062.084          46.000  
  25096032.655                   131880261.411 0                        38.000  
                  25096028.062   101051156.537          42.000  
  27896108.875                   146594913.042 0                        39.000  
                  27896108.822   112325978.170          43.000  
  25084922.786                   131822497.167 0                        47.000  
                  25084921.250   101007172.843          51.000  
 22  1  8 21 59 58.0010000  0  9G08G10G13G15G16G18G23G26G27
  23664148.015    23664145.263   124356197.882 0  96900935.577 0        43.000  
        42.000                                                  
  21451711.161    21451707.194   112729038.872 0  87841084.840 0        51.000  
        47.000                                                  
  25122460.439                   132019131.953 0                        35.000  
                                                                
  23864736.106    23864731.085   125409910.792 0  97722012.100 0        40.000  
        37.000                                                  
  21053088.818                   110633977.082 0                        49.000  
                                                                
  21808169.793    21808164.611   114602406.326 0  89300584.454 0        45.000  
        44.000                                                  
  20754383.547    20754378.490   109064937.045 0  84986270.235 0        47.000  
        49.000                                                  
  22287015.758    22287013.471   117118496.914 0  91261555.398 0        45.000  
        46.000                                                  
  21077403.216    21077399.803   110763091.885 0  86308905.665 0        49.000  
        48.000                                                  
 22  1  8 21 59 57.0000000  0  0
 22  1  8 21 59 58.0010000  0  6E02E04E09E11E25E30
  24706532.555                   129833944.810 0                        47.000  
                  24706531.197    99483154.468          52.000  
  27330525.565                   143622194.396 0                        39.000  
                  27330524.457   110048180.060          45.000  
  25089468.862                   131846561.639 0                        40.000  
                  25089469.595   101025287.829          46.000  
  25096456.115                   131882487.721 0                        38.000  
                  25096451.773   101052862.404          42.000  
  27896725.517                   146598153.445 0                        39.000  
                  27896725.499   112328461.106          43.000  
  25084818.342                   131821947.800 0                        47.000  
                  25084816.895   101006751.902          51.000  
 22  1  8 21 59 59.0010000  0  9G08G10G13G15G16G18G23G26G27
  23663553.995    23663551.171   124353076.259 0  96898503.149 0        43.000  
        42.000                                                  
  21451293.580    21451289.488   112726843.954 0  87839374.517 0        51.000  
        47.000                                                  
  25122533.917                   132019517.686 0                        34.000  
                                                                
  23864724.206    23864719.167   125409847.933 0  97721963.142 0        40.000  
        37.000                                                  
  21053262.237                   110634888.123 0                        49.000  
                                                                
  21808631.011    21808625.882   114604830.268 0  89302473.234 0        45.000  
        44.000                                                  
  20754386.067    20754381.028   109064950.518 0  84986280.719 0        47.000  
        49.000                                                  
  22287584.029    22287581.831   117121483.347 0  91263882.497 0        46.000  
        46.000                                                  
  21077020.247    21077016.709   110761079.059 0  86307337.222 0        49.000  
        48.000                                                  
 22  1  8 21 59 58.0000000  0  0
 22  1  8 21 59 59.0010000  0  6E02E04E09E11E25E30
  24706940.702                   129836089.548 0                        47.000  
                  24706939.397    99484797.837          52.000  
  27330498.743                   143622052.551 0                        39.000  
                  27330497.368   110048071.353          45.000  
  25089028.462                   131844246.723 0                        40.000  
                  25089029.141   101023514.056          46.000  
  25096879.932                   131884714.472 0                        38.000  
                  25096875.572   101054568.620          42.000  
  27897342.142                   146601394.262 0                        39.000  
                  27897342.124   112330944.313          43.000  
  25084713.844                   131821399.302 0                        47.000  
                  25084712.289   101006331.624          51.000  
 22  1  8 22  0  0.0010000  0  9G08G10G13G15G16G18G23G26G27
  23662960.064    23662957.294   124349954.813 0  96896070.846 0        43.000  
        43.000                                                  
  21450876.124    21450871.907   112724649.632 0  87837664.654 0        51.000  
        47.000                                                  
  25122607.466                   132019904.123 0                        34.000  
                                                                
  23864712.466    23864707.337   125409785.823 0  97721914.739 0        40.000  
        37.000                                                  
  21053435.817                   110635799.909 0                        49.000  
                                                                
  21809092.335    21809087.243   114607254.516 0  89304362.258 0        45.000  
        45.000                                                  
  20754388.801    20754383.654   109064964.714 0  84986291.800 0        47.000  
        49.000                                                  
  22288152.407    22288150.084   117124470.225 0  91266209.916 0        45.000  
        45.000                                                  
  21076637.403    21076633.758   110759066.667 0  86305769.120 0        49.000  
        48.000                                                  
 22  1  8 21 59 59.0000000  0  0
 22  1  8 22  0  0.0010000  0  6E02E04E09E11E25E30
  24707348.902                   129838234.741 0                        47.000  
                  24707347.544    99486441.552          52.000  
  27330471.886                   143621911.251 0                        39.000  
                  27330470.457   110047963.098          45.000  
  25088587.902                   131841932.136 0                        40.000  
                  25088588.670   101021740.536          46.000  
  25097303.661                   131886941.340 0                        38.000  
                  25097299.229   101056274.921          42.000  
  27897958.819                   146604635.157 0                        39.000  
                  27897958.927   112333427.583          43.000  
  25084609.596                   131820851.384 0                        47.000  
                  25084608.059   101005911.787          51.000  
 22  1  8 22  0  1.0010000  0  9G08G10G13G15G16G18G23G26G27
  23662366.044    23662363.149   124346833.209 0  96893638.439 0        43.000  
        43.000                                                  
  21450458.614    21450454.397   112722455.572 0  87835955.003 0        50.000  
        47.000                                                  
  25122680.979                   132020290.966 0                        35.000  
                                                                
  23864700.744    23864695.472   125409724.149 0  97721866.653 0        40.000  
        37.000                                                  
  21053609.361                   110636712.126 0                        49.000  
                                                                
  21809553.696    21809548.567   114609678.754 0  89306251.268 0        45.000  
        45.000                                                  
  20754391.553    20754386.442   109064979.372 0  84986303.221 0        47.000  
        49.000                                                  
  22288720.802    22288718.533   117127457.185 0  91268537.429 0        45.000  
        46.000                                                  
  21076254.541    21076250.860   110757054.366 0  86304201.093 0        49.000  
        48.000                                                  
 22  1  8 22  0  0.0000000  0  0
 22  1  8 22  0  1.0010000  0  6E02E04E09E11E25E30
  24707757.048                   129840380.058 0                        47.000  
                  24707755.761    99488085.364          52.000  
  27330445.011                   143621770.195 0                        39.000  
                  27330443.743   110047855.007          45.000  
  25088147.377                   131839617.560 0                        40.000  
                  25088148.270   101019967.033          46.000  
  25097727.335                   131889167.982 0                        38.000  
                  25097722.939   101057981.061          42.000  
  27898575.640                   146607875.816 0                        39.000  
                  27898575.515   112335910.694          43.000  
  25084505.348                   131820303.711 0                        47.000  
                  25084503.901   101005492.145          51.000  
 22  1  8 22  0  2.0010000  0  9G08G10G13G15G16G18G23G26G27
  23661771.917    23661769.201   124343711.328 0  96891205.793 0        43.000  
        43.000                                                  
  21450040.818    21450036.887   112720261.614 0  87834245.425 0        50.000  
        47.000                                                  
  25122754.671                   132020678.037 0                        35.000  
                                                                
  23864689.147    23864683.768   125409662.711 0  97721818.794 0        40.000  
        37.000                                                  
  21053783.048                   110637624.610 0                        49.000  
                                                                
  21810015.020    21810009.927   114612102.788 0  89308140.132 0        45.000  
        45.000                                                  
  20754394.447    20754389.265   109064994.291 0  84986314.839 0        47.000  
        49.000                                                  
  22289289.288    22289287.000   117130444.099 0  91270864.883 0        45.000  
        45.000                                                  
  21075871.590    21075867.909   110755042.007 0  86302633.030 0        49.000  
        48.000                                                  
 22  1  8 22  0  1.0000000  0  0
 22  1  8 22  0  2.0010000  0  6E02E04E09E11E25E30
  24708165.266                   129842525.325 0                        47.000  
                  24708164.033    99489729.144          52.000  
  27330418.333                   143621629.215 0                        39.000  
                  27330416.957   110047746.973          45.000  
  25087707.066                   131837302.803 0                        40.000  
                  25087707.852   101018193.394          46.000  
  25098151.188                   131891394.301 0                        38.000  
                  25098146.757   101059686.933          42.000  
  27899192.104                   146611116.077 0                        39.000  
                  27899192.175   112338393.488          43.000  
  25084401.154                   131819756.122 0                        47.000  
                  25084399.760   101005072.567          51.000  
 22  1  8 22  0  3.0010000  0  9G08G10G13G15G16G18G23G26G27
  23661177.951    23661175.288   124340589.982 0  96888773.591 0        43.000  
        42.000                                                  
  21449623.487    21449619.467   112718068.606 0  87832536.586 0        51.000  
        47.000                                                  
  25122828.488                   132021066.130 0                        34.000  
                                                                
  23864677.639    23864672.314   125409602.405 0  97721771.775 0        40.000  
        37.000                                                  
  21053956.913                   110638538.207 0                        49.000  
                                                                
  21810476.363    21810471.306   114614527.490 0  89310029.506 0        45.000  
        45.000                                                  
  20754397.467    20754392.392   109065010.316 0  84986327.326 0        47.000  
        49.000                                                  
  22289857.737    22289855.557   117133431.787 0  91273192.969 0        46.000  
        45.000                                                  
  21075488.800    21075485.155   110753030.448 0  86301065.582 0        49.000  
        48.000                                                  
 22  1  8 22  0  2.0000000  0  0
 22  1  8 22  0  3.0010000  0  6E02E04E09E11E25E30
  24708573.698                   129844671.392 0                        47.000  
                  24708572.411    99491373.534          52.000  
  27330391.762                   143621489.139 0                        39.000  
                  27330390.261   110047639.657          45.000  
  25087266.559                   131834988.753 0                        40.000  
                  25087267.434   101016420.288          46.000  
  25098574.952                   131893621.072 0                        38.000  
                  25098570.431   101061393.155          42.000  
  27899808.960                   146614356.777 0                        39.000  
                  27899808.924   112340876.643          43.000  
  25084297.067                   131819209.466 0                        47.000  
                  25084295.619   101004653.701          51.000  
 22  1  8 22  0  4.0010000  0  9G08G10G13G15G16G18G23G26G27
  23660584.056    23660581.393   124337468.964 0  96886341.620 0        43.000  
        42.000                                                  
  21449206.389    21449202.332   112715876.301 0  87830828.300 0        51.000  
        47.000                                                  
  25122902.465                   132021455.094 0                        34.000  
                                                                
  23864666.310    23864661.057   125409542.906 0  97721725.433 0        40.000  
        37.000                                                  
  21054130.922                   110639452.663 0                        49.000  
                                                                
  21810937.776    21810932.809   114616952.606 0  89311919.212 0        45.000  
        45.000                                                  
  20754400.630    20754395.519   109065027.224 0  84986340.493 0        47.000  
        49.000                                                  
  22290426.383    22290424.203   117136420.038 0  91275521.461 0        46.000  
        45.000                                                  
  21075106.188    21075102.454   110751019.412 0  86299498.547 0        49.000  
        48.000                                                  
 22  1  8 22  0  3.0000000  0  0
 22  1  8 22  0  4.0010000  0  6E02E04E09E11E25E30
  24708982.041                   129846818.027 0                        47.000  
                  24708980.844    99493018.362          52.000  
  27330365.226                   143621349.756 0                        39.000  
                  27330363.689   110047532.859          45.000  
  25086826.105                   131832675.131 0                        40.000  
                  25086827.142   101014647.533          46.000  
  25098998.805                   131895848.069 0                        38.000  
                  25098994.231   101063099.558          42.000  
  27900425.584                   146617597.702 0                        39.000  
                  27900425.495   112343359.929          43.000  
  25084193.105                   131818663.509 0                        47.000  
                  25084191.765   101004235.366          51.000  
 22  1  8 22  0  5.0010000  0  9G08G10G13G15G16G18G23G26G27
  23659990.054    23659987.534   124334347.676 0  96883909.446 0        43.000  
        42.000                                                  
  21448789.558    21448785.287   112713684.133 0  87829120.118 0        51.000  
        47.000                                                  
  25122976.479                   132021844.287 0                        34.000  
                                                                
  23864655.070    23864649.745   125409483.748 0  97721679.347 0        40.000  
        37.000                                                  
  21054304.948                   110640367.422 0                        49.000  
                                                                
  21811399.172    21811394.205   114619377.573 0  89313808.798 0        45.000  
        45.000                                                  
  20754403.972    20754398.736   109065044.429 0  84986353.903 0        47.000  
        49.000                                                  
  22290995.029    22290992.831   117139408.258 0  91277849.941 0        46.000  
        45.000                                                  
  21074723.452    21074719.771   110749008.367 0  86297931.488 0        49.000  
        48.000                                                  
 22  1  8 22  0  4.0000000  0  0
 22  1  8 22  0  5.0010000  0  6E02E04E09E11E25E30
  24709390.545                   129848964.655 0                        47.000  
                  24709389.365    99494663.172          52.000  
  27330338.726                   143621210.475 0                        39.000  
                  27330337.297   110047426.124          45.000  
  25086385.848                   131830361.421 0                        40.000  
                  25086386.920   101012874.671          46.000  
  25099422.373                   131898074.734 0                        38.000  
                  25099417.834   101064805.704          42.000  
  27901042.369                   146620838.243 0                        39.000  
                  27901042.191   112345842.927          43.000  
  25084089.375                   131818117.667 0                        47.000  
                  25084087.928   101003817.122          51.000  
 22  1  8 22  0  6.0010000  0  9G08G10G13G15G16G18G23G26G27
  23659396.105    23659393.550   124331226.268 0  96881477.180 0        43.000  
        43.000                                                  
  21448372.424    21448368.278   112711492.287 0  87827412.186 0        51.000  
        47.000                                                  
  25123050.618                   132022233.943 0                        34.000  
                                                                
  23864643.992    23864638.524   125409425.050 0  97721633.595 0        40.000  
        37.000                                                  
  21054479.117                   110641282.659 0                        49.000  
                                                                
  21811860.658    21811855.672   114621802.575 0  89315698.399 0        45.000  
        45.000                                                  
  20754407.295    20754402.113   109065062.118 0  84986367.680 0        47.000  
        49.000                                                  
  22291563.710    22291561.477   117142396.621 0  91280178.543 0        46.000  
        45.000                                                  
  21074340.822    21074337.141   110746997.480 0  86296364.556 0        49.000  
        48.000                                                  
 22  1  8 22  0  5.0000000  0  0
 22  1  8 22  0  6.0010000  0  6E02E04E09E11E25E30
  24709799.263                   129851111.447 0                        47.000  
                  24709797.887    99496308.117          52.000  
  27330312.334                   143621071.468 0                        39.000  
                  27330310.797   110047319.612          45.000  
  25085945.663                   131828047.738 0                        40.000  
                  25085946.610   101011101.853          46.000  
  25099846.012                   131900301.252 0                        38.000  
                  25099841.455   101066511.729          42.000  
  27901659.029                   146624078.575 0                        39.000  
                  27901658.886   112348325.798          43.000  
  25083985.520                   131817572.121 0                        47.000  
                  25083984.091   101003399.107          51.000  
 22  1  8 22  0  7.0010000  0  9G08G10G13G15G16G18G23G26G27
  23658802.175    23658799.709   124328105.403 0  96879045.334 0        43.000  
        42.000                                                  
  21447955.396    21447951.322   112709301.349 0  87825704.948 0        51.000  
        47.000                                                  
  25123125.042                   132022624.592 0                        35.000  
                                                                
  23864633.074    23864627.463   125409367.417 0  97721588.684 0        40.000  
        37.000                                                  
  21054653.501                   110642198.978 0                        49.000  
                                                                
  21812322.179    21812317.336   114624228.193 0  89317588.486 0        45.000  
        45.000                                                  
  20754410.833    20754405.687   109065080.877 0  84986382.298 0        47.000  
        49.000                                                  
  22292132.571    22292130.301   117145385.744 0  91282507.734 0        46.000  
        45.000                                                  
  21073958.443    21073954.655   110744987.339 0  86294798.220 0        49.000  
        48.000                                                  
 22  1  8 22  0  6.0000000  0  0
 22  1  8 22  0  7.0010000  0  6E02E04E09E11E25E30
  24710207.892                   129853259.023 0                        47.000  
                  24710206.462    99497953.657          52.000  
  27330286.120                   143620933.346 0                        39.000  
                  27330284.530   110047213.790          45.000  
  25085505.710                   131825734.732 0                        40.000  
                  25085506.407   101009329.545          46.000  
  25100269.543                   131902528.200 0                        38.000  
                  25100265.255   101068218.102          42.000  
  27902275.618                   146627319.348 0                        39.000  
                  27902275.689   112350808.976          43.000  
  25083881.862                   131817027.478 0                        47.000  
                  25083880.540   101002981.785          51.000  
 22  1  8 22  0  8.0010000  0  9G08G10G13G15G16G18G23G26G27
  23658208.244    23658205.814   124324984.567 0  96876613.512 0        43.000  
        42.000                                                  
  21447538.405    21447534.456   112707110.851 0  87823998.071 0        51.000  
        47.000                                                  
  25123199.609                   132023015.760 0                        35.000  
                                                                
  23864622.263    23864616.652   125409310.375 0  97721544.242 0        40.000  
        37.000                                                  
  21054827.939                   110643115.885 0                        49.000  
                                                                
  21812783.736    21812778.947   114626653.958 0  89319478.690 0        45.000  
        45.000                                                  
  20754414.532    20754409.243   109065100.239 0  84986397.390 0        47.000  
        49.000                                                  
  22292701.431    22292699.126   117148375.137 0  91284837.125 0        46.000  
        45.000                                                  
  21073575.885    21073572.169   110742977.471 0  86293232.098 0        49.000  
        48.000                                                  
 22  1  8 22  0  7.0000000  0  0
 22  1  8 22  0  8.0010000  0  6E02E04E09E11E25E30
  24710616.431                   129855406.878 0                        47.000  
                  24710615.162    99499599.423          52.000  
  27330259.870                   143620795.644 0                        39.000  
                  27330258.387   110047108.269          45.000  
  25085065.560                   131823421.876 0                        40.000  
                  25085066.328   101007557.366          46.000  
  25100693.325                   131904755.135 0                        38.000  
                  25100689.001   101069924.457          42.000  
  27902892.332                   146630560.032 0                        39.000  
                  27902892.189   112353292.104          43.000  
  25083778.383                   131816483.247 0                        47.000  
                  25083776.864   101002564.779          51.000  
 22  1  8 22  0  9.0010000  0  9G08G10G13G15G16G18G23G26G27
  23657614.349    23657611.883   124321863.547 0  96874181.559 0        43.000  
        43.000                                                  
  21447121.717    21447117.750   112704920.608 0  87822291.388 0        51.000  
        47.000                                                  
  25123274.070                   132023407.359 0                        35.000  
                                                                
  23864611.434    23864605.841   125409253.716 0  97721500.106 0        40.000  
        37.000                                                  
  21055002.591                   110644033.211 0                        49.000  
                                                                
  21813245.382    21813240.629   114629079.693 0  89321368.874 0        45.000  
        45.000                                                  
  20754418.213    20754413.013   109065120.017 0  84986412.803 0        47.000  
        49.000                                                  
  22293270.327    22293267.897   117151364.638 0  91287166.611 0        46.000  
        45.000                                                  
  21073193.435    21073189.718   110740967.702 0  86291666.026 0        49.000  
        48.000                                                  
 22  1  8 22  0  8.0000000  0  0
 22  1  8 22  0  9.0010000  0  6E02E04E09E11E25E30
  24711025.239                   129857554.842 0                        47.000  
                  24711024.006    99501245.263          52.000  
  27330233.478                   143620658.153 0                        39.000  
                  27330232.191   110047002.926          45.000  
  25084625.714                   131821109.032 0                        40.000  
                  25084626.250   101005785.187          46.000  
  25101116.982                   131906981.865 0                        38.000  
                  25101112.747   101071630.639          42.000  
  27903509.170                   146633800.494 0                        39.000  
                  27903508.795   112355775.037          43.000  
  25083674.635                   131815939.253 0                        47.000  
                  25083673.402   101002147.952          51.000  
 22  1  8 22  0 10.0010000  0  9G08G10G13G15G16G18G23G26G27
  23657020.454    23657018.042   124318742.714 0  96871749.746 0        43.000  
        43.000                                                  
  21446705.190    21446701.027   112702730.937 0  87820585.158 0        51.000  
        47.000                                                  
  25123348.959                   132023799.662 0                        35.000  
                                                                
  23864600.749    23864595.245   125409197.833 0  97721456.559 0        40.000  
        37.000                                                  
  21055177.278                   110644951.274 0                        49.000  
                                                                
  21813706.975    21813702.239   114631505.713 0  89323259.277 0        45.000  
        45.000                                                  
  20754422.019    20754416.944   109065140.552 0  84986428.803 0        47.000  
        49.000                                                  
  22293839.223    22293836.865   117154354.545 0  91289496.394 0        46.000  
        45.000                                                  
  21072811.055    21072807.392   110738958.339 0  86290100.304 0        49.000  
        48.000                                                  
 22  1  8 22  0  9.0000000  0  0
 22  1  8 22  0 10.0010000  0  6E02E04E09E11E25E30
  24711434.118                   129859703.242 0                        47.000  
                  24711432.724    99502891.440          52.000  
  27330207.639                   143620521.212 0                        39.000  
                  27330206.228   110046897.998          45.000  
  25084185.636                   131818796.510 0                        40.000  
                  25084186.243   101004013.248          46.000  
  25101540.620                   131909208.677 0                        38.000  
                  25101536.457   101073336.898          42.000  
  27904125.669                   146637041.005 0                        39.000  
                  27904125.509   112358258.040          43.000  
  25083571.334                   131815395.819 0                        47.000  
                  25083569.994   101001731.558          51.000  
 22  1  8 22  0 11.0010000  0  9G08G10G13G15G16G18G23G26G27
  23656426.667    23656424.183   124315622.242 0  96869318.200 0        43.000  
        43.000                                                  
  21446288.842    21446284.392   112700542.041 0  87818879.522 0        51.000  
        47.000                                                  
  25123423.830                   132024192.776 0                        35.000  
                                                                
  23864590.224    23864584.809   125409142.847 0  97721413.719 0        39.000  
        37.000                                                  
  21055352.198                   110645870.261 0                        49.000  
                                                                
  21814168.710    21814164.046   114633932.205 0  89325150.052 0        45.000  
        45.000                                                  
  20754426.111    20754421.179   109065162.003 0  84986445.513 0        47.000  
        49.000                                                  
  22294408.334    22294405.957   117157345.047 0  91291826.663 0        46.000  
        45.000                                                  
  21072428.712    21072425.156   110736949.583 0  86288535.035 0        49.000  
        48.000                                                  
 22  1  8 22  0 10.0000000  0  0
 22  1  8 22  0 11.0010000  0  6E02E04E09E11E25E30
  24711842.818                   129861852.259 0                        47.000  
                  24711841.674    99504538.087          52.000  
  27330181.425                   143620385.018 0                        39.000  
                  27330180.389   110046793.638          45.000  
  25083745.736                   131816484.491 0                        40.000  
                  25083746.290   101002241.700          46.000  
  25101964.331                   131911435.768 0                        38.000  
                  25101960.310   101075043.372          42.000  
  27904742.311                   146640281.775 0                        38.000  
                  27904742.169   112360741.234          43.000  
  25083467.962                   131814853.131 0                        47.000  
                  25083466.711   101001315.729          51.000  
 22  1  8 22  0 12.0010000  0  9G08G10G13G15G16G18G23G26G27
  23655832.968    23655830.360   124312501.911 0  96866886.774 0        43.000  
        43.000                                                  
  21445872.386    21445867.937   112698353.673 0  87817174.296 0        51.000  
        47.000                                                  
  25123498.862                   132024586.576 0                        36.000  
                                                                
  23864579.913    23864574.535   125409088.545 0  97721371.402 0        39.000  
        37.000                                                  
  21055527.243                   110646789.937 0                        49.000  
                                                                
  21814630.517    21814625.871   114636358.947 0  89327041.022 0        45.000  
        45.000                                                  
  20754430.346    20754425.396   109065184.147 0  84986462.784 0        47.000  
        49.000                                                  
  22294977.480    22294975.032   117160335.919 0  91294157.215 0        46.000  
        45.000                                                  
  21072046.619    21072042.955   110734941.208 0  86286970.072 0        49.000  
        48.000                                                  
 22  1  8 22  0 11.0000000  0  0
 22  1  8 22  0 12.0010000  0  6E02E04E09E11E25E30
  24712251.876                   129864001.661 0                        47.000  
                  24712250.696    99506185.033          52.000  
  27330155.640                   143620249.323 0                        39.000  
                  27330154.407   110046689.666          45.000  
  25083305.872                   131814172.732 0                        40.000  
                  25083306.301   101000470.355          46.000  
  25102388.166                   131913662.926 0                        37.000  
                  25102384.235   101076749.903          42.000  
  27905359.239                   146643522.579 0                        38.000  
                  27905358.900   112363224.439          43.000  
  25083364.840                   131814310.977 0                        47.000  
                  25083363.482   101000900.306          51.000  
 22  1  8 22  0 13.0010000  0  9G08G10G13G15G16G18G23G26G27
  23655239.127    23655236.608   124309381.363 0  96864455.185 0        43.000  
        42.000                                                  
  21445455.806    21445451.625   112696165.502 0  87815469.232 0        51.000  
        46.000                                                  
  25123573.787                   132024980.678 0                        36.000  
                                                                
  23864569.639    23864564.314   125409034.613 0  97721329.376 0        39.000  
        36.000                                                  
  21055702.306                   110647709.981 0                        48.000  
                                                                
  21815092.378    21815087.625   114638785.595 0  89328931.910 0        45.000  
        44.000                                                  
  20754434.706    20754429.649   109065206.666 0  84986480.319 0        47.000  
        48.000                                                  
  22295546.662    22295544.285   117163326.826 0  91296487.792 0        46.000  
        45.000                                                  
  21071664.311    21071660.773   110732932.866 0  86285405.126 0        49.000  
        48.000                                                  
 22  1  8 22  0 12.0000000  0  0
 22  1  8 22  0 13.0010000  0  6E02E04E09E11E25E30
  24712660.933                   129866151.123 0                        47.000  
                  24712659.700    99507832.024          52.000  
  27330130.016                   143620113.778 0                        39.000  
                  27330128.587   110046585.811          45.000  
  25082865.865                   131811860.921 0                        40.000  
                  25082866.312   100998698.970          46.000  
  25102812.109                   131915889.847 0                        38.000  
                  25102807.981   101078456.231          42.000  
  27905975.917                   146646763.082 0                        38.000  
                  27905975.542   112365707.422          43.000  
  25083261.610                   131813768.979 0                        47.000  
                  25083260.449   101000485.017          51.000  
 22  1  8 22  0 14.0010000  0  9G08G10G13G15G16G18G23G26G27
  23654645.340    23654642.909   124306260.785 0  96862023.556 0        43.000  
        42.000                                                  
  21445039.350    21445035.223   112693977.695 0  87813764.442 0        51.000  
        46.000                                                  
  25123648.801                   132025375.279 0                        36.000  
                                                                
  23864559.292    23864554.200   125408981.182 0  97721287.747 0        39.000  
        36.000                                                  
  21055877.476                   110648630.541 0                        49.000  
                                                                
  21815554.113    21815549.325   114641212.308 0  89330822.862 0        45.000  
        44.000                                                  
  20754439.084    20754433.920   109065229.707 0  84986498.267 0        47.000  
        48.000                                                  
  22296115.826    22296113.503   117166317.924 0  91298818.517 0        46.000  
        45.000                                                  
  21071282.182    21071278.715   110730924.723 0  86283840.332 0        49.000  
        48.000                                                  
 22  1  8 22  0 13.0000000  0  0
 22  1  8 22  0 14.0010000  0  6E02E04E09E11E25E30
  24713069.937                   129868300.792 0                        47.000  
                  24713068.794    99509479.168          52.000  
  27330104.213                   143619978.582 0                        39.000  
                  27330102.963   110046482.199          45.000  
  25082426.055                   131809549.212 0                        40.000  
                  25082426.484   100996927.654          46.000  
  25103235.819                   131918116.632 0                        38.000  
                  25103231.691   101080162.461          42.000  
  27906592.542                   146650003.423 0                        39.000  
                  27906592.148   112368190.271          43.000  
  25083158.685                   131813227.335 0                        47.000  
                  25083157.291   101000069.987          51.000  
 22  1  8 22  0 15.0010000  0  9G08G10G13G15G16G18G23G26G27
  23654051.480    23654049.193   124303140.369 0  96859592.066 0        43.000  
        42.000                                                  
  21444623.020    21444619.053   112691790.474 0  87812060.117 0        51.000  
        46.000                                                  
  25123723.994                   132025770.599 0                        36.000  
                                                                
  23864549.214    23864544.265   125408928.497 0  97721246.723 0        39.000  
        37.000                                                  
  21056052.807                   110649551.849 0                        49.000  
                                                                
  21816015.956    21816011.060   114643639.326 0  89332714.037 0        45.000  
        44.000                                                  
  20754443.605    20754438.494   109065253.493 0  84986516.811 0        47.000  
        48.000                                                  
  22296685.062    22296682.685   117169309.454 0  91301149.579 0        46.000  
        44.000                                                  
  21070900.106    21070896.675   110728917.000 0  86282275.882 0        49.000  
        48.000                                                  
 22  1  8 22  0 14.0000000  0  0
 22  1  8 22  0 15.0010000  0  6E02E04E09E11E25E30
  24713479.013                   129870450.894 0                        47.000  
                  24713477.869    99511126.656          52.000  
  27330078.464                   143619843.929 0                        39.000  
                  27330077.213   110046379.035          45.000  
  25081986.209                   131807237.824 0                        40.000  
                  25081986.602   100995156.596          46.000  
  25103659.601                   131920343.532 0                        37.000  
                  25103655.330   101081868.798          42.000  
  27907208.987                   146653243.864 0                        39.000  
                  27907208.826   112370673.222          43.000  
  25083055.777                   131812686.261 0                        47.000  
                  25083054.258   100999655.400          51.000  
 22  1  8 22  0 16.0010000  0  9G08G10G13G15G16G18G23G26G27
  23653457.729    23653455.584   124300020.452 0  96857160.957 0        43.000  
        43.000                                                  
  21444207.172    21444202.973   112689604.125 0  87810356.473 0        51.000  
        47.000                                                  
  25123799.455                   132026166.914 0                        36.000  
                                                                
  23864539.368    23864534.437   125408876.871 0  97721206.468 0        39.000  
        37.000                                                  
  21056228.298                   110650474.196 0                        49.000  
                                                                
  21816477.853    21816473.010   114646066.930 0  89334605.675 0        45.000  
        45.000                                                  
  20754448.322    20754443.230   109065278.322 0  84986536.158 0        47.000  
        49.000                                                  
  22297254.565    22297252.046   117172301.684 0  91303481.197 0        46.000  
        45.000                                                  
  21070518.227    21070514.671   110726909.998 0  86280711.985 0        49.000  
        48.000                                                  
 22  1  8 22  0 15.0000000  0  0
 22  1  8 22  0 16.0010000  0  6E02E04E09E11E25E30
  24713888.446                   129872601.745 0                        47.000  
                  24713887.177    99512774.704          52.000  
  27330053.090                   143619710.124 0                        39.000  
                  27330051.768   110046276.520          45.000  
  25081546.595                   131804927.045 0                        40.000  
                  25081546.899   100993386.011          46.000  
  25104083.525                   131922570.843 0                        37.000  
                  25104079.308   101083575.436          42.000  
  27907825.862                   146656484.675 0                        39.000  
                  27907825.504   112373156.423          43.000  
  25082952.905                   131812146.041 0                        47.000  
                  25082951.529   100999241.465          51.000  
 22  1  8 22  0 17.0010000  0  9G08G10G13G15G16G18G23G26G27
  23652864.138    23652861.832   124296900.587 0  96854729.907 0        43.000  
        43.000                                                  
  21443791.289    21443786.982   112687418.263 0  87808653.197 0        51.000  
        47.000                                                  
  25123874.969                   132026563.795 0                        36.000  
                                                                
  23864529.666    23864524.662   125408825.862 0  97721166.714 0        39.000  
        37.000                                                  
  21056404.004                   110651397.171 0                        49.000  
                                                                
  21816939.928    21816935.032   114648494.714 0  89336497.459 0        45.000  
        45.000                                                  
  20754453.165    20754448.126   109065303.796 0  84986556.005 0        47.000  
        49.000                                                  
  22297824.015    22297821.532   117175294.273 0  91305813.061 0        46.000  
        45.000                                                  
  21070136.384    21070132.882   110724903.296 0  86279148.327 0        49.000  
        48.000                                                  
 22  1  8 22  0 16.0000000  0  0
 22  1  8 22  0 17.0010000  0  6E02E04E09E11E25E30
  24714297.968                   129874752.916 0                        47.000  
                  24714296.521    99514423.004          52.000  
  27330027.680                   143619576.774 0                        39.000  
                  27330026.483   110046174.341          45.000  
  25081106.910                   131802616.511 0                        40.000  
                  25081107.214   100991615.586          46.000  
  25104507.486                   131924798.166 0                        37.000  
                  25104503.161   101085282.073          42.000  
  27908442.682                   146659725.447 0                        39.000  
                  27908442.307   112375639.615          43.000  
  25082850.319                   131811606.287 0                        47.000  
                  25082848.872   100998827.884          51.000  
 22  1  8 22  0 18.0010000  0  9G08G10G13G15G16G18G23G26G27
  23652270.368    23652268.116   124293780.409 0  96852298.602 0        43.000  
        43.000                                                  
  21443375.673    21443371.098   112685232.495 0  87806950.006 0        51.000  
        47.000                                                  
  25123950.502                   132026960.897 0                        35.000  
                                                                
  23864520.052    23864514.959   125408775.099 0  97721127.201 0        39.000  
        37.000                                                  
  21056579.746                   110652320.425 0                        49.000  
                                                                
  21817401.895    21817396.982   114650922.321 0  89338389.106 0        45.000  
        45.000                                                  
  20754458.079    20754452.986   109065329.534 0  84986576.065 0        47.000  
        49.000                                                  
  22298393.448    22298390.946   117178286.756 0  91308144.889 0        46.000  
        45.000                                                  
  21069754.470    21069750.985   110722896.562 0  86277584.641 0        49.000  
        48.000                                                  
 22  1  8 22  0 17.0000000  0  0
 22  1  8 22  0 18.0010000  0  6E02E04E09E11E25E30
  24714707.187                   129876904.052 0                        47.000  
                  24714705.828    99516071.274          52.000  
  27330002.271                   143619443.509 0                        39.000  
                  27330001.055   110046072.217          45.000  
  25080667.189                   131800305.788 0                        40.000  
                  25080667.404   100989845.054          46.000  
  25104931.089                   131927025.095 0                        38.000  
                  25104926.836   101086988.437          42.000  
  27909059.324                   146662965.833 0                        38.000  
                  27909058.842   112378122.512          43.000  
  25082747.554                   131811066.619 0                        47.000  
                  25082746.214   100998414.373          51.000  
 22  1  8 22  0 19.0010000  0  9G08G10G13G15G16G18G23G26G27
  23651676.669    23651674.400   124290660.448 0  96849867.463 0        43.000  
        43.000                                                  
  21442959.914    21442955.322   112683047.379 0  87805247.327 0        51.000  
        47.000                                                  
  25124026.141                   132027358.767 0                        35.000  
                                                                
  23864510.492    23864505.453   125408725.157 0  97721088.256 0        39.000  
        37.000                                                  
  21056755.613                   110653244.477 0                        49.000  
                                                                
  21817863.988    21817859.092   114653350.284 0  89340281.016 0        45.000  
        45.000                                                  
  20754463.082    20754458.007   109065356.085 0  84986596.755 0        47.000  
        49.000                                                  
  22298962.969    22298960.485   117181279.735 0  91310477.076 0        46.000  
        45.000                                                  
  21069372.716    21069369.124   110720890.306 0  86276021.315 0        49.000  
        48.000                                                  
 22  1  8 22  0 18.0000000  0  0
 22  1  8 22  0 19.0010000  0  6E02E04E09E11E25E30
  24715116.691                   129879055.674 0                        47.000  
                  24715115.386    99517719.929          52.000  
  27329977.075                   143619310.843 0                        39.000  
                  27329975.735   110045970.564          45.000  
  25080227.629                   131797995.491 0                        40.000  
                  25080227.844   100988074.815          46.000  
  25105354.817                   131929252.221 0                        37.000  
                  25105350.707   101088694.936          42.000  
  27909676.110                   146666206.362 0                        38.000  
                  27909675.556   112380605.503          43.000  
  25082644.879                   131810527.572 0                        47.000  
                  25082643.592   100998001.345          51.000  
 22  1  8 22  0 20.0010000  0  9G08G10G13G15G16G18G23G26G27
  23651083.168    23651080.881   124287541.226 0  96847436.891 0        43.000  
        43.000                                                  
  21442544.120    21442539.778   112680863.407 0  87803545.526 0        51.000  
        47.000                                                  
  25124101.942                   132027757.907 0                        35.000  
                                                                
  23864501.200    23864496.197   125408676.501 0  97721050.347 0        39.000  
        37.000                                                  
  21056931.677                   110654169.840 0                        49.000  
                                                                
  21818326.171    21818321.328   114655779.086 0  89342173.591 0        45.000  
        45.000                                                  
  20754468.371    20754463.243   109065383.924 0  84986618.456 0        47.000  
        49.000                                                  
  22299532.723    22299530.132   117184273.676 0  91312810.013 0        46.000  
        45.000                                                  
  21068991.105    21068987.495   110718885.021 0  86274458.760 0        49.000  
        48.000                                                  
 22  1  8 22  0 19.0000000  0  0
 22  1  8 22  0 20.0010000  0  6E02E04E09E11E25E30
  24715526.160                   129881208.301 0                        47.000  
                  24715524.962    99519369.340          52.000  
  27329952.166                   143619179.277 0                        39.000  
                  27329950.790   110045869.771          45.000  
  25079788.248                   131795686.045 0                        40.000  
                  25079788.337   100986305.231          46.000  
  25105778.831                   131931479.999 0                        37.000  
                  25105774.614   101090401.937          42.000  
  27910292.752                   146669447.483 0                        38.000  
                  27910292.394   112383088.980          43.000  
  25082542.454                   131809989.661 0                        47.000  
                  25082541.257   100997589.172          51.000  
 22  1  8 22  0 21.0010000  0  9G08G10G13G15G16G18G23G26G27
  23650489.487    23650487.129   124284421.235 0  96845005.734 0        43.000  
        43.000                                                  
  21442128.344    21442124.091   112678679.053 0  87801843.432 0        51.000  
        47.000                                                  
  25124177.653                   132028156.808 0                        36.000  
                                                                
  23864491.944    23864486.923   125408627.625 0  97721012.257 0        39.000  
        37.000                                                  
  21057107.651                   110655094.975 0                        49.000  
                                                                
  21818788.282    21818783.332   114658207.233 0  89344065.654 0        45.000  
        45.000                                                  
  20754473.536    20754468.532   109065411.575 0  84986639.996 0        47.000  
        49.000                                                  
  22300102.441    22300099.725   117187267.089 0  91315142.556 0        46.000  
        45.000                                                  
  21068609.387    21068605.724   110716879.206 0  86272895.789 0        49.000  
        48.000                                                  
 22  1  8 22  0 20.0000000  0  0
 22  1  8 22  0 21.0010000  0  6E02E04E09E11E25E30
  24715935.735                   129883360.396 0                        47.000  
                  24715934.520    99521018.348          52.000  
  27329927.096                   143619047.306 0                        39.000  
                  27329925.720   110045768.646          45.000  
  25079348.384                   131793375.971 0                        40.000  
                  25079348.652   100984535.188          46.000  
  25106202.523                   131933706.937 0                        37.000  
                  25106198.342   101092108.301          42.000  
  27910909.501                   146672687.775 0                        38.000  
                  27910908.911   112385571.792          43.000  
  25082439.957                   131809451.346 0                        47.000  
                  25082438.831   100997176.701          51.000  
 22  1  8 22  0 22.0010000  0  9G08G10G13G15G16G18G23G26G27
  23649895.700    23649893.252   124281301.288 0  96842574.612 0        43.000  
        43.000                                                  
  21441712.531    21441708.529   112676495.155 0  87800141.693 0        51.000  
        47.000                                                  
  25124253.560                   132028556.227 0                        36.000  
                                                                
  23864482.581    23864477.702   125408579.345 0  97720974.641 0        39.000  
        37.000                                                  
  21057283.786                   110656020.741 0                        49.000  
                                                                
  21819250.339    21819245.300   114660635.542 0  89345957.843 0        45.000  
        45.000                                                  
  20754478.861    20754473.893   109065439.837 0  84986662.014 0        47.000  
        49.000                                                  
  22300672.088    22300669.354   117190260.799 0  91317475.301 0        46.000  
        45.000                                                  
  21068227.758    21068224.041   110714873.680 0  86271333.040 0        49.000  
        48.000                                                  
 22  1  8 22  0 21.0000000  0  0
 22  1  8 22  0 22.0010000  0  6E02E04E09E11E25E30
  24716345.240                   129885512.802 0                        47.000  
                  24716344.114    99522667.596          52.000  
  27329901.829                   143618915.763 0                        39.000  
                  27329900.667   110045667.854          45.000  
  25078908.967                   131791066.090 0                        40.000  
                  25078909.253   100982765.272          46.000  
  25106626.341                   131935933.858 0                        38.000  
                  25106622.124   101093814.629          42.000  
  27911526.161                   146675927.984 0                        38.000  
                  27911525.482   112388054.554          43.000  
  25082337.746                   131808913.461 0                        47.000  
                  25082336.424   100996764.556          51.000  
 22  1  8 22  0 23.0010000  0  9G08G10G13G15G16G18G23G26G27
  23649302.126    23649299.625   124278181.876 0  96840143.898 0        43.000  
        43.000                                                  
  21441297.023    21441293.128   112674312.163 0  87798440.656 0        51.000  
        47.000                                                  
  25124329.504                   132028956.703 0                        35.000  
                                                                
  23864473.610    23864468.696   125408532.141 0  97720937.856 0        39.000  
        37.000                                                  
  21057460.099                   110656947.548 0                        49.000  
                                                                
  21819712.539    21819707.643   114663064.464 0  89347850.507 0        45.000  
        45.000                                                  
  20754484.346    20754479.468   109065469.167 0  84986684.868 0        47.000  
        49.000                                                  
  22301241.895    22301239.197   117193255.236 0  91319808.635 0        46.000  
        45.000                                                  
  21067846.237    21067842.609   110712868.895 0  86269770.869 0        49.000  
        48.000                                                  
 22  1  8 22  0 22.0000000  0  0
 22  1  8 22  0 23.0010000  0  6E02E04E09E11E25E30
  24716755.012                   129887665.974 0                        47.000  
                  24716753.869    99524317.423          52.000  
  27329876.884                   143618785.092 0                        39.000  
                  27329875.847   110045567.732          45.000  
  25078469.407                   131788756.870 0                        40.000  
                  25078469.818   100980995.866          46.000  
  25107050.105                   131938161.218 0                        38.000  
                  25107046.048   101095521.306          42.000  
  27912142.696                   146679168.610 0                        38.000  
                  27912142.303   112390537.615          44.000  
  25082235.518                   131808376.478 0                        47.000  
                  25082234.285   100996353.097          51.000  
 22  1  8 22  0 24.0010000  0  9G08G10G13G15G16G18G23G26G27
  23648708.625    23648706.052   124275062.751 0  96837713.409 0        43.000  
        43.000                                                  
  21440881.747    21440877.744   112672129.884 0  87796740.184 0        51.000  
        47.000                                                  
  25124405.733                   132029357.992 0                        35.000  
                                                                
  23864464.676    23864459.869   125408485.824 0  97720901.760 0        39.000  
        37.000                                                  
  21057636.645                   110657875.236 0                        49.000  
                                                                
  21820174.828    21820169.968   114665493.806 0  89349743.498 0        45.000  
        45.000                                                  
  20754490.154    20754485.204   109065499.362 0  84986708.402 0        47.000  
        49.000                                                  
  22301811.845    22301809.040   117196250.228 0  91322142.398 0        46.000  
        45.000                                                  
  21067464.858    21067461.213   110710864.658 0  86268209.126 0        49.000  
        48.000                                                  
 22  1  8 22  0 23.0000000  0  0
 22  1  8 22  0 24.0010000  0  6E02E04E09E11E25E30
  24717164.749                   129889819.701 0                        47.000  
                  24717163.677    99525967.681          52.000  
  27329852.296                   143618655.134 0                        39.000  
                  27329851.009   110045468.145          45.000  
  25078030.257                   131786448.081 0                        40.000  
                  25078030.418   100979226.796          46.000  
  25107474.172                   131940388.820 0                        38.000  
                  25107469.955   101097228.149          42.000  
  27912759.266                   146682409.429 0                        38.000  
                  27912758.945   112393020.843          44.000  
  25082133.503                   131807840.181 0                        47.000  
                  25082132.181   100995942.172          51.000  
 22  1  8 22  0 25.0010000  0  9G08G10G13G15G16G18G23G26G27
  23648114.998    23648112.407   124271943.365 0  96835282.737 0        43.000  
        43.000                                                  
  21440466.650    21440462.611   112669947.790 0  87795039.853 0        51.000  
        47.000                                                  
  25124482.159                   132029759.586 0                        35.000  
                                                                
  23864455.938    23864451.131   125408439.797 0  97720865.893 0        39.000  
        37.000                                                  
  21057813.334                   110658803.264 0                        49.000  
                                                                
  21820637.046    21820632.257   114667923.039 0  89351636.412 0        45.000  
        45.000                                                  
  20754495.961    20754491.065   109065529.921 0  84986732.212 0        47.000  
        49.000                                                  
  22302381.599    22302378.883   117199245.238 0  91324476.167 0        46.000  
        45.000                                                  
  21067083.515    21067079.906   110708860.438 0  86266647.397 0        49.000  
        48.000                                                  
 22  1  8 22  0 24.0000000  0  0
 22  1  8 22  0 25.0010000  0  6E02E04E09E11E25E30
  24717574.736                   129891973.463 0                        47.000  
                  24717573.503    99527617.972          52.000  
  27329827.494                   143618525.291 0                        39.000  
                  27329826.386   110045368.663          45.000  
  25077591.019                   131784139.213 0                        40.000  
                  25077590.965   100977457.679          46.000  
  25107898.169                   131942616.113 0                        37.000  
                  25107893.791   101098934.795          42.000  
  27913376.087                   146685649.920 0                        38.000  
                  27913375.676   112395503.825          43.000  
  25082031.578                   131807304.048 0                        47.000  
                  25082030.167   100995531.372          51.000  
 22  1  8 22  0 26.0010000  0  9G08G10G13G15G16G18G23G26G27
  23647521.318    23647518.744   124268823.949 0  96832852.012 0        43.000  
        43.000                                                  
  21440051.499    21440047.442   112667766.025 0  87793339.771 0        50.000  
        47.000                                                  
  25124558.406                   132030161.652 0                        35.000  
                                                                
  23864447.218    23864442.572   125408394.275 0  97720830.417 0        39.000  
        37.000                                                  
  21057990.023                   110659731.773 0                        49.000  
                                                                
  21821099.318    21821094.583   114670352.305 0  89353529.353 0        45.000  
        45.000                                                  
  20754501.840    20754496.908   109065560.953 0  84986756.397 0        47.000  
        49.000                                                  
  22302951.496    22302948.851   117202240.397 0  91326810.059 0        46.000  
        45.000                                                  
  21066702.119    21066698.491   110706856.395 0  86265085.807 0        49.000  
        48.000                                                  
 22  1  8 22  0 25.0000000  0  0
 22  1  8 22  0 26.0010000  0  6E02E04E09E11E25E30
  24717984.473                   129894127.418 0                        47.000  
                  24717983.418    99529268.399          52.000  
  27329802.995                   143618395.752 0                        39.000  
                  27329801.673   110045269.407          45.000  
  25077151.602                   131781830.427 0                        40.000  
                  25077151.727   100975688.605          46.000  
  25108322.022                   131944843.271 0                        38.000  
                  25108317.608   101100641.314          42.000  
  27913992.747                   146688890.244 0                        38.000  
                  27913992.354   112397986.666          44.000  
  25081929.671                   131806768.224 0                        47.000  
                  25081928.260   100995120.805          51.000  
 22  1  8 22  0 27.0010000  0  9G08G10G13G15G16G18G23G26G27
  23646927.798    23646925.189   124265704.898 0  96830421.580 0        43.000  
        43.000                                                  
  21439636.562    21439632.309   112665585.034 0  87791640.305 0        50.000  
        47.000                                                  
  25124634.974                   132030564.593 0                        35.000  
                                                                
  23864438.659    23864434.084   125408349.665 0  97720795.649 0        39.000  
        37.000                                                  
  21058166.926                   110660661.231 0                        49.000  
                                                                
  21821561.786    21821557.104   114672782.081 0  89355422.667 0        45.000  
        45.000                                                  
  20754507.951    20754503.002   109065592.942 0  84986781.321 0        47.000  
        49.000                                                  
  22303521.589    22303518.998   117205236.179 0  91329144.432 0        45.000  
        45.000                                                  
  21066320.758    21066317.220   110704852.973 0  86263524.695 0        49.000  
        48.000                                                  
 22  1  8 22  0 26.0000000  0  0
 22  1  8 22  0 27.0010000  0  6E02E04E09E11E25E30
  24718394.656                   129896281.993 0                        47.000  
                  24718393.405    99530919.309          52.000  
  27329778.372                   143618266.968 0                        39.000  
                  27329777.139   110045170.730          45.000  
  25076712.453                   131779522.164 0                        40.000  
                  25076712.471   100973919.933          46.000  
  25108745.911                   131947070.717 0                        38.000  
                  25108741.461   101102348.065          42.000  
  27914609.354                   146692130.840 0                        38.000  
                  27914608.818   112400469.730          44.000  
  25081827.854                   131806233.174 0                        47.000  
                  25081826.442   100994710.827          51.000  
 22  1  8 22  0 28.0010000  0  9G08G10G13G15G16G18G23G26G27
  23646334.368    23646331.830   124262586.594 0  96827991.735 0        43.000  
        43.000                                                  
  21439221.840    21439217.587   112663405.211 0  87789941.740 0        50.000  
        47.000                                                  
  25124711.883                   132030968.813 0                        35.000  
                                                                
  23864430.403    23864425.793   125408306.388 0  97720761.954 0        39.000  
        37.000                                                  
  21058344.044                   110661592.002 0                        49.000  
                                                                
  21822024.308    21822019.591   114675212.699 0  89357316.666 0        45.000  
        45.000                                                  
  20754514.223    20754509.417   109065626.242 0  84986807.273 0        47.000  
        49.000                                                  
  22304091.843    22304089.199   117208232.972 0  91331479.585 0        46.000  
        45.000                                                  
  21065939.683    21065936.306   110702850.544 0  86261964.364 0        49.000  
        48.000                                                  
 22  1  8 22  0 27.0000000  0  0
 22  1  8 22  0 28.0010000  0  6E02E04E09E11E25E30
  24718804.893                   129898437.586 0                        47.000  
                  24718803.571    99532571.004          52.000  
  27329754.141                   143618139.314 0                        39.000  
                  27329752.980   110045072.915          45.000  
  25076273.393                   131777214.786 0                        40.000  
                  25076273.375   100972151.954          46.000  
  25109169.835                   131949298.876 0                        38.000  
                  25109165.422   101104055.347          42.000  
  27915226.067                   146695372.085 0                        38.000  
                  27915225.746   112402953.286          43.000  
  25081726.161                   131805699.248 0                        47.000  
                  25081724.839   100994301.727          51.000  
 22  1  8 22  0 29.0010000  0  9G08G10G13G15G16G18G23G26G27
  23645740.866    23645738.436   124259467.666 0  96825561.417 0        43.000  
        43.000                                                  
  21438807.136    21438802.758   112661225.157 0  87788242.998 0        50.000  
        47.000                                                  
  25124788.845                   132031372.934 0                        35.000  
                                                                
  23864422.183    23864417.502   125408263.061 0  97720728.181 0        39.000  
        37.000                                                  
  21058521.233                   110662522.736 0                        49.000  
                                                                
  21822486.848    21822482.041   114677642.822 0  89359210.268 0        45.000  
        45.000                                                  
  20754520.567    20754515.760   109065659.510 0  84986833.196 0        47.000  
        49.000                                                  
  22304662.044    22304659.399   117211229.355 0  91333814.456 0        45.000  
        45.000                                                  
  21065558.537    21065555.142   110700847.748 0  86260403.739 0        48.000  
        48.000                                                  
 22  1  8 22  0 28.0000000  0  0
 22  1  8 22  0 29.0010000  0  6E02E04E09E11E25E30
  24719214.880                   129900592.818 0                        47.000  
                  24719213.736    99534222.411          52.000  
  27329729.804                   143618011.413 0                        39.000  
                  27329728.714   110044974.906          45.000  
  25075834.262                   131774906.966 0                        40.000  
                  25075834.190   100970383.606          46.000  
  25109593.921                   131951526.355 0                        38.000  
                  25109589.382   101105762.111          42.000  
  27915842.852                   146698612.599 0                        38.000  
                  27915842.459   112405436.273          44.000  
  25081624.522                   131805165.099 0                        47.000  
                  25081623.146   100993892.439          51.000  
 22  1  8 22  0 30.0010000  0  9G08G10G13G15G16G18G23G26G27
  23645147.328    23645144.880   124256348.541 0  96823130.912 0        43.000  
        43.000                                                  
  21438392.342    21438387.982   112659045.313 0  87786544.426 0        50.000  
        47.000                                                  
  25124865.878                   132031777.368 0                        35.000  
                                                                
  23864413.964    23864409.264   125408220.092 0  97720694.685 0        39.000  
        37.000                                                  
  21058698.333                   110663453.810 0                        49.000  
                                                                
  21822949.334    21822944.438   114680072.850 0  89361103.804 0        45.000  
        45.000                                                  
  20754526.928    20754522.139   109065693.124 0  84986859.387 0        47.000  
        49.000                                                  
  22305232.209    22305229.492   117214225.794 0  91336149.325 0        46.000  
        45.000                                                  
  21065177.498    21065173.942   110698844.963 0  86258843.128 0        49.000  
        48.000                                                  
 22  1  8 22  0 29.0000000  0  0
 22  1  8 22  0 30.0010000  0  6E02E04E09E11E25E30
  24719625.063                   129902748.100 0                        47.000  
                  24719623.830    99535873.857          52.000  
  27329705.395                   143617883.665 0                        39.000  
                  27329704.269   110044877.023          45.000  
  25075395.113                   131772599.052 0                        40.000  
                  25075394.988   100968615.211          46.000  
  25110017.506                   131953753.548 0                        38.000  
                  25110013.253   101107468.662          42.000  
  27916459.244                   146701852.817 0                        38.000  
                  27916459.030   112407919.039          44.000  
  25081523.008                   131804631.133 0                        47.000  
                  25081521.471   100993483.296          51.000  
 22  1  8 22  0 31.0010000  0  9G08G10G13G15G16G18G23G26G27
  23644553.684    23644551.271   124253229.448 0  96820700.464 0        43.000  
        43.000                                                  
  21437977.566    21437973.295   112656865.913 0  87784846.187 0        50.000  
        47.000                                                  
  25124943.054                   132032182.351 0                        35.000  
                                                                
  23864405.923    23864401.169   125408177.686 0  97720661.678 0        38.000  
        37.000                                                  
  21058875.540                   110664385.477 0                        49.000  
                                                                
  21823411.784    21823406.995   114682503.025 0  89362997.444 0        45.000  
        45.000                                                  
  20754533.415    20754528.679   109065727.345 0  84986886.053 0        47.000  
        49.000                                                  
  22305802.481    22305799.800   117217222.494 0  91338484.427 0        45.000  
        45.000                                                  
  21064796.459    21064792.921   110696842.478 0  86257282.752 0        48.000  
        48.000                                                  
 22  1  8 22  0 30.0000000  0  0
 22  1  8 22  0 31.0010000  0  6E02E04E09E11E25E30
  24720035.229                   129904903.666 0                        47.000  
                  24720034.032    99537525.527          52.000  
  27329681.289                   143617756.327 0                        39.000  
                  27329680.038   110044779.469          45.000  
  25074955.981                   131770291.322 0                        40.000  
                  25074955.803   100966846.957          46.000  
  25110441.288                   131955980.718 0                        37.000  
                  25110437.035   101109175.184          42.000  
  27917075.886                   146705092.968 0                        38.000  
                  27917075.493   112410401.741          44.000  
  25081421.387                   131804097.582 0                        47.000  
                  25081420.029   100993074.472          51.000  
 22  1  8 22  0 32.0010000  0  9G08G10G13G15G16G18G23G26G27
  23643960.128    23643957.770   124250110.696 0  96818270.265 0        43.000  
        43.000                                                  
  21437562.951    21437558.645   112654687.244 0  87783148.523 0        50.000  
        47.000                                                  
  25125020.302                   132032588.197 0                        35.000  
                                                                
  23864398.007    23864393.218   125408136.176 0  97720629.334 0        38.000  
        36.000                                                  
  21059052.962                   110665318.059 0                        49.000  
                                                                
  21823874.324    21823869.624   114684933.655 0  89364891.433 0        45.000  
        45.000                                                  
  20754540.098    20754535.362   109065762.459 0  84986913.421 0        47.000  
        49.000                                                  
  22306372.842    22306370.179   117220219.774 0  91340819.968 0        46.000  
        45.000                                                  
  21064415.491    21064411.882   110694840.562 0  86255722.813 0        48.000  
        48.000                                                  
 22  1  8 22  0 31.0000000  0  0
 22  1  8 22  0 32.0010000  0  6E02E04E09E11E25E30
  24720445.537                   129907059.829 0                        47.000  
                  24720444.358    99539177.647          52.000  
  27329656.934                   143617629.700 0                        39.000  
                  27329655.951   110044682.443          45.000  
  25074516.725                   131767984.077 0                        40.000  
                  25074516.832   100965079.068          46.000  
  25110865.070                   131958208.135 0                        37.000  
                  25110860.817   101110881.910          42.000  
  27917692.421                   146708333.353 0                        38.000  
                  27917692.171   112412884.633          44.000  
  25081320.034                   131803564.745 0                        47.000  
                  25081318.622   100992666.194          51.000  
 22  1  8 22  0 33.0010000  0  9G08G10G13G15G16G18G23G26G27
  23643366.698    23643364.322   124246992.404 0  96815840.416 0        43.000  
        42.000                                                  
  21437148.301    21437144.262   112652509.434 0  87781451.528 0        50.000  
        47.000                                                  
  25125097.746                   132032995.009 0                        35.000  
                                                                
  23864390.305    23864385.552   125408095.686 0  97720597.768 0        38.000  
        36.000                                                  
  21059230.794                   110666251.645 0                        49.000  
                                                                
  21824336.953    21824332.289   114687364.849 0  89366785.858 0        46.000  
        45.000                                                  
  20754546.959    20754542.367   109065798.602 0  84986941.583 0        47.000  
        49.000                                                  
  22306943.436    22306940.702   117223217.739 0  91343156.049 0        45.000  
        45.000                                                  
  21064034.685    21064030.986   110692839.350 0  86254163.428 0        48.000  
        48.000                                                  
 22  1  8 22  0 32.0000000  0  0
 22  1  8 22  0 33.0010000  0  6E02E04E09E11E25E30
  24720856.078                   129909216.710 0                        47.000  
                  24720854.792    99540830.313          52.000  
  27329633.293                   143617503.918 0                        39.000  
                  27329632.007   110044586.062          45.000  
  25074077.915                   131765677.433 0                        40.000  
                  25074077.862   100963311.637          46.000  
  25111289.012                   131960435.930 0                        37.000  
                  25111284.724   101112588.920          42.000  
  27918308.867                   146711574.099 0                        38.000  
                  27918308.903   112415367.798          44.000  
  25081218.895                   131803032.768 0                        47.000  
                  25081217.359   100992258.568          51.000  
 22  1  8 22  0 34.0010000  0  9G08G10G13G15G16G18G23G26G27
  23642773.393    23642770.909   124243874.159 0  96813410.622 0        43.000  
        42.000                                                  
  21436733.775    21436729.915   112650332.079 0  87779754.883 0        50.000  
        47.000                                                  
  25125175.227                   132033402.384 0                        35.000  
                                                                
  23864382.675    23864378.029   125408055.819 0  97720566.712 0        38.000  
        36.000                                                  
  21059408.484                   110667185.848 0                        49.000  
                                                                
  21824799.635    21824794.775   114689796.195 0  89368680.418 0        46.000  
        45.000                                                  
  20754553.928    20754549.372   109065835.368 0  84986970.234 0        47.000  
        49.000                                                  
  22307514.011    22307511.277   117226215.976 0  91345492.333 0        45.000  
        45.000                                                  
  21063653.932    21063650.251   110690838.426 0  86252604.266 0        48.000  
        48.000                                                  
 22  1  8 22  0 33.0000000  0  0
 22  1  8 22  0 34.0010000  0  6E02E04E09E11E25E30
  24721266.512                   129911373.882 0                        47.000  
                  24721265.315    99542483.220          52.000  
  27329609.295                   143617378.529 0                        39.000  
                  27329608.169   110044489.989          45.000  
  25073638.856                   131763370.995 0                        40.000  
                  25073638.891   100961544.353          46.000  
  25111712.937                   131962663.710 0                        37.000  
                  25111708.595   101114295.927          42.000  
  27918925.616                   146714814.760 0                        38.000  
                  27918925.527   112417850.911          44.000  
  25081117.632                   131802501.216 0                        47.000  
                  25081116.238   100991851.280          51.000  
 22  1  8 22  0 35.0010000  0  9G08G10G13G15G16G18G23G26G27
  23642180.016    23642177.515   124240755.982 0  96810980.883 0        43.000  
        42.000                                                  
  21436319.392    21436315.550   112648155.191 0  87778058.607 0        50.000  
        47.000                                                  
  25125252.957                   132033810.386 0                        35.000  
                                                                
  23864375.224    23864370.470   125408016.576 0  97720536.124 0        39.000  
        36.000                                                  
  21059586.424                   110668120.687 0                        49.000  
                                                                
  21825262.318    21825257.511   114692227.720 0  89370575.115 0        46.000  
        45.000                                                  
  20754561.058    20754556.448   109065872.765 0  84986999.371 0        47.000  
        49.000                                                  
  22308084.551    22308081.853   117229214.537 0  91347828.879 0        45.000  
        45.000                                                  
  21063273.250    21063269.533   110688837.804 0  86251045.340 0        48.000  
        48.000                                                  
 22  1  8 22  0 34.0000000  0  0
 22  1  8 22  0 35.0010000  0  6E02E04E09E11E25E30
  24721677.070                   129913531.382 0                        47.000  
                  24721675.820    99544136.369          52.000  
  27329585.654                   143617253.606 0                        39.000  
                  27329584.314   110044394.265          45.000  
  25073199.867                   131761064.747 0                        40.000  
                  25073200.064   100959777.237          46.000  
  25112136.862                   131964891.499 0                        37.000  
                  25112132.555   101116002.930          42.000  
  27919542.223                   146718055.398 0                        38.000  
                  27919542.365   112420334.006          44.000  
  25081016.564                   131801970.116 0                        47.000  
                  25081015.206   100991444.328          51.000  
 22  1  8 22  0 36.0010000  0  9G08G10G13G15G16G18G23G26G27
  23641586.586    23641584.120   124237637.600 0  96808550.979 0        43.000  
        42.000                                                  
  21435905.081    21435901.347   112645978.514 0  87776362.495 0        50.000  
        47.000                                                  
  25125330.651                   132034218.671 0                        35.000  
                                                                
  23864367.754    23864363.001   125407977.651 0  97720505.809 0        39.000  
        36.000                                                  
  21059764.399                   110669055.869 0                        49.000  
                                                                
  21825725.036    21825720.229   114694659.151 0  89372469.739 0        46.000  
        45.000                                                  
  20754568.259    20754563.631   109065910.508 0  84987028.784 0        47.000  
        49.000                                                  
  22308655.074    22308652.483   117232213.126 0  91350165.435 0        45.000  
        45.000                                                  
  21062892.515    21062888.941   110686837.230 0  86249486.450 0        48.000  
        48.000                                                  
 22  1  8 22  0 35.0000000  0  0
 22  1  8 22  0 36.0010000  0  6E02E04E09E11E25E30
  24722087.683                   129915688.915 0                        47.000  
                  24722086.360    99545789.548          52.000  
  27329561.763                   143617128.837 0                        39.000  
                  27329560.584   110044298.648          45.000  
  25072761.290                   131758758.444 0                        40.000  
                  25072761.022   100958010.077          46.000  
  25112560.840                   131967118.995 0                        38.000  
                  25112556.569   101117709.712          42.000  
  27920158.811                   146721295.724 0                        38.000  
                  27920158.811   112422816.851          44.000  
  25080915.658                   131801439.180 0                        47.000  
                  25080914.121   100991037.517          51.000  
 22  1  8 22  0 37.0010000  0  9G08G10G13G15G16G18G23G26G27
  23640993.156    23640990.744   124234519.390 0  96806121.214 0        43.000  
        42.000                                                  
  21435490.895    21435487.196   112643802.418 0  87774666.838 0        50.000  
        47.000                                                  
  25125408.667                   132034627.677 0                        35.000  
                                                                
  23864360.482    23864355.764   125407939.500 0  97720476.069 0        39.000  
        36.000                                                  
  21059942.446                   110669991.808 0                        49.000  
                                                                
  21826187.737    21826183.019   114697090.893 0  89374364.591 0        46.000  
        45.000                                                  
  20754575.586    20754570.922   109065949.016 0  84987058.784 0        47.000  
        49.000                                                  
  22309225.846    22309223.255   117235212.147 0  91352502.325 0        45.000  
        45.000                                                  
  21062511.940    21062508.295   110684837.074 0  86247927.883 0        48.000  
        48.000                                                  
 22  1  8 22  0 36.0000000  0  0
 22  1  8 22  0 37.0010000  0  6E02E04E09E11E25E30
  24722498.331                   129917846.905 0                        47.000  
                  24722497.062    99547443.071          52.000  
  27329538.409                   143617004.627 0                        39.000  
                  27329536.890   110044203.480          45.000  
  25072322.355                   131756452.478 0                        40.000  
                  25072322.320   100956243.165          46.000  
  25112984.890                   131969346.635 0                        38.000  
                  25112980.422   101119416.609          42.000  
  27920775.525                   146724536.139 0                        38.000  
                  27920775.400   112425299.775          44.000  
  25080814.752                   131800908.841 0                        47.000  
                  25080813.179   100990631.145          51.000  
 22  1  8 22  0 38.0010000  0  9G08G10G13G15G16G18G23G26G27
  23640399.815    23640397.438   124231401.389 0  96803691.587 0        43.000  
        42.000                                                  
  21435076.834    21435073.242   112641626.926 0  87772971.657 0        50.000  
        47.000                                                  
  25125486.684                   132035037.370 0                        35.000  
                                                                
  23864353.352    23864348.599   125407902.092 0  97720446.911 0        39.000  
        36.000                                                  
  21060120.779                   110670928.514 0                        49.000  
                                                                
  21826650.616    21826645.845   114699522.929 0  89376259.689 0        46.000  
        45.000                                                  
  20754583.108    20754578.337   109065988.288 0  84987089.394 0        47.000  
        49.000                                                  
  22309796.654    22309794.099   117238211.600 0  91354839.563 0        45.000  
        45.000                                                  
  21062131.276    21062127.792   110682837.374 0  86246369.677 0        48.000  
        48.000                                                  
 22  1  8 22  0 37.0000000  0  0
 22  1  8 22  0 38.0010000  0  6E02E04E09E11E25E30
  24722908.907                   129920005.353 0                        47.000  
                  24722907.692    99549096.949          52.000  
  27329514.839                   143616880.987 0                        39.000  
                  27329513.553   110044108.745          45.000  
  25071883.385                   131754146.838 0                        40.000  
                  25071883.564   100954476.511          46.000  
  25113408.654                   131971574.389 0                        38.000  
                  25113404.454   101121123.585          42.000  
  27921391.988                   146727776.639 0                        38.000  
                  27921392.220   112427782.751          44.000  
  25080713.988                   131800379.079 0                        47.000  
                  25080712.398   100990225.224          51.000  
 22  1  8 22  0 39.0010000  0  9G08G10G13G15G16G18G23G26G27
  23639806.492    23639804.133   124228283.497 0  96801262.060 0        43.000  
        42.000                                                  
  21434662.916    21434659.342   112639451.943 0  87771276.864 0        50.000  
        47.000                                                  
  25125564.843                   132035447.718 0                        35.000  
                                                                
  23864346.401    23864341.576   125407865.355 0  97720418.303 0        39.000  
        36.000                                                  
  21060299.201                   110671865.894 0                        49.000  
                                                                
  21827113.549    21827108.653   114701955.188 0  89378154.960 0        46.000  
        45.000                                                  
  20754590.596    20754586.057   109066028.235 0  84987120.526 0        47.000  
        49.000                                                  
  22310367.551    22310365.032   117241211.383 0  91357177.069 0        45.000  
        45.000                                                  
  21061750.881    21061747.360   110680838.011 0  86244811.741 0        48.000  
        48.000                                                  
 22  1  8 22  0 38.0000000  0  0
 22  1  8 22  0 39.0010000  0  6E02E04E09E11E25E30
  24723319.698                   129922164.148 0                        47.000  
                  24723318.483    99550751.097          52.000  
  27329491.342                   143616757.817 0                        39.000  
                  27329490.055   110044014.372          45.000  
  25071444.718                   131751841.477 0                        40.000  
                  25071444.790   100952710.065          46.000  
  25113832.632                   131973802.190 0                        38.000  
                  25113828.397   101122830.597          42.000  
  27922008.523                   146731017.165 0                        38.000  
                  27922008.880   112430265.733          44.000  
  25080613.278                   131799849.795 0                        47.000  
                  25080611.634   100989819.676          51.000  
 22  1  8 22  0 40.0010000  0  9G08G10G13G15G16G18G23G26G27
  23639213.223    23639210.828   124225165.792 0  96798832.675 0        43.000  
        42.000                                                  
  21434249.105    21434245.460   112637277.560 0  87769582.538 0        50.000  
        47.000                                                  
  25125643.020                   132035858.766 0                        35.000  
                                                                
  23864339.593    23864334.804   125407829.394 0  97720390.258 0        39.000  
        36.000                                                  
  21060477.713                   110672804.005 0                        49.000  
                                                                
  21827576.356    21827571.550   114704387.751 0  89380050.464 0        46.000  
        45.000                                                  
  20754598.279    20754593.776   109066068.936 0  84987152.236 0        47.000  
        49.000                                                  
  22310938.377    22310935.840   117244211.605 0  91359514.901 0        45.000  
        45.000                                                  
  21061370.556    21061366.983   110678839.082 0  86243254.132 0        48.000  
        48.000                                                  
 22  1  8 22  0 39.0000000  0  0
 22  1  8 22  0 40.0010000  0  6E02E04E09E11E25E30
  24723730.668                   129924323.400 0                        47.000  
                  24723729.453    99552405.585          52.000  
  27329467.862                   143616635.215 0                        39.000  
                  27329466.647   110043920.439          45.000  
  25071006.087                   131749536.420 0                        41.000  
                  25071006.087   100950943.860          46.000  
  25114256.557                   131976030.105 0                        38.000  
                  25114252.375   101124537.706          42.000  
  27922625.076                   146734257.746 0                        37.000  
                  27922625.415   112432748.801          44.000  
  25080512.711                   131799321.104 0                        47.000  
                  25080511.032   100989414.568          51.000  
 22  1  8 22  0 41.0010000  0  9G08G10G13G15G16G18G23G26G27
  23638619.864    23638617.487   124222047.803 0  96796403.069 0        43.000  
        42.000                                                  
  21433835.187    21433831.738   112635103.293 0  87767888.301 0        50.000  
        47.000                                                  
  25125721.357                   132036270.050 0                        35.000  
                                                                
  23864332.803    23864327.906   125407793.664 0  97720362.442 0        39.000  
        36.000                                                  
  21060656.296                   110673742.406 0                        49.000  
                                                                
  21828039.307    21828034.429   114706820.145 0  89381945.840 0        46.000  
        45.000                                                  
  20754606.088    20754601.478   109066109.924 0  84987184.173 0        47.000  
        49.000                                                  
  22311509.346    22311506.719   117247211.782 0  91361852.688 0        45.000  
        45.000                                                  
  21060990.071    21060986.694   110676840.115 0  86241696.491 0        48.000  
        48.000                                                  
 22  1  8 22  0 40.0000000  0  0
 22  1  8 22  0 41.0010000  0  6E02E04E09E11E25E30
  24724141.530                   129926482.632 0                        47.000  
                  24724140.387    99554060.054          52.000  
  27329444.489                   143616512.714 0                        39.000  
                  27329443.381   110043826.566          45.000  
  25070567.546                   131747231.247 0                        40.000  
                  25070567.439   100949177.553          46.000  
  25114680.696                   131978257.642 0                        38.000  
                  25114676.211   101126244.522          42.000  
  27923241.557                   146737497.956 0                        38.000  
                  27923242.057   112435231.539          44.000  
  25080412.180                   131798792.508 0                        47.000  
                  25080410.465   100989009.542          51.000  
 22  1  8 22  0 42.0010000  0  9G08G10G13G15G16G18G23G26G27
  23638026.648    23638024.253   124218930.259 0  96793973.828 0        43.000  
        42.000                                                  
  21433421.430    21433418.196   112632929.896 0  87766194.748 0        50.000  
        47.000                                                  
  25125799.749                   132036682.290 0                        35.000  
                                                                
  23864326.227    23864321.313   125407758.967 0  97720335.396 0        39.000  
        36.000                                                  
  21060835.057                   110674681.834 0                        49.000  
                                                                
  21828502.347    21828497.415   114709253.111 0  89383841.651 0        46.000  
        45.000                                                  
  20754614.022    20754609.519   109066151.936 0  84987216.910 0        47.000  
        49.000                                                  
  22312080.315    22312077.921   117250212.651 0  91364191.032 0        45.000  
        45.000                                                  
  21060609.765    21060606.370   110674841.853 0  86240139.404 0        48.000  
        48.000                                                  
 22  1  8 22  0 41.0000000  0  0
 22  1  8 22  0 42.0010000  0  6E02E04E09E11E25E30
  24724552.554                   129928642.562 0                        47.000  
                  24724551.464    99555715.068          52.000  
  27329421.259                   143616391.049 0                        39.000  
                  27329420.241   110043733.333          45.000  
  25070128.683                   131744926.669 0                        41.000  
                  25070128.844   100947411.710          46.000  
  25115104.477                   131980485.610 0                        38.000  
                  25115100.135   101127951.662          42.000  
  27923858.378                   146740738.534 0                        37.000  
                  27923858.628   112437714.584          44.000  
  25080311.649                   131798264.756 0                        47.000  
                  25080310.041   100988605.163          51.000  
 22  1  8 22  0 43.0010000  0  9G08G10G13G15G16G18G23G26G27
  23637433.378    23637430.930   124215812.625 0  96791544.500 0        43.000  
        42.000                                                  
  21433007.834    21433004.617   112630756.779 0  87764501.412 0        50.000  
        47.000                                                  
  25125878.301                   132037094.958 0                        35.000  
                                                                
  23864319.722    23864314.737   125407724.710 0  97720308.719 0        39.000  
        36.000                                                  
  21061013.891                   110675621.706 0                        49.000  
                                                                
  21828965.298    21828960.348   114711686.068 0  89385737.466 0        46.000  
        45.000                                                  
  20754622.081    20754617.596   109066194.386 0  84987249.997 0        47.000  
        49.000                                                  
  22312651.427    22312649.032   117253213.635 0  91366529.470 0        45.000  
        45.000                                                  
  21060229.530    21060226.242   110672843.714 0  86238582.421 0        48.000  
        48.000                                                  
 22  1  8 22  0 42.0000000  0  0
 22  1  8 22  0 43.0010000  0  6E02E04E09E11E25E30
  24724963.434                   129930802.636 0                        47.000  
                  24724962.398    99557370.194          52.000  
  27329398.333                   143616269.624 0                        39.000  
                  27329397.082   110043640.302          45.000  
  25069690.284                   131742622.135 0                        40.000  
                  25069690.338   100945645.892          46.000  
  25115528.563                   131982713.385 0                        38.000  
                  25115524.149   101129658.644          42.000  
  27924474.877                   146743978.884 0                        37.000  
                  27924475.252   112440197.443          44.000  
  25080211.225                   131797737.289 0                        47.000  
                  25080209.742   100988200.991          51.000  
 22  1  8 22  0 44.0010000  0  9G08G10G13G15G16G18G23G26G27
  23636840.163    23636837.661   124212695.296 0  96789115.406 0        43.000  
        42.000                                                  
  21432594.416    21432591.164   112628584.380 0  87762808.622 0        50.000  
        47.000                                                  
  25125956.943                   132037508.452 0                        35.000  
                                                                
  23864313.343    23864308.358   125407691.316 0  97720282.672 0        39.000  
        36.000                                                  
  21061192.885                   110676562.443 0                        49.000  
                                                                
  21829428.463    21829423.424   114714119.445 0  89387633.604 0        46.000  
        45.000                                                  
  20754630.444    20754625.869   109066237.725 0  84987283.765 0        47.000  
        49.000                                                  
  22313222.539    22313220.198   117256215.157 0  91368868.316 0        45.000  
        45.000                                                  
  21059849.349    21059845.971   110670846.117 0  86237025.850 0        48.000  
        48.000                                                  
 22  1  8 22  0 43.0000000  0  0
 22  1  8 22  0 44.0010000  0  6E02E04E09E11E25E30
  24725374.618                   129932963.270 0                        47.000  
                  24725373.528    99559025.740          52.000  
  27329375.300                   143616148.878 0                        39.000  
                  27329374.139   110043547.786          45.000  
  25069251.760                   131740318.027 0                        40.000  
                  25069251.832   100943880.413          46.000  
  25115952.577                   131984941.368 0                        38.000  
                  25115948.163   101131365.816          42.000  
  27925091.626                   146747219.428 0                        37.000  
                  27925092.037   112442680.457          44.000  
  25080110.980                   131797210.482 0                        47.000  
                  25080109.390   100987797.343          51.000  
 22  1  8 22  0 45.0010000  0  9G08G10G13G15G16G18G23G26G27
  23636247.036    23636244.481   124209578.157 0  96786686.487 0        43.000  
        42.000                                                  
  21432181.052    21432177.960   112626412.571 0  87761116.313 0        50.000  
        47.000                                                  
  25126035.620                   132037922.658 0                        35.000  
                                                                
  23864307.143    23864302.157   125407658.694 0  97720257.269 0        39.000  
        36.000                                                  
  21061372.039                   110677503.929 0                        49.000  
                                                                
  21829891.538    21829886.482   114716553.124 0  89389529.970 0        46.000  
        45.000                                                  
  20754638.806    20754634.160   109066281.821 0  84987318.126 0        47.000  
        49.000                                                  
  22313793.865    22313791.292   117259217.127 0  91371207.504 0        45.000  
        45.000                                                  
  21059469.346    21059465.987   110668848.973 0  86235469.634 0        48.000  
        48.000                                                  
 22  1  8 22  0 44.0000000  0  0
 22  1  8 22  0 45.0010000  0  6E02E04E09E11E25E30
  24725785.909                   129935124.359 0                        47.000  
                  24725784.909    99560681.635          52.000  
  27329352.499                   143616028.700 0                        39.000  
                  27329351.284   110043455.696          45.000  
  25068813.344                   131738014.268 0                        41.000  
                  25068813.433   100942115.206          46.000  
  25116376.573                   131987169.509 0                        38.000  
                  25116372.106   101133073.075          42.000  
  27925708.233                   146750460.069 0                        37.000  
                  27925708.679   112445163.536          44.000  
  25080010.878                   131796684.282 0                        47.000  
                  25080009.305   100987394.146          51.000  
 22  1  8 22  0 46.0010000  0  9G08G10G13G15G16G18G23G26G27
  23635653.981    23635651.301   124206461.180 0  96784257.656 0        43.000  
        42.000                                                  
  21431767.848    21431764.686   112624241.323 0  87759424.431 0        50.000  
        47.000                                                  
  25126114.637                   132038337.527 0                        35.000  
                                                                
  23864300.978    23864296.082   125407626.767 0  97720232.402 0        39.000  
        36.000                                                  
  21061551.391                   110678446.142 0                        49.000  
                                                                
  21830354.721    21830349.539   114718987.070 0  89391426.547 0        46.000  
        45.000                                                  
  20754647.258    20754642.773   109066326.633 0  84987353.046 0        47.000  
        49.000                                                  
  22314365.173    22314362.690   117262219.481 0  91373546.997 0        45.000  
        45.000                                                  
  21059089.379    21059085.966   110666852.210 0  86233913.714 0        48.000  
        48.000                                                  
 22  1  8 22  0 45.0000000  0  0
 22  1  8 22  0 46.0010000  0  6E02E04E09E11E25E30
  24726197.272                   129937285.854 0                        47.000  
                  24726196.128    99562337.843          52.000  
  27329329.681                   143615909.054 0                        39.000  
                  27329328.394   110043364.021          45.000  
  25068375.017                   131735710.819 0                        40.000  
                  25068375.070   100940350.217          46.000  
  25116800.391                   131989397.721 0                        38.000  
                  25116796.084   101134780.420          42.000  
  27926324.839                   146753700.733 0                        37.000  
                  27926325.322   112447646.654          44.000  
  25079910.990                   131796158.608 0                        47.000  
                  25079909.221   100986991.357          52.000  
 22  1  8 22  0 47.0010000  0  9G08G10G13G15G16G18G23G26G27
  23635060.747    23635058.049   124203343.942 0  96781828.630 0        43.000  
        42.000                                                  
  21431354.734    21431351.464   112622070.227 0  87757732.675 0        50.000  
        47.000                                                  
  25126193.600                   132038752.675 0                        34.000  
                                                                
  23864294.956    23864290.060   125407595.181 0  97720207.762 0        39.000  
        36.000                                                  
  21061730.760                   110679388.663 0                        49.000  
                                                                
  21830817.761    21830812.740   114721420.866 0  89393323.021 0        46.000  
        45.000                                                  
  20754655.978    20754651.332   109066371.753 0  84987388.207 0        47.000  
        49.000                                                  
  22314936.553    22314934.016   117265221.800 0  91375886.473 0        45.000  
        45.000                                                  
  21058709.376    21058706.142   110664855.441 0  86232357.786 0        48.000  
        48.000                                                  
 22  1  8 22  0 46.0000000  0  0
 22  1  8 22  0 47.0010000  0  6E02E04E09E11E25E30
  24726608.546                   129939447.336 0                        47.000  
                  24726607.438    99563994.046          52.000  
  27329306.933                   143615789.522 0                        39.000  
                  27329305.718   110043272.427          45.000  
  25067936.636                   131733407.248 0                        41.000  
                  25067936.725   100938585.139          46.000  
  25117224.226                   131991625.604 0                        38.000  
                  25117220.098   101136487.499          42.000  
  27926941.320                   146756941.065 0                        37.000  
                  27926941.981   112450129.499          44.000  
  25079810.959                   131795633.072 0                        47.000  
                  25079809.262   100986588.671          52.000  
 22  1  8 22  0 48.0010000  0  9G08G10G13G15G16G18G23G26G27
  23634467.460    23634464.762   124200226.496 0  96779399.451 0        43.000  
        42.000                                                  
  21430941.638    21430938.350   112619899.328 0  87756041.068 0        50.000  
        47.000                                                  
  25126272.688                   132039168.132 0                        35.000  
                                                                
  23864289.059    23864284.181   125407563.908 0  97720183.384 0        39.000  
        36.000                                                  
  21061910.219                   110680331.540 0                        49.000  
                                                                
  21831281.016    21831275.995   114723854.574 0  89395219.417 0        46.000  
        45.000                                                  
  20754664.609    20754659.999   109066417.249 0  84987423.652 0        47.000  
        49.000                                                  
  22315507.862    22315505.396   117268224.167 0  91378225.981 0        45.000  
        45.000                                                  
  21058329.445    21058326.229   110662858.707 0  86230801.896 0        48.000  
        48.000                                                  
 22  1  8 22  0 47.0000000  0  0
 22  1  8 22  0 48.0010000  0  6E02E04E09E11E25E30
  24727019.998                   129941608.883 0                        47.000  
                  24727018.747    99565650.296          52.000  
  27329284.061                   143615670.140 0                        39.000  
                  27329283.060   110043180.961          45.000  
  25067498.291                   131731103.615 0                        40.000  
                  25067498.434   100936820.026          46.000  
  25117648.008                   131993853.205 0                        37.000  
                  25117643.969   101138194.362          42.000  
  27927557.980                   146760181.092 0                        37.000  
                  27927558.499   112452612.110          44.000  
  25079710.768                   131795107.706 0                        47.000  
                  25079709.302   100986186.127          51.000  
 22  1  8 22  0 49.0010000  0  9G08G10G13G15G16G18G23G26G27
  23633874.262    23633871.689   124197109.736 0  96776970.795 0        43.000  
        42.000                                                  
  21430528.810    21430525.505   112617729.533 0  87754350.299 0        50.000  
        47.000                                                  
  25126352.134                   132039584.800 0                        35.000  
                                                                
  23864283.270    23864278.481   125407533.892 0  97720160.029 0        39.000  
        36.000                                                  
  21062089.820                   110681275.657 0                        49.000  
                                                                
  21831744.306    21831739.267   114726289.081 0  89397116.426 0        46.000  
        45.000                                                  
  20754673.472    20754668.862   109066463.986 0  84987460.063 0        47.000  
        49.000                                                  
  22316079.385    22316076.919   117271227.446 0  91380566.192 0        46.000  
        45.000                                                  
  21057949.639    21057946.405   110660862.904 0  86229246.720 0        48.000  
        48.000                                                  
 22  1  8 22  0 48.0000000  0  0
 22  1  8 22  0 49.0010000  0  6E02E04E09E11E25E30
  24727431.378                   129943771.357 0                        47.000  
                  24727430.324    99567307.255          52.000  
  27329261.564                   143615551.838 0                        39.000  
                  27329260.456   110043090.310          45.000  
  25067059.964                   131728800.821 0                        40.000  
                  25067060.196   100935055.546          46.000  
  25118072.147                   131996081.432 0                        38.000  
                  25118068.019   101139901.707          42.000  
  27928174.890                   146763421.683 0                        37.000  
                  27928175.141   112455095.163          44.000  
  25079610.915                   131794583.426 0                        47.000  
                  25079609.504   100985784.392          52.000  
 22  1  8 22  0 50.0010000  0  9G08G10G13G15G16G18G23G26G27
  23633281.225    23633278.634   124193992.932 0  96774542.131 0        43.000  
        42.000                                                  
  21430116.054    21430112.623   112615560.118 0  87752659.851 0        50.000  
        47.000                                                  
  25126431.598                   132040001.932 0                        35.000  
                                                                
  23864277.695    23864272.906   125407504.406 0  97720137.049 0        39.000  
        37.000                                                  
  21062269.601                   110682220.327 0                        49.000  
                                                                
  21832207.578    21832202.557   114728723.675 0  89399013.535 0        46.000  
        45.000                                                  
  20754682.496    20754677.832   109066511.271 0  84987496.921 0        47.000  
        49.000                                                  
  22316650.854    22316648.316   117274230.947 0  91382906.585 0        46.000  
        45.000                                                  
  21057569.815    21057566.652   110658867.338 0  86227691.734 0        48.000  
        48.000                                                  
 22  1  8 22  0 49.0000000  0  0
 22  1  8 22  0 50.0010000  0  6E02E04E09E11E25E30
  24727842.973                   129945934.090 0                        47.000  
                  24727841.794    99568964.411          52.000  
  27329239.138                   143615433.890 0                        39.000  
                  27329237.959   110042999.932          45.000  
  25066621.905                   131726498.157 0                        41.000  
                  25066621.887   100933291.169          46.000  
  25118496.072                   131998309.576 0                        38.000  
                  25118492.015   101141608.982          42.000  
  27928791.372                   146766662.162 0                        37.000  
                  27928791.944   112457578.125          44.000  
  25079511.242                   131794059.509 0                        47.000  
                  25079509.866   100985382.961          52.000  
 22  1  8 22  0 51.0010000  0  9G08G10G13G15G16G18G23G26G27
  23632688.188    23632685.436   124190876.193 0  96772113.498 0        43.000  
        42.000                                                  
  21429703.297    21429699.974   112613391.168 0  87750969.760 0        50.000  
        47.000                                                  
  25126511.133                   132040419.677 0                        36.000  
                                                                
  23864272.244    23864267.402   125407475.546 0  97720114.579 0        39.000  
        37.000                                                  
  21062449.506                   110683165.615 0                        49.000  
                                                                
  21832670.976    21832665.847   114731158.440 0  89400910.738 0        46.000  
        45.000                                                  
  20754691.627    20754686.838   109066559.185 0  84987534.251 0        47.000  
        49.000                                                  
  22317222.555    22317219.857   117277234.754 0  91385247.191 0        46.000  
        45.000                                                  
  21057190.152    21057186.918   110656872.065 0  86226136.985 0        48.000  
        48.000                                                  
 22  1  8 22  0 50.0000000  0  0
 22  1  8 22  0 51.0010000  0  6E02E04E09E11E25E30
  24728254.622                   129948097.116 0                        47.000  
                  24728253.425    99570621.797          52.000  
  27329216.784                   143615316.375 0                        39.000  
                  27329215.658   110042909.881          45.000  
  25066183.721                   131724195.695 0                        41.000  
                  25066183.810   100931526.940          46.000  
  25118920.336                   132000537.706 0                        38.000  
                  25118916.029   101143316.245          42.000  
  27929407.907                   146769902.591 0                        37.000  
                  27929408.496   112460061.047          44.000  
  25079411.551                   131793536.036 0                        47.000  
                  25079410.157   100984981.856          52.000  
 22  1  8 22  0 52.0010000  0  9G08G10G13G15G16G18G23G26G27
  23632095.187    23632092.328   124187759.767 0  96769685.110 0        43.000  
        42.000                                                  
  21429290.862    21429287.235   112611222.919 0  87749280.217 0        50.000  
        47.000                                                  
  25126590.793                   132040838.232 0                        36.000  
                                                                
  23864266.884    23864262.148   125407447.554 0  97720092.765 0        39.000  
        37.000                                                  
  21062629.447                   110684111.764 0                        49.000  
                                                                
  21833134.373    21833129.316   114733593.615 0  89402808.275 0        46.000  
        45.000                                                  
  20754700.901    20754696.237   109066607.961 0  84987572.268 0        47.000  
        49.000                                                  
  22317794.203    22317791.612   117280239.063 0  91387588.238 0        46.000  
        45.000                                                  
  21056810.578    21056807.344   110654877.330 0  86224582.651 0        48.000  
        48.000                                                  
 22  1  8 22  0 51.0000000  0  0
 22  1  8 22  0 52.0010000  0  6E02E04E09E11E25E30
  24728666.324                   129950260.705 0                        47.000  
                  24728665.145    99572279.615          52.000  
  27329194.662                   143615199.519 0                        39.000  
                  27329193.411   110042820.351          45.000  
  25065745.590                   131721893.679 0                        41.000  
                  25065745.751   100929763.053          46.000  
  25119344.332                   132002766.094 0                        38.000  
                  25119340.097   101145023.702          42.000  
  27930024.495                   146773143.194 0                        37.000  
                  27930025.192   112462544.115          44.000  
  25079312.217                   131793013.243 0                        47.000  
                  25079310.734   100984581.268          52.000  
 22  1  8 22  0 53.0010000  0  9G08G10G13G15G16G18G23G26G27
  23631502.132    23631499.219   124184642.861 0  96767256.366 0        43.000  
        42.000                                                  
  21428878.392    21428874.711   112609054.608 0  87747590.627 0        50.000  
        47.000                                                  
  25126670.417                   132041256.866 0                        36.000  
                                                                
  23864261.505    23864256.895   125407419.668 0  97720071.022 0        39.000  
        37.000                                                  
  21062809.459                   110685058.015 0                        49.000  
                                                                
  21833597.663    21833592.624   114736028.453 0  89404705.547 0        46.000  
        45.000                                                  
  20754710.211    20754705.565   109066656.849 0  84987610.358 0        47.000  
        49.000                                                  
  22318365.905    22318363.189   117283243.184 0  91389929.096 0        46.000  
        45.000                                                  
  21056430.933    21056427.663   110652882.389 0  86223028.142 0        48.000  
        48.000                                                  
 22  1  8 22  0 52.0000000  0  0
 22  1  8 22  0 53.0010000  0  6E02E04E09E11E25E30
  24729078.116                   129952424.095 0                        47.000  
                  24729076.829    99573937.270          52.000  
  27329172.380                   143615082.578 0                        39.000  
                  27329171.200   110042730.759          45.000  
  25065307.495                   131719591.360 0                        41.000  
                  25065307.602   100927998.941          46.000  
  25119768.060                   132004993.950 0                        38.000  
                  25119763.986   101146730.752          42.000  
  27930641.119                   146776383.265 0                        37.000  
                  27930641.709   112465026.764          44.000  
  25079212.722                   131792490.392 0                        47.000  
                  25079211.257   100984180.639          52.000  
 22  1  8 22  0 54.0010000  0  9G08G10G13G15G16G18G23G26G27
  23630909.112    23630906.182   124181526.192 0  96764827.790 0        43.000  
        42.000                                                  
  21428466.100    21428462.311   112606886.957 0  87745901.553 0        50.000  
        47.000                                                  
  25126750.363                   132041676.237 0                        36.000  
                                                                
  23864256.359    23864251.695   125407392.569 0  97720049.917 0        39.000  
        37.000                                                  
  21062989.686                   110686005.070 0                        49.000  
                                                                
  21834061.043    21834055.986   114738463.638 0  89406603.103 0        46.000  
        45.000                                                  
  20754719.735    20754714.982   109066706.547 0  84987649.084 0        47.000  
        49.000                                                  
  22318937.713    22318934.908   117286247.760 0  91392270.345 0        46.000  
        45.000                                                  
  21056051.395    21056048.214   110650887.933 0  86221474.025 0        48.000  
        48.000                                                  
 22  1  8 22  0 53.0000000  0  0
 22  1  8 22  0 54.0010000  0  6E02E04E09E11E25E30
  24729489.943                   129954587.966 0                        47.000  
                  24729488.478    99575595.303          52.000  
  27329150.258                   143614966.265 0                        39.000  
                  27329149.060   110042641.638          45.000  
  25064869.347                   131717289.400 0                        41.000  
                  25064869.543   100926235.115          46.000  
  25120192.146                   132007221.924 0                        38.000  
                  25120188.018   101148437.922          42.000  
  27931257.726                   146779623.477 0                        36.000  
                  27931258.333   112467509.515          44.000  
  25079113.299                   131791968.163 0                        47.000  
                  25079111.869   100983780.492          52.000  
 22  1  8 22  0 55.0010000  0  9G08G10G13G15G16G18G23G26G27
  23630316.093    23630313.109   124178410.013 0  96762399.608 0        43.000  
        42.000                                                  
  21428053.986    21428050.019   112604720.207 0  87744213.176 0        50.000  
        47.000                                                  
  25126830.398                   132042096.638 0                        36.000  
                                                                
  23864251.391    23864246.727   125407366.540 0  97720029.621 0        39.000  
        37.000                                                  
  21063170.253                   110686953.187 0                        49.000  
                                                                
  21834524.512    21834519.490   114740899.421 0  89408501.115 0        46.000  
        45.000                                                  
  20754729.402    20754724.631   109066757.307 0  84987688.637 0        47.000  
        49.000                                                  
  22319509.647    22319506.752   117289253.084 0  91394612.153 0        46.000  
        44.000                                                  
  21055671.964    21055668.837   110648894.207 0  86219920.466 0        48.000  
        48.000                                                  
 22  1  8 22  0 54.0000000  0  0
 22  1  8 22  0 55.0010000  0  6E02E04E09E11E25E30
  24729901.806                   129956752.597 0                        47.000  
                  24729900.448    99577253.919          52.000  
  27329128.475                   143614850.821 0                        39.000  
                  27329127.099   110042553.170          45.000  
  25064431.681                   131714988.117 0                        41.000  
                  25064431.717   100924471.790          46.000  
  25120616.267                   132009450.356 0                        38.000  
                  25120612.050   101150145.415          42.000  
  27931874.386                   146782864.056 0                        36.000  
                  27931875.154   112469992.561          44.000  
  25079013.983                   131791446.814 0                        47.000  
                  25079012.661   100983381.019          52.000  
 22  1  8 22  0 56.0010000  0  9G08G10G13G15G16G18G23G26G27
  23629723.110    23629720.018   124175293.964 0  96759971.506 0        43.000  
        42.000                                                  
  21427641.855    21427637.781   112602553.994 0  87742525.221 0        50.000  
        47.000                                                  
  25126910.469                   132042517.716 0                        36.000  
                                                                
  23864246.513    23864241.992   125407341.157 0  97720009.865 0        39.000  
        37.000                                                  
  21063350.837                   110687901.988 0                        49.000  
                                                                
  21834988.034    21834983.066   114743335.453 0  89410399.329 0        46.000  
        45.000                                                  
  20754739.230    20754734.495   109066808.757 0  84987728.732 0        47.000  
        49.000                                                  
  22320081.670    22320078.651   117292258.758 0  91396954.243 0        46.000  
        44.000                                                  
  21055292.640    21055289.460   110646900.863 0  86218367.217 0        48.000  
        48.000                                                  
 22  1  8 22  0 55.0000000  0  0
 22  1  8 22  0 56.0010000  0  6E02E04E09E11E25E30
  24730313.741                   129958917.607 0                        47.000  
                  24730312.401    99578912.820          52.000  
  27329106.675                   143614735.879 0                        39.000  
                  27329105.121   110042465.090          45.000  
  25063993.747                   131712687.087 0                        41.000  
                  25063993.693   100922708.661          46.000  
  25121040.478                   132011678.832 0                        38.000  
                  25121036.171   101151852.950          42.000  
  27932491.028                   146786104.676 0                        36.000  
                  27932491.778   112472475.622          44.000  
  25078914.953                   131790925.976 0                        47.000  
                  25078913.630   100982981.933          52.000  
 22  1  8 22  0 57.0010000  0  9G08G10G13G15G16G18G23G26G27
  23629129.983    23629126.892   124172177.538 0  96757543.116 0        43.000  
        42.000                                                  
  21427229.581    21427225.507   112600387.791 0  87740837.267 0        50.000  
        47.000                                                  
  25126990.594                   132042938.839 0                        36.000  
                                                                
  23864241.688    23864237.221   125407315.974 0  97719990.248 0        39.000  
        37.000                                                  
  21063531.475                   110688850.962 0                        49.000  
                                                                
  21835451.592    21835446.499   114745771.207 0  89412297.305 0        46.000  
        45.000                                                  
  20754749.076    20754744.305   109066860.392 0  84987768.958 0        47.000  
        49.000                                                  
  22320653.604    22320650.513   117295264.281 0  91399296.201 0        46.000  
        45.000                                                  
  21054913.228    21054910.029   110644907.374 0  86216813.843 0        48.000  
        48.000                                                  
 22  1  8 22  0 56.0000000  0  0
 22  1  8 22  0 57.0010000  0  6E02E04E09E11E25E30
  24730725.854                   129961082.481 0                        47.000  
                  24730724.407    99580571.618          52.000  
  27329084.678                   143614620.907 0                        39.000  
                  27329083.285   110042376.995          45.000  
  25063555.831                   131710385.819 0                        41.000  
                  25063555.723   100920945.347          46.000  
  25121464.188                   132013906.868 0                        38.000  
                  25121460.149   101153560.153          42.000  
  27933107.527                   146789344.791 0                        36.000  
                  27933108.438   112474958.305          44.000  
  25078815.833                   131790405.138 0                        47.000  
                  25078814.565   100982582.852          52.000  
 22  1  8 22  0 58.0010000  0  9G08G10G13G15G16G18G23G26G27
  23628536.946    23628533.998   124169061.139 0  96755114.764 0        43.000  
        42.000                                                  
  21426817.379    21426813.394   112598222.024 0  87739149.657 0        50.000  
        47.000                                                  
  25127070.880                   132043360.587 0                        36.000  
                                                                
  23864236.989    23864232.414   125407291.374 0  97719971.073 0        39.000  
        37.000                                                  
  21063712.220                   110689800.526 0                        49.000  
                                                                
  21835915.150    21835910.076   114748207.098 0  89414195.402 0        46.000  
        45.000                                                  
  20754759.011    20754754.204   109066912.616 0  84987809.661 0        47.000  
        49.000                                                  
  22321225.610    22321222.429   117298270.078 0  91401638.373 0        46.000  
        44.000                                                  
  21054533.975    21054530.759   110642914.165 0  86215260.693 0        48.000  
        48.000                                                  
 22  1  8 22  0 57.0000000  0  0
 22  1  8 22  0 58.0010000  0  6E02E04E09E11E25E30
  24731137.860                   129963247.644 0                        47.000  
                  24731136.377    99582230.643          52.000  
  27329062.914                   143614506.335 0                        39.000  
                  27329061.484   110042289.217          45.000  
  25063118.147                   131708084.722 0                        41.000  
                  25063117.932   100919182.182          46.000  
  25121888.327                   132016134.865 0                        38.000  
                  25121883.967   101155267.300          41.000  
  27933724.223                   146792584.818 0                        36.000  
                  27933724.902   112477440.937          44.000  
  25078716.750                   131789884.716 0                        47.000  
                  25078715.499   100982184.087          52.000  
 22  1  8 22  0 59.0010000  0  9G08G10G13G15G16G18G23G26G27
  23627943.944    23627941.014   124165945.354 0  96752686.875 0        43.000  
        42.000                                                  
  21426405.444    21426401.459   112596057.252 0  87737462.817 0        50.000  
        47.000                                                  
  25127151.362                   132043783.403 0                        36.000  
                                                                
  23864232.450    23864227.911   125407267.954 0  97719952.805 0        39.000  
        37.000                                                  
  21063893.180                   110690751.244 0                        49.000  
                                                                
  21836378.851    21836373.652   114750643.688 0  89416094.042 0        46.000  
        45.000                                                  
  20754769.161    20754764.300   109066965.994 0  84987851.247 0        47.000  
        49.000                                                  
  22321797.740    22321794.559   117301276.682 0  91403981.192 0        46.000  
        44.000                                                  
  21054154.741    21054151.596   110640921.768 0  86213708.173 0        48.000  
        48.000                                                  
 22  1  8 22  0 58.0000000  0  0
 22  1  8 22  0 59.0010000  0  6E02E04E09E11E25E30
  24731549.974                   129965413.639 0                        47.000  
                  24731548.580    99583890.302          52.000  
  27329041.221                   143614392.736 0                        39.000  
                  27329039.863   110042202.167          45.000  
  25062680.338                   131705784.355 0                        41.000  
                  25062680.123   100917419.566          46.000  
  25122312.430                   132018363.379 0                        38.000  
                  25122308.052   101156974.876          42.000  
  27934340.650                   146795825.341 0                        36.000  
                  27934341.615   112479923.924          44.000  
  25078617.952                   131789365.257 0                        47.000  
                  25078616.683   100981786.065          52.000  
 22  1  8 22  1  0.0010000  0  9G08G10G13G15G16G18G23G26G27
  23627351.015    23627347.977   124162829.369 0  96750258.835 0        43.000  
        42.000                                                  
  21425993.349    21425989.489   112593892.685 0  87735776.142 0        50.000  
        47.000                                                  
  25127231.915                   132044206.541 0                        36.000  
                                                                
  23864228.072    23864223.498   125407244.831 0  97719934.817 0        39.000  
        37.000                                                  
  21064074.068                   110691702.328 0                        49.000  
                                                                
  21836842.445    21836837.299   114753080.187 0  89417992.619 0        46.000  
        44.000                                                  
  20754779.346    20754774.539   109067019.738 0  84987893.135 0        47.000  
        49.000                                                  
  22322369.817    22322366.707   117304283.332 0  91406324.035 0        46.000  
        44.000                                                  
  21053775.614    21053772.469   110638929.425 0  86212155.702 0        48.000  
        48.000                                                  
 22  1  8 22  0 59.0000000  0  0
 22  1  8 22  1  0.0010000  0  6E02E04E09E11E25E30
  24731962.355                   129967579.693 0                        47.000  
                  24731960.782    99585550.004          52.000  
  27329019.653                   143614279.311 0                        39.000  
                  27329018.313   110042115.253          45.000  
  25062242.475                   131703483.967 0                        41.000  
                  25062242.404   100915656.906          46.000  
  25122736.337                   132020591.621 0                        38.000  
                  25122732.066   101158682.216          42.000  
  27934957.525                   146799065.565 0                        36.000  
                  27934958.311   112482406.686          44.000  
  25078519.172                   131788845.995 0                        47.000  
                  25078517.814   100981388.188          52.000  
 22  1  8 22  1  1.0010000  0  9G08G10G13G15G16G18G23G26G27
  23626758.120    23626755.011   124159713.524 0  96747830.904 0        43.000  
        42.000                                                  
  21425581.360    21425577.751   112591728.670 0  87734089.890 0        50.000  
        47.000                                                  
  25127312.612                   132044630.367 0                        36.000  
                                                                
  23864223.837    23864219.245   125407222.462 0  97719917.379 0        39.000  
        37.000                                                  
  21064255.278                   110692654.116 0                        49.000  
                                                                
  21837306.075    21837300.965   114755516.947 0  89419891.389 0        46.000  
        44.000                                                  
  20754789.674    20754784.886   109067074.195 0  84987935.565 0        47.000  
        49.000                                                  
  22322942.054    22322938.909   117307290.361 0  91408667.174 0        46.000  
        44.000                                                  
  21053396.523    21053393.360   110636937.474 0  86210603.542 0        48.000  
        48.000                                                  
 22  1  8 22  1  0.0000000  0  0
 22  1  8 22  1  1.0010000  0  6E02E04E09E11E25E30
  24732374.611                   129969746.150 0                        47.000  
                  24732373.003    99587210.025          52.000  
  27328998.210                   143614166.382 0                        39.000  
                  27328996.763   110042028.736          45.000  
  25061804.809                   131701183.832 0                        41.000  
                  25061804.702   100913894.483          46.000  
  25123160.637                   132022819.929 0                        38.000  
                  25123156.188   101160389.649          41.000  
  27935574.185                   146802305.839 0                        36.000  
                  27935574.935   112484889.489          44.000  
  25078420.481                   131788327.276 0                        47.000  
                  25078419.177   100980990.721          52.000  
 22  1  8 22  1  2.0010000  0  9G08G10G13G15G16G18G23G26G27
  23626165.155    23626162.260   124156598.097 0  96745403.296 0        43.000  
        42.000                                                  
  21425169.587    21425166.031   112589565.463 0  87732404.282 0        50.000  
        47.000                                                  
  25127393.505                   132045055.122 0                        36.000  
                                                                
  23864219.799    23864215.117   125407201.026 0  97719900.685 0        39.000  
        37.000                                                  
  21064436.577                   110693606.873 0                        49.000  
                                                                
  21837769.812    21837764.809   114757954.221 0  89421790.563 0        46.000  
        44.000                                                  
  20754800.181    20754795.375   109067129.621 0  84987978.752 0        47.000  
        49.000                                                  
  22323514.471    22323511.272   117310298.021 0  91411010.814 0        46.000  
        44.000                                                  
  21053017.574    21053014.358   110634946.169 0  86209051.862 0        48.000  
        48.000                                                  
 22  1  8 22  1  1.0000000  0  0
 22  1  8 22  1  2.0010000  0  6E02E04E09E11E25E30
  24732787.028                   129971913.263 0                        47.000  
                  24732785.366    99588870.534          52.000  
  27328976.660                   143614054.242 0                        39.000  
                  27328975.463   110041942.813          45.000  
  25061367.143                   131698884.264 0                        41.000  
                  25061367.161   100912132.478          46.000  
  25123584.758                   132025048.581 0                        38.000  
                  25123580.291   101162097.301          41.000  
  27936190.702                   146805546.397 0                        36.000  
                  27936191.560   112487372.505          44.000  
  25078321.969                   131787809.328 0                        47.000  
                  25078320.558   100980593.859          52.000  
 22  1  8 22  1  3.0010000  0  9G08G10G13G15G16G18G23G26G27
  23625572.332    23625569.348   124153482.531 0  96742975.585 0        43.000  
        42.000                                                  
  21424757.974    21424754.400   112587402.551 0  87730718.894 0        50.000  
        47.000                                                  
  25127474.380                   132045480.253 0                        36.000  
                                                                
  23864215.850    23864211.132   125407180.050 0  97719884.334 0        39.000  
        37.000                                                  
  21064617.912                   110694560.076 0                        49.000  
                                                                
  21838233.585    21838228.617   114760391.491 0  89423689.730 0        46.000  
        44.000                                                  
  20754810.778    20754805.935   109067185.502 0  84988022.293 0        47.000  
        49.000                                                  
  22324086.815    22324083.670   117313305.807 0  91413354.537 0        46.000  
        44.000                                                  
  21052638.519    21052635.517   110632954.993 0  86207500.306 0        48.000  
        48.000                                                  
 22  1  8 22  1  2.0000000  0  0
 22  1  8 22  1  3.0010000  0  6E02E04E09E11E25E30
  24733199.392                   129974080.515 0                        47.000  
                  24733197.855    99590531.162          52.000  
  27328955.253                   143613942.357 0                        38.000  
                  27328954.074   110041857.087          45.000  
  25060929.513                   131696584.733 0                        41.000  
                  25060929.674   100910370.491          46.000  
  25124008.719                   132027277.048 0                        38.000  
                  25124004.359   101163804.828          41.000  
  27936807.255                   146808786.735 0                        36.000  
                  27936808.130   112489855.371          44.000  
  25078223.404                   131787291.659 0                        47.000  
                  25078222.117   100980197.199          52.000  
 22  1  8 22  1  4.0010000  0  9G08G10G13G15G16G18G23G26G27
  23624979.420    23624976.311   124150366.887 0  96740547.805 0        43.000  
        42.000                                                  
  21424346.539    21424342.858   112585239.954 0  87729033.758 0        50.000  
        47.000                                                  
  25127555.291                   132045905.848 0                        35.000  
                                                                
  23864211.883    23864207.112   125407159.550 0  97719868.346 0        39.000  
        37.000                                                  
  21064799.479                   110695513.760 0                        49.000  
                                                                
  21838697.464    21838692.408   114762828.780 0  89425588.921 0        46.000  
        44.000                                                  
  20754821.481    20754816.728   109067241.858 0  84988066.211 0        47.000  
        49.000                                                  
  22324659.214    22324655.997   117316313.743 0  91415698.381 0        46.000  
        44.000                                                  
  21052259.749    21052256.515   110630963.982 0  86205948.859 0        48.000  
        48.000                                                  
 22  1  8 22  1  3.0000000  0  0
 22  1  8 22  1  4.0010000  0  6E02E04E09E11E25E30
  24733611.791                   129976247.940 0                        47.000  
                  24733610.236    99592191.913          52.000  
  27328933.989                   143613830.748 0                        39.000  
                  27328932.845   110041771.578          45.000  
  25060491.829                   131694285.261 0                        41.000  
                  25060492.079   100908608.560          46.000  
  25124432.769                   132029505.316 0                        38.000  
                  25124428.391   101165512.218          42.000  
  27937423.754                   146812026.877 0                        36.000  
                  27937424.629   112492338.077          44.000  
  25078124.981                   131786774.298 0                        47.000  
                  25078123.587   100979800.768          52.000  
 22  1  8 22  1  5.0010000  0  9G08G10G13G15G16G18G23G26G27
  23624386.651    23624383.506   124147251.541 0  96738120.256 0        43.000  
        42.000                                                  
  21423935.480    21423931.442   112583078.090 0  87727349.182 0        50.000  
        47.000                                                  
  25127636.506                   132046332.259 0                        35.000  
                                                                
  23864208.095    23864203.377   125407139.916 0  97719853.067 0        39.000  
        37.000                                                  
  21064981.100                   110696468.330 0                        49.000  
                                                                
  21839161.398    21839156.234   114765266.517 0  89427488.452 0        46.000  
        44.000                                                  
  20754832.238    20754827.718   109067299.109 0  84988110.818 0        47.000  
        49.000                                                  
  22325231.684    22325228.521   117319322.233 0  91418042.657 0        46.000  
        44.000                                                  
  21051880.997    21051877.781   110628973.534 0  86204397.856 0        48.000  
        48.000                                                  
 22  1  8 22  1  4.0000000  0  0
 22  1  8 22  1  5.0010000  0  6E02E04E09E11E25E30
  24734024.404                   129978415.937 0                        47.000  
                  24734022.689    99593853.101          52.000  
  27328912.939                   143613719.853 0                        39.000  
                  27328911.760   110041686.606          45.000  
  25060054.324                   131691986.250 0                        41.000  
                  25060054.431   100906846.976          46.000  
  25124856.926                   132031733.900 0                        38.000  
                  25124852.494   101167219.819          42.000  
  27938040.414                   146815267.233 0                        36.000  
                  27938041.432   112494820.940          44.000  
  25078026.576                   131786257.627 0                        47.000  
                  25078025.433   100979404.884          52.000  
 22  1  8 22  1  6.0010000  0  9G08G10G13G15G16G18G23G26G27
  23623793.864    23623790.665   124144136.210 0  96735692.730 0        43.000  
        42.000                                                  
  21423524.261    21423520.186   112580916.651 0  87725664.944 0        50.000  
        47.000                                                  
  25127717.863                   132046759.195 0                        35.000  
                                                                
  23864204.414    23864199.732   125407120.874 0  97719838.211 0        39.000  
        37.000                                                  
  21065162.720                   110697423.466 0                        49.000  
                                                                
  21839625.224    21839620.096   114767704.357 0  89429388.069 0        46.000  
        44.000                                                  
  20754843.174    20754838.743   109067356.938 0  84988155.882 0        47.000  
        49.000                                                  
  22325804.189    22325801.009   117322330.979 0  91420387.132 0        46.000  
        44.000                                                  
  21051502.335    21051499.101   110626983.338 0  86202847.059 0        48.000  
        48.000                                                  
 22  1  8 22  1  5.0000000  0  0
 22  1  8 22  1  6.0010000  0  6E02E04E09E11E25E30
  24734436.893                   129980584.198 0                        47.000  
                  24734435.481    99595514.494          52.000  
  27328892.104                   143613609.347 0                        39.000  
                  27328890.764   110041601.915          45.000  
  25059616.998                   131689687.409 0                        41.000  
                  25059616.962   100905085.531          46.000  
  25125280.815                   132033962.432 0                        38.000  
                  25125276.472   101168927.390          41.000  
  27938657.002                   146818507.510 0                        36.000  
                  27938657.931   112497303.752          44.000  
  25077928.333                   131785741.372 0                        47.000  
                  25077927.100   100979009.308          52.000  
 22  1  8 22  1  7.0010000  0  9G08G10G13G15G16G18G23G26G27
  23623201.059    23623197.861   124141021.035 0  96733265.321 0        43.000  
        42.000                                                  
  21423113.023    21423108.984   112578755.750 0  87723981.120 0        50.000  
        47.000                                                  
  25127799.078                   132047186.785 0                        35.000  
                                                                
  23864200.893    23864196.390   125407102.507 0  97719823.931 0        39.000  
        37.000                                                  
  21065344.591                   110698379.293 0                        49.000  
                                                                
  21840089.265    21840084.118   114770142.443 0  89431287.879 0        46.000  
        44.000                                                  
  20754854.271    20754849.893   109067415.469 0  84988201.479 0        47.000  
        49.000                                                  
  22326376.713    22326373.550   117325340.074 0  91422731.892 0        46.000  
        44.000                                                  
  21051123.654    21051120.420   110624993.512 0  86201296.556 0        48.000  
        48.000                                                  
 22  1  8 22  1  6.0000000  0  0
 22  1  8 22  1  7.0010000  0  6E02E04E09E11E25E30
  24734849.614                   129982752.837 0                        47.000  
                  24734848.166    99597176.185          52.000  
  27328871.304                   143613499.349 0                        39.000  
                  27328869.821   110041517.635          45.000  
  25059179.707                   131687388.820 0                        41.000  
                  25059179.582   100903324.292          46.000  
  25125704.900                   132036191.005 0                        38.000  
                  25125700.647   101170634.987          41.000  
  27939273.519                   146821747.813 0                        36.000  
                  27939274.574   112499786.579          44.000  
  25077830.267                   131785225.622 0                        47.000  
                  25077829.017   100978614.125          52.000  
 22  1  8 22  1  8.0010000  0  9G08G10G13G15G16G18G23G26G27
  23622608.379    23622605.127   124137906.368 0  96730838.314 0        43.000  
        42.000                                                  
  21422702.035    21422698.104   112576595.764 0  87722298.019 0        50.000  
        47.000                                                  
  25127880.704                   132047615.387 0                        35.000  
                                                                
  23864197.570    23864193.067   125407085.197 0  97719810.447 0        39.000  
        36.000                                                  
  21065526.695                   110699336.204 0                        49.000  
                                                                
  21840553.288    21840548.177   114772581.161 0  89433188.165 0        46.000  
        44.000                                                  
  20754865.618    20754861.222   109067475.065 0  84988247.926 0        47.000  
        49.000                                                  
  22326949.522    22326946.306   117328349.926 0  91425077.229 0        46.000  
        44.000                                                  
  21050745.153    21050741.865   110623004.455 0  86199746.633 0        48.000  
        48.000                                                  
 22  1  8 22  1  7.0000000  0  0
 22  1  8 22  1  8.0010000  0  6E02E04E09E11E25E30
  24735262.406                   129984922.260 0                        47.000  
                  24735260.959    99598838.464          52.000  
  27328850.648                   143613390.232 0                        39.000  
                  27328848.986   110041434.012          45.000  
  25058742.434                   131685090.930 0                        41.000  
                  25058742.327   100901563.551          46.000  
  25126129.003                   132038420.003 0                        38.000  
                  25126124.822   101172342.938          42.000  
  27939890.322                   146824988.479 0                        36.000  
                  27939891.269   112502269.705          44.000  
  25077732.184                   131784710.767 0                        47.000  
                  25077731.112   100978219.630          52.000  
 22  1  8 22  1  9.0010000  0  9G08G10G13G15G16G18G23G26G27
  23622015.610    23622012.304   124134791.453 0  96728411.111 0        43.000  
        42.000                                                  
  21422290.994    21422287.099   112574435.928 0  87720615.023 0        50.000  
        47.000                                                  
  25127962.401                   132048044.307 0                        35.000  
                                                                
  23864194.407    23864189.868   125407068.198 0  97719797.183 0        39.000  
        36.000                                                  
  21065708.941                   110700293.416 0                        49.000  
                                                                
  21841017.292    21841012.271   114775019.723 0  89435088.354 0        46.000  
        44.000                                                  
  20754877.090    20754872.658   109067534.980 0  84988294.611 0        47.000  
        49.000                                                  
  22327522.296    22327518.972   117331359.761 0  91427422.555 0        46.000  
        44.000                                                  
  21050366.598    21050363.328   110621015.383 0  86198196.704 0        48.000  
        48.000                                                  
 22  1  8 22  1  8.0000000  0  0
 22  1  8 22  1  9.0010000  0  6E02E04E09E11E25E30
  24735675.145                   129987091.657 0                        47.000  
                  24735673.715    99600500.736          52.000  
  27328829.973                   143613281.226 0                        39.000  
                  27328828.204   110041350.506          45.000  
  25058305.090                   131682792.899 0                        41.000  
                  25058304.947   100899802.735          46.000  
  25126553.053                   132040648.716 0                        38.000  
                  25126548.836   101174050.636          42.000  
  27940507.089                   146828228.871 0                        36.000  
                  27940507.911   112504752.569          44.000  
  25077634.191                   131784196.062 0                        47.000  
                  25077633.065   100977825.239          52.000  
 22  1  8 22  1 10.0010000  0  9G08G10G13G15G16G18G23G26G27
  23621422.823    23621419.500   124131676.184 0  96725983.605 0        43.000  
        42.000                                                  
  21421879.882    21421876.075   112572276.115 0  87718932.050 0        50.000  
        47.000                                                  
  25128044.009                   132048473.341 0                        35.000  
                                                                
  23864191.226    23864186.652   125407051.398 0  97719784.078 0        39.000  
        36.000                                                  
  21065891.151                   110701250.815 0                        49.000  
                                                                
  21841481.280    21841476.223   114777458.020 0  89436988.329 0        46.000  
        44.000                                                  
  20754888.544    20754884.094   109067595.084 0  84988341.454 0        47.000  
        49.000                                                  
  22328095.070    22328091.657   117334369.431 0  91429767.764 0        46.000  
        44.000                                                  
  21049988.167    21049984.826   110619026.185 0  86196646.677 0        48.000  
        48.000                                                  
 22  1  8 22  1  9.0000000  0  0
 22  1  8 22  1 10.0010000  0  6E02E04E09E11E25E30
  24736087.812                   129989260.942 0                        47.000  
                  24736086.579    99602162.915          52.000  
  27328809.281                   143613172.229 0                        39.000  
                  27328807.494   110041266.971          45.000  
  25057867.656                   131680494.659 0                        41.000  
                  25057867.692   100898041.738          46.000  
  25126977.085                   132042876.934 0                        38.000  
                  25126972.886   101175757.974          42.000  
  27941123.535                   146831468.695 0                        36.000  
                  27941124.500   112507235.057          45.000  
  25077536.268                   131783681.345 0                        47.000  
                  25077535.160   100977430.857          52.000  
 22  1  8 22  1 11.0010000  0  9G08G10G13G15G16G18G23G26G27
  23620829.965    23620826.641   124128561.121 0  96723556.290 0        43.000  
        42.000                                                  
  21421469.108    21421465.159   112570116.916 0  87717249.570 0        50.000  
        47.000                                                  
  25128125.724                   132048903.106 0                        35.000  
                                                                
  23864188.117    23864183.543   125407035.329 0  97719771.589 0        39.000  
        36.000                                                  
  21066073.487                   110702208.974 0                        49.000  
                                                                
  21841945.284    21841940.317   114779896.629 0  89438888.550 0        46.000  
        44.000                                                  
  20754900.230    20754895.673   109067655.959 0  84988388.880 0        47.000  
        49.000                                                  
  22328667.879    22328664.484   117337379.567 0  91432113.307 0        46.000  
        44.000                                                  
  21049609.773    21049606.431   110617037.427 0  86195096.998 0        48.000  
        48.000                                                  
 22  1  8 22  1 10.0000000  0  0
 22  1  8 22  1 11.0010000  0  6E02E04E09E11E25E30
  24736500.819                   129991430.682 0                        47.000  
                  24736499.371    99603825.450          52.000  
  27328788.553                   143613063.769 0                        39.000  
                  27328786.855   110041183.879          45.000  
  25057430.383                   131678196.754 0                        41.000  
                  25057430.383   100896281.005          46.000  
  25127401.367                   132045105.298 0                        38.000  
                  25127396.936   101177465.424          42.000  
  27941740.159                   146834708.664 0                        35.000  
                  27941741.160   112509717.610          45.000  
  25077438.489                   131783167.230 0                        47.000  
                  25077437.185   100977036.922          52.000  
 22  1  8 22  1 12.0010000  0  9G08G10G13G15G16G18G23G26G27
  23620237.321    23620234.069   124125446.700 0  96721129.477 0        43.000  
        42.000                                                  
  21421058.693    21421054.458   112567958.799 0  87715567.919 0        50.000  
        47.000                                                  
  25128207.707                   132049334.044 0                        34.000  
                                                                
  23864185.312    23864180.773   125407020.536 0  97719760.049 0        39.000  
        36.000                                                  
  21066256.001                   110703168.368 0                        49.000  
                                                                
  21842409.486    21842404.465   114782336.030 0  89440789.371 0        46.000  
        44.000                                                  
  20754912.113    20754907.342   109067718.078 0  84988437.289 0        47.000  
        49.000                                                  
  22329240.831    22329237.418   117340390.581 0  91434459.570 0        46.000  
        44.000                                                  
  21049231.575    21049228.055   110615049.591 0  86193548.044 0        48.000  
        48.000                                                  
 22  1  8 22  1 11.0000000  0  0
 22  1  8 22  1 12.0010000  0  6E02E04E09E11E25E30
  24736913.825                   129993601.361 0                        47.000  
                  24736912.432    99605488.691          52.000  
  27328768.182                   143612956.362 0                        39.000  
                  27328766.395   110041101.593          45.000  
  25056993.432                   131675899.689 0                        41.000  
                  25056993.289   100894520.923          46.000  
  25127825.649                   132047334.273 0                        37.000  
                  25127821.075   101179173.344          42.000  
  27942356.694                   146837949.181 0                        36.000  
                  27942357.820   112512200.615          45.000  
  25077340.799                   131782654.177 0                        47.000  
                  25077339.691   100976643.801          52.000  
 22  1  8 22  1 13.0010000  0  9G08G10G13G15G16G18G23G26G27
  23619644.748    23619641.514   124122332.358 0  96718702.729 0        43.000  
        42.000                                                  
  21420648.277    21420643.881   112565801.175 0  87713886.649 0        50.000  
        47.000                                                  
  25128289.851                   132049765.628 0                        35.000  
                                                                
  23864182.631    23864178.110   125407006.354 0  97719748.998 0        39.000  
        36.000                                                  
  21066438.640                   110704128.411 0                        49.000  
                                                                
  21842873.723    21842868.738   114784775.625 0  89442690.363 0        46.000  
        45.000                                                  
  20754923.978    20754919.386   109067780.837 0  84988486.192 0        47.000  
        49.000                                                  
  22329813.819    22329810.424   117343401.930 0  91436806.073 0        46.000  
        44.000                                                  
  21048853.431    21048849.803   110613062.083 0  86191999.330 0        49.000  
        48.000                                                  
 22  1  8 22  1 12.0000000  0  0
 22  1  8 22  1 13.0010000  0  6E02E04E09E11E25E30
  24737326.868                   129995772.371 0                        47.000  
                  24737325.546    99607152.195          52.000  
  27328747.794                   143612849.445 0                        39.000  
                  27328746.168   110041019.661          45.000  
  25056556.427                   131673602.843 0                        41.000  
                  25056556.123   100892760.998          46.000  
  25128249.538                   132049563.274 0                        37.000  
                  25128245.285   101180881.291          42.000  
  27942973.461                   146841189.695 0                        36.000  
                  27942974.480   112514683.586          45.000  
  25077243.270                   131782141.587 0                        47.000  
                  25077242.126   100976251.040          52.000  
 22  1  8 22  1 14.0010000  0  9G08G10G13G15G16G18G23G26G27
  23619051.943    23619048.852   124119217.529 0  96716275.585 0        43.000  
        42.000                                                  
  21420237.611    21420233.287   112563643.464 0  87712205.315 0        50.000  
        47.000                                                  
  25128371.959                   132050197.191 0                        35.000  
                                                                
  23864179.862    23864175.394   125406992.275 0  97719738.001 0        39.000  
        36.000                                                  
  21066621.351                   110705088.527 0                        49.000  
                                                                
  21843337.835    21843332.939   114787214.841 0  89444591.040 0        46.000  
        45.000                                                  
  20754936.004    20754931.376   109067843.684 0  84988535.160 0        47.000  
        49.000                                                  
  22330386.754    22330383.359   117346413.006 0  91439152.374 0        46.000  
        44.000                                                  
  21048475.233    21048471.570   110611074.328 0  86190450.428 0        49.000  
        48.000                                                  
 22  1  8 22  1 13.0000000  0  0
 22  1  8 22  1 14.0010000  0  6E02E04E09E11E25E30
  24737739.857                   129997943.147 0                        47.000  
                  24737738.588    99608815.512          52.000  
  27328727.512                   143612742.382 0                        39.000  
                  27328725.761   110040937.642          45.000  
  25056119.315                   131671305.657 0                        41.000  
                  25056119.190   100891000.816          46.000  
  25128673.552                   132051791.733 0                        37.000  
                  25128669.300   101182588.791          42.000  
  27943589.925                   146844429.608 0                        35.000  
                  27943590.854   112517166.116          45.000  
  25077145.705                   131781628.904 0                        47.000  
                  25077144.561   100975858.203          52.000  
 22  1  8 22  1 15.0010000  0  9G08G10G13G15G16G18G23G26G27
  23618459.317    23618456.137   124116102.984 0  96713848.663 0        43.000  
        42.000                                                  
  21419826.981    21419822.800   112561486.439 0  87710524.514 0        50.000  
        47.000                                                  
  25128454.246                   132050629.550 0                        34.000  
                                                                
  23864177.360    23864172.911   125406979.017 0  97719727.684 0        39.000  
        36.000                                                  
  21066804.187                   110706049.471 0                        49.000  
                                                                
  21843802.090    21843797.248   114789654.442 0  89446492.032 0        46.000  
        45.000                                                  
  20754948.155    20754943.473   109067907.368 0  84988584.790 0        47.000  
        49.000                                                  
  22330959.831    22330956.400   117349424.633 0  91441499.097 0        46.000  
        44.000                                                  
  21048097.142    21048093.354   110609087.108 0  86188901.952 0        49.000  
        48.000                                                  
 22  1  8 22  1 14.0000000  0  0
 22  1  8 22  1 15.0010000  0  6E02E04E09E11E25E30
  24738153.042                   130000114.448 0                        47.000  
                  24738151.881    99610479.243          52.000  
  27328706.981                   143612636.011 0                        39.000  
                  27328705.373   110040856.125          45.000  
  25055682.257                   131669008.899 0                        41.000  
                  25055682.007   100889240.965          46.000  
  25129097.584                   132054020.379 0                        37.000  
                  25129093.582   101184296.451          42.000  
  27944206.513                   146847669.662 0                        35.000  
                  27944207.514   112519648.773          45.000  
  25077048.212                   131781116.878 0                        47.000  
                  25077047.050   100975465.880          52.000  
 22  1  8 22  1 16.0010000  0  9G08G10G13G15G16G18G23G26G27
  23617866.691    23617863.493   124112988.555 0  96711421.825 0        43.000  
        42.000                                                  
  21419416.583    21419412.420   112559329.951 0  87708844.136 0        50.000  
        47.000                                                  
  25128536.622                   132051062.587 0                        34.000  
                                                                
  23864175.001    23864170.463   125406966.419 0  97719717.877 0        39.000  
        36.000                                                  
  21066987.219                   110707011.116 0                        49.000  
                                                                
  21844266.471    21844261.467   114792094.274 0  89448393.198 0        46.000  
        45.000                                                  
  20754960.484    20754955.785   109067971.741 0  84988634.953 0        47.000  
        49.000                                                  
  22331532.944    22331529.531   117352436.604 0  91443846.083 0        46.000  
        44.000                                                  
  21047719.087    21047715.371   110607100.243 0  86187353.738 0        49.000  
        48.000                                                  
 22  1  8 22  1 15.0000000  0  0
 22  1  8 22  1 16.0010000  0  6E02E04E09E11E25E30
  24738566.246                   130002286.131 0                        47.000  
                  24738564.995    99612143.259          52.000  
  27328686.682                   143612530.101 0                        39.000  
                  27328685.234   110040774.980          45.000  
  25055245.341                   131666712.406 0                        41.000  
                  25055244.948   100887481.321          46.000  
  25129521.563                   132056249.075 0                        37.000  
                  25129517.614   101186004.139          42.000  
  27944823.066                   146850909.777 0                        35.000  
                  27944824.013   112522131.441          45.000  
  25076951.058                   131780605.363 0                        47.000  
                  25076949.700   100975073.935          52.000  
 22  1  8 22  1 17.0010000  0  9G08G10G13G15G16G18G23G26G27
  23617274.011    23617270.956   124109874.465 0  96708995.257 0        43.000  
        42.000                                                  
  21419006.293    21419002.254   112557174.220 0  87707164.344 0        50.000  
        47.000                                                  
  25128619.231                   132051496.486 0                        34.000  
                                                                
  23864172.839    23864168.193   125406954.764 0  97719708.774 0        39.000  
        36.000                                                  
  21067170.305                   110707973.659 0                        49.000  
                                                                
  21844730.886    21844725.776   114794534.573 0  89450294.718 0        46.000  
        45.000                                                  
  20754972.885    20754968.222   109068037.032 0  84988685.825 0        47.000  
        49.000                                                  
  22332106.165    22332102.859   117355449.138 0  91446193.507 0        46.000  
        44.000                                                  
  21047340.979    21047337.405   110605113.977 0  86185806.003 0        49.000  
        48.000                                                  
 22  1  8 22  1 16.0000000  0  0
 22  1  8 22  1 17.0010000  0  6E02E04E09E11E25E30
  24738979.502                   130004458.418 0                        47.000  
                  24738978.537    99613807.741          52.000  
  27328666.668                   143612424.930 0                        39.000  
                  27328665.167   110040694.386          45.000  
  25054808.301                   131664416.426 0                        41.000  
                  25054808.033   100885722.055          46.000  
  25129945.559                   132058478.023 0                        37.000  
                  25129941.842   101187712.064          42.000  
  27945439.815                   146854150.145 0                        35.000  
                  27945440.655   112524614.290          45.000  
  25076853.707                   131780094.587 0                        47.000  
                  25076852.653   100974682.564          52.000  
 22  1  8 22  1 18.0010000  0  9G08G10G13G15G16G18G23G26G27
  23616681.385    23616678.490   124106760.346 0  96706568.680 0        43.000  
        43.000                                                  
  21418596.270    21418592.106   112555018.832 0  87705484.821 0        50.000  
        47.000                                                  
  25128702.018                   132051930.837 0                        34.000  
                                                                
  23864170.731    23864166.031   125406943.613 0  97719700.106 0        39.000  
        36.000                                                  
  21067353.606                   110708936.731 0                        49.000  
                                                                
  21845195.231    21845190.138   114796974.922 0  89452196.298 0        45.000  
        45.000                                                  
  20754985.430    20754980.819   109068102.837 0  84988737.099 0        47.000  
        49.000                                                  
  22332679.492    22332676.240   117358461.857 0  91448541.080 0        46.000  
        44.000                                                  
  21046963.067    21046959.475   110603127.910 0  86184258.411 0        48.000  
        48.000                                                  
 22  1  8 22  1 17.0000000  0  0
 22  1  8 22  1 18.0010000  0  6E02E04E09E11E25E30
  24739392.938                   130006630.902 0                        47.000  
                  24739391.955    99615472.365          52.000  
  27328647.012                   143612320.086 0                        39.000  
                  27328645.261   110040614.034          45.000  
  25054371.439                   131662120.519 0                        41.000  
                  25054371.171   100883962.860          46.000  
  25130369.787                   132060706.883 0                        37.000  
                  25130365.981   101189419.881          42.000  
  27946056.422                   146857390.292 0                        35.000  
                  27946057.190   112527097.032          45.000  
  25076756.607                   131779584.145 0                        47.000  
                  25076755.446   100974291.439          52.000  
 22  1  8 22  1 19.0010000  0  9G08G10G13G15G16G18G23G26G27
  23616088.795    23616085.972   124103646.312 0  96704142.165 0        43.000  
        43.000                                                  
  21418186.265    21418182.066   112552863.941 0  87703805.687 0        50.000  
        47.000                                                  
  25128784.733                   132052365.787 0                        34.000  
                                                                
  23864168.836    23864163.994   125406933.081 0  97719691.897 0        39.000  
        36.000                                                  
  21067536.942                   110709900.430 0                        49.000  
                                                                
  21845659.557    21845654.554   114799415.462 0  89454098.021 0        46.000  
        45.000                                                  
  20754998.117    20754993.363   109068169.288 0  84988788.879 0        47.000  
        49.000                                                  
  22333252.802    22333249.586   117361474.878 0  91450888.898 0        46.000  
        44.000                                                  
  21046585.083    21046581.617   110601142.171 0  86182711.073 0        49.000  
        48.000                                                  
 22  1  8 22  1 18.0000000  0  0
 22  1  8 22  1 19.0010000  0  6E02E04E09E11E25E30
  24739806.445                   130008803.705 0                        47.000  
                  24739805.409    99617137.256          52.000  
  27328627.017                   143612215.663 0                        39.000  
                  27328625.248   110040534.045          45.000  
  25053934.505                   131659824.848 0                        41.000  
                  25053934.380   100882203.841          46.000  
  25130793.962                   132062935.758 0                        37.000  
                  25130790.138   101191127.700          42.000  
  27946672.957                   146860630.448 0                        36.000  
                  27946673.868   112529579.736          45.000  
  25076659.489                   131779074.176 0                        47.000  
                  25076658.417   100973900.682          52.000  
 22  1  8 22  1 20.0010000  0  9G08G10G13G15G16G18G23G26G27
  23615496.419    23615493.631   124100532.669 0  96701715.954 0        43.000  
        43.000                                                  
  21417776.278    21417772.151   112550709.844 0  87702127.175 0        50.000  
        47.000                                                  
  25128867.646                   132052801.673 0                        34.000  
                                                                
  23864167.085    23864162.118   125406923.544 0  97719684.431 0        39.000  
        36.000                                                  
  21067720.546                   110710865.098 0                        49.000  
                                                                
  21846124.098    21846119.113   114801856.509 0  89456000.136 0        46.000  
        45.000                                                  
  20755011.036    20755006.229   109068236.707 0  84988841.418 0        47.000  
        49.000                                                  
  22333826.273    22333823.038   117364488.548 0  91453237.210 0        46.000  
        44.000                                                  
  21046207.404    21046203.848   110599157.070 0  86181164.246 0        49.000  
        48.000                                                  
 22  1  8 22  1 19.0000000  0  0
 22  1  8 22  1 20.0010000  0  6E02E04E09E11E25E30
  24740220.024                   130010977.192 0                        47.000  
                  24740219.005    99618802.644          52.000  
  27328607.325                   143612112.048 0                        39.000  
                  27328605.646   110040454.638          45.000  
  25053497.786                   131657529.728 0                        41.000  
                  25053497.679   100880445.241          46.000  
  25131218.173                   132065164.941 0                        37.000  
                  25131214.277   101192835.800          42.000  
  27947289.617                   146863870.869 0                        36.000  
                  27947290.599   112532062.683          45.000  
  25076562.710                   131778564.982 0                        47.000  
                  25076561.513   100973510.524          52.000  
 22  1  8 22  1 21.0010000  0  9G08G10G13G15G16G18G23G26G27
  23614903.918    23614901.059   124097418.588 0  96699289.400 0        43.000  
        43.000                                                  
  21417366.202    21417362.146   112548555.736 0  87700448.649 0        50.000  
        47.000                                                  
  25128950.415                   132053237.691 0                        35.000  
                                                                
  23864165.191    23864160.384   125406914.113 0  97719677.103 0        39.000  
        36.000                                                  
  21067904.025                   110711829.903 0                        49.000  
                                                                
  21846588.496    21846583.600   114804297.246 0  89457902.002 0        46.000  
        44.000                                                  
  20755023.812    20755019.113   109068304.263 0  84988894.062 0        47.000  
        49.000                                                  
  22334399.582    22334396.491   117367502.038 0  91455585.394 0        45.000  
        44.000                                                  
  21045829.688    21045825.990   110597171.772 0  86179617.267 0        48.000  
        48.000                                                  
 22  1  8 22  1 20.0000000  0  0
 22  1  8 22  1 21.0010000  0  6E02E04E09E11E25E30
  24740633.334                   130013150.483 0                        47.000  
                  24740632.494    99620467.891          52.000  
  27328587.705                   143612008.380 0                        39.000  
                  27328585.990   110040375.199          45.000  
  25053060.978                   131655234.329 0                        41.000  
                  25053060.853   100878686.431          46.000  
  25131642.348                   132067393.655 0                        37.000  
                  25131638.238   101194543.506          42.000  
  27947906.134                   146867110.796 0                        35.000  
                  27947907.081   112534545.202          45.000  
  25076465.682                   131778055.747 0                        47.000  
                  25076464.627   100973120.333          52.000  
 22  1  8 22  1 22.0010000  0  9G08G10G13G15G16G18G23G26G27
  23614311.256    23614308.629   124094304.731 0  96696863.024 0        43.000  
        43.000                                                  
  21416956.448    21416952.356   112546402.276 0  87698770.621 0        50.000  
        47.000                                                  
  25129033.524                   132053674.375 0                        34.000  
                                                                
  23864163.511    23864158.758   125406905.459 0  97719670.376 0        39.000  
        36.000                                                  
  21068087.683                   110712795.504 0                        49.000  
                                                                
  21847052.966    21847048.070   114806738.337 0  89459804.153 0        46.000  
        45.000                                                  
  20755036.749    20755032.068   109068372.618 0  84988947.332 0        47.000  
        49.000                                                  
  22334973.035    22334969.980   117370515.996 0  91457933.916 0        46.000  
        44.000                                                  
  21045452.009    21045448.346   110595186.981 0  86178070.679 0        48.000  
        48.000                                                  
 22  1  8 22  1 21.0000000  0  0
 22  1  8 22  1 22.0010000  0  6E02E04E09E11E25E30
  24741047.145                   130015324.278 0                        47.000  
                  24741046.216    99622133.526          52.000  
  27328568.121                   143611905.298 0                        39.000  
                  27328566.280   110040296.215          45.000  
  25052624.277                   131652939.317 0                        41.000  
                  25052624.116   100876927.920          46.000  
  25132066.433                   132069622.518 0                        37.000  
                  25132062.430   101196251.337          42.000  
  27948522.776                   146870350.835 0                        35.000  
                  27948523.669   112537027.831          45.000  
  25076368.885                   131777547.154 0                        47.000  
                  25076367.813   100972730.628          52.000  
 22  1  8 22  1 23.0010000  0  9G08G10G13G15G16G18G23G26G27
  23613718.898    23613716.164   124091191.184 0  96694436.875 0        43.000  
        43.000                                                  
  21416546.890    21416542.744   112544249.512 0  87697093.143 0        50.000  
        47.000                                                  
  25129116.883                   132054111.951 0                        34.000  
                                                                
  23864162.028    23864157.275   125406897.668 0  97719664.293 0        39.000  
        36.000                                                  
  21068271.645                   110713761.956 0                        49.000  
                                                                
  21847517.543    21847512.539   114809179.804 0  89461706.597 0        46.000  
        44.000                                                  
  20755049.955    20755045.398   109068441.842 0  84989001.264 0        47.000  
        49.000                                                  
  22335546.684    22335543.647   117373530.449 0  91460282.850 0        46.000  
        44.000                                                  
  21045074.472    21045070.773   110593202.710 0  86176524.492 0        48.000  
        48.000                                                  
 22  1  8 22  1 22.0000000  0  0
 22  1  8 22  1 23.0010000  0  6E02E04E09E11E25E30
  24741460.831                   130017498.605 0                        47.000  
                  24741459.919    99623799.568          52.000  
  27328548.572                   143611802.871 0                        39.000  
                  27328546.714   110040217.739          45.000  
  25052187.523                   131650644.743 0                        41.000  
                  25052187.433   100875169.735          46.000  
  25132490.608                   132071851.616 0                        37.000  
                  25132486.695   101197959.338          42.000  
  27949139.257                   146873591.080 0                        35.000  
                  27949140.168   112539510.609          45.000  
  25076272.035                   131777039.221 0                        47.000  
                  25076271.159   100972341.430          52.000  
 22  1  8 22  1 24.0010000  0  9G08G10G13G15G16G18G23G26G27
  23613126.325    23613123.663   124088077.743 0  96692010.819 0        43.000  
        43.000                                                  
  21416137.314    21416133.168   112542097.264 0  87695416.069 0        50.000  
        47.000                                                  
  25129200.224                   132054550.105 0                        34.000  
                                                                
  23864160.777    23864155.989   125406890.523 0  97719658.735 0        39.000  
        36.000                                                  
  21068455.803                   110714729.083 0                        49.000  
                                                                
  21847982.227    21847977.152   114811621.514 0  89463609.222 0        45.000  
        45.000                                                  
  20755063.213    20755058.621   109068511.732 0  84989055.721 0        47.000  
        49.000                                                  
  22336120.441    22336117.278   117376545.257 0  91462632.051 0        46.000  
        44.000                                                  
  21044696.953    21044693.326   110591218.794 0  86174978.590 0        49.000  
        48.000                                                  
 22  1  8 22  1 23.0000000  0  0
 22  1  8 22  1 24.0010000  0  6E02E04E09E11E25E30
  24741874.695                   130019673.295 0                        47.000  
                  24741873.802    99625465.890          52.000  
  27328529.113                   143611700.958 0                        39.000  
                  27328527.308   110040139.645          45.000  
  25051751.036                   131648350.424 0                        41.000  
                  25051750.786   100873411.759          46.000  
  25132914.783                   132074080.732 0                        37.000  
                  25132910.852   101199667.373          42.000  
  27949755.792                   146876831.318 0                        35.000  
                  27949756.828   112541993.385          45.000  
  25076175.614                   131776531.788 0                        47.000  
                  25076174.595   100971952.618          52.000  
 22  1  8 22  1 25.0010000  0  9G08G10G13G15G16G18G23G26G27
  23612533.860    23612531.126   124084964.390 0  96689584.819 0        43.000  
        43.000                                                  
  21415727.702    21415723.682   112539945.483 0  87693739.366 0        50.000  
        47.000                                                  
  25129283.708                   132054988.829 0                        34.000  
                                                                
  23864159.580    23864154.774   125406884.032 0  97719653.675 0        39.000  
        36.000                                                  
  21068640.032                   110715696.820 0                        49.000  
                                                                
  21848446.821    21848441.729   114814063.386 0  89465511.982 0        46.000  
        45.000                                                  
  20755076.758    20755072.076   109068582.253 0  84989110.674 0        47.000  
        49.000                                                  
  22336694.197    22336691.052   117379560.362 0  91464981.488 0        46.000  
        44.000                                                  
  21044319.488    21044315.878   110589235.213 0  86173432.933 0        48.000  
        48.000                                                  
 22  1  8 22  1 24.0000000  0  0
 22  1  8 22  1 25.0010000  0  6E02E04E09E11E25E30
  24742288.542                   130021848.306 0                        47.000  
                  24742287.666    99627132.458          52.000  
  27328509.778                   143611599.464 0                        39.000  
                  27328507.938   110040061.886          45.000  
  25051314.496                   131646056.325 0                        41.000  
                  25051314.317   100871653.941          46.000  
  25133339.011                   132076309.850 0                        37.000  
                  25133335.080   101201375.390          42.000  
  27950372.345                   146880071.477 0                        35.000  
                  27950373.417   112544476.125          45.000  
  25076079.050                   131776024.806 0                        47.000  
                  25076078.102   100971564.158          52.000  
 22  1  8 22  1 26.0010000  0  9G08G10G13G15G16G18G23G26G27
  23611941.359    23611938.821   124081850.926 0  96687158.756 0        43.000  
        43.000                                                  
  21415318.144    21415314.320   112537794.013 0  87692062.889 0        50.000  
        47.000                                                  
  25129367.353                   132055427.987 0                        34.000  
                                                                
  23864158.455    23864153.576   125406877.969 0  97719648.953 0        39.000  
        36.000                                                  
  21068824.316                   110716665.020 0                        49.000  
                                                                
  21848911.577    21848906.395   114816505.264 0  89467414.741 0        45.000  
        44.000                                                  
  20755090.303    20755085.728   109068653.240 0  84989165.985 0        47.000  
        49.000                                                  
  22337268.061    22337264.755   117382575.581 0  91467331.009 0        45.000  
        44.000                                                  
  21043942.005    21043938.413   110587251.743 0  86171887.367 0        48.000  
        48.000                                                  
 22  1  8 22  1 25.0000000  0  0
 22  1  8 22  1 26.0010000  0  6E02E04E09E11E25E30
  24742702.603                   130024023.460 0                        47.000  
                  24742701.531    99628799.128          52.000  
  27328490.373                   143611498.235 0                        39.000  
                  27328488.764   110039984.316          45.000  
  25050878.045                   131643762.255 0                        41.000  
                  25050877.830   100869896.150          46.000  
  25133763.222                   132078538.784 0                        37.000  
                  25133759.273   101203083.272          42.000  
  27950988.790                   146883311.452 0                        35.000  
                  27950990.005   112546958.691          45.000  
  25075982.628                   131775518.103 0                        47.000  
                  25075981.771   100971175.900          52.000  
 22  1  8 22  1 27.0010000  0  9G08G10G13G15G16G18G23G26G27
  23611348.911    23611346.535   124078737.758 0  96684732.892 0        43.000  
        43.000                                                  
  21414908.908    21414905.030   112535643.230 0  87690386.944 0        50.000  
        47.000                                                  
  25129451.087                   132055867.987 0                        34.000  
                                                                
  23864157.507    23864152.504   125406872.769 0  97719644.887 0        39.000  
        36.000                                                  
  21069008.617                   110717634.063 0                        49.000  
                                                                
  21849376.421    21849371.150   114818947.535 0  89469317.807 0        46.000  
        44.000                                                  
  20755104.008    20755099.237   109068725.063 0  84989221.953 0        47.000  
        49.000                                                  
  22337841.925    22337838.690   117385591.340 0  91469680.949 0        46.000  
        44.000                                                  
  21043564.700    21043561.144   110585268.807 0  86170342.229 0        48.000  
        48.000                                                  
 22  1  8 22  1 26.0000000  0  0
 22  1  8 22  1 27.0010000  0  6E02E04E09E11E25E30
  24743116.485                   130026199.154 0                        47.000  
                  24743115.538    99630466.218          52.000  
  27328471.413                   143611397.653 0                        39.000  
                  27328469.627   110039907.256          45.000  
  25050441.701                   131641468.634 0                        41.000  
                  25050441.308   100868138.687          46.000  
  25134187.450                   132080767.935 0                        37.000  
                  25134183.448   101204791.327          42.000  
  27951605.432                   146886551.640 0                        35.000  
                  27951606.576   112549441.408          45.000  
  25075886.350                   131775012.075 0                        47.000  
                  25075885.403   100970788.162          52.000  
 22  1  8 22  1 28.0010000  0  9G08G10G13G15G16G18G23G26G27
  23610756.571    23610754.177   124075624.959 0  96682307.342 0        43.000  
        43.000                                                  
  21414499.868    21414495.955   112533493.218 0  87688711.626 0        50.000  
        47.000                                                  
  25129534.893                   132056308.826 0                        34.000  
                                                                
  23864156.757    23864151.700   125406868.503 0  97719641.542 0        40.000  
        36.000                                                  
  21069193.114                   110718604.045 0                        49.000  
                                                                
  21849841.159    21849835.941   114821390.287 0  89471221.253 0        46.000  
        45.000                                                  
  20755117.821    20755113.032   109068797.835 0  84989278.660 0        47.000  
        49.000                                                  
  22338415.860    22338412.679   117388607.692 0  91472031.360 0        46.000  
        44.000                                                  
  21043187.360    21043183.876   110583286.496 0  86168797.574 0        48.000  
        48.000                                                  
 22  1  8 22  1 27.0000000  0  0
